{"type": "FeatureCollection", "features": [{"type": "Feature", "properties": {"name": "The Ismaili Centre", "url": "https://openhouselondon.open-city.org.uk/listings/2063", "description": "Part of an international family of Ismaili Centres, a religious, cultural and social space for the Shia Ismaili Muslim community. The serenity of the entrance fountain to the roof garden reflects Muslim traditions in architecture and design", "ticketed_events": "No", "fully_booked": ""}, "geometry": {"type": "Point", "coordinates": [-0.1732322, 51.4956616]}}, {"type": "Feature", "properties": {"name": "Millennium Mills", "url": "https://openhouselondon.open-city.org.uk/listings/8218", "description": "Built in the early 20C by flour company Spillers, the Art Deco landmark has stood vacant since the decline of the docks as a working port in the 1980s.", "ticketed_events": "Yes", "fully_booked": "Unknown"}, "geometry": {"type": "Point", "coordinates": [0.0276533, 51.5046357]}}, {"type": "Feature", "properties": {"name": "Millennium Mills", "url": "https://openhouselondon.open-city.org.uk/listings/8218", "description": "Built in the early 20C by flour company Spillers, the Art Deco landmark has stood vacant since the decline of the docks as a working port in the 1980s.", "ticketed_events": "Yes", "fully_booked": "Unknown"}, "geometry": {"type": "Point", "coordinates": [0.0276533, 51.5046357]}}, {"type": "Feature", "properties": {"name": "Millennium Mills", "url": "https://openhouselondon.open-city.org.uk/listings/8218", "description": "Built in the early 20C by flour company Spillers, the Art Deco landmark has stood vacant since the decline of the docks as a working port in the 1980s.", "ticketed_events": "Yes", "fully_booked": "Unknown"}, "geometry": {"type": "Point", "coordinates": [0.0276533, 51.5046357]}}, {"type": "Feature", "properties": {"name": "Carreducker at 50 Chocolate Studios", "url": "https://openhouselondon.open-city.org.uk/listings/8766", "description": "A Victorian chocolate factory conversion with exposed girders, brickwork and Crittal-style windows. \r\n\r\nNo 50 was transformed from a flat into a traditional, bespoke shoemaking workshop, showroom and shoe & leather craft training school.", "ticketed_events": "Yes", "fully_booked": "Unknown"}, "geometry": {"type": "Point", "coordinates": [-0.0907533, 51.5285506]}}, {"type": "Feature", "properties": {"name": "The Event Space", "url": "https://openhouselondon.open-city.org.uk/listings/10287", "description": "Twenty artists from Redlees Studios in Isleworth are delighted to be  exhibiting at Brentford Project Event Space. You will find jewellery, paintings, ceramics, textiles and mixed media artwork. Enjoy discovering contemporary art.", "ticketed_events": "No", "fully_booked": ""}, "geometry": {"type": "Point", "coordinates": [-0.306442, 51.4821386]}}, {"type": "Feature", "properties": {"name": "Tales of the Elephant: Past, present and future architecture", "url": "https://openhouselondon.open-city.org.uk/listings/10400", "description": "In its heyday, Elephant & Castle was known as the \u2018Piccadilly Circus of South London\u2019, but for decades it has been synonymous with urban decay and failed planning. The \u2018Elephant\u2019 is a fascinating, vibrant neighbourhood with a rich history", "ticketed_events": "No", "fully_booked": ""}, "geometry": {"type": "Point", "coordinates": [-0.1047396, 51.4987041]}}]}