{"type": "FeatureCollection", "features": [{"type": "Feature", "properties": {"name": "The Old Finsbury Town Hall ", "url": "https://openhouselondon.open-city.org.uk/listings/375", "description": "Opened by Lord Rosebery, an ornate building with elegant decor influenced by the Art Nouveau movement. Several notable rooms including the Great Hall with unique stained glass, antique mirrors and Clerkenwell Angel statuettes.", "ticketed_events": "No", "fully_booked": ""}, "geometry": {"type": "Point", "coordinates": [-0.1100225, 51.5257219]}}, {"type": "Feature", "properties": {"name": "The Swedenborg Society", "url": "https://openhouselondon.open-city.org.uk/listings/889", "description": "Grade II listed Georgian domestic building c1760, formerly part of Bedford Estate. Interior refurbished 1924-5 to form lecture hall (restored 2014), library, bookshop and offices. Oak woodwork and green Doulton tiles line the staircase.", "ticketed_events": "Yes", "fully_booked": "Unknown"}, "geometry": {"type": "Point", "coordinates": [-0.1229063, 51.5180093]}}, {"type": "Feature", "properties": {"name": "Guildhall Art Gallery", "url": "https://openhouselondon.open-city.org.uk/listings/1405", "description": "Houses the City of London's art collection, built over remains of London's 2C Roman amphitheatre. Fa\u00e7ade uses Portland stone and Collyweston stone slates. Interior uses finishes of marble, American elm, damask and painted wall coverings.", "ticketed_events": "Yes", "fully_booked": "Unknown"}, "geometry": {"type": "Point", "coordinates": [-0.0919056, 51.5152757]}}, {"type": "Feature", "properties": {"name": "The Ismaili Centre", "url": "https://openhouselondon.open-city.org.uk/listings/2063", "description": "Part of an international family of Ismaili Centres, a religious, cultural and social space for the Shia Ismaili Muslim community. The serenity of the entrance fountain to the roof garden reflects Muslim traditions in architecture and design", "ticketed_events": "No", "fully_booked": ""}, "geometry": {"type": "Point", "coordinates": [-0.1732322, 51.4956616]}}, {"type": "Feature", "properties": {"name": "The Church of Our Most Holy Redeemer", "url": "https://openhouselondon.open-city.org.uk/listings/2288", "description": "A unique II* listed Italianate church by John Dando Sedding with attached Campanile and Institute Building. Of particular significance in the church is the imposing baldacchino over the High Altar, which dominates the east end.", "ticketed_events": "No", "fully_booked": ""}, "geometry": {"type": "Point", "coordinates": [-0.1088928, 51.5258475]}}, {"type": "Feature", "properties": {"name": "The Church of Our Most Holy Redeemer", "url": "https://openhouselondon.open-city.org.uk/listings/2288", "description": "A unique II* listed Italianate church by John Dando Sedding with attached Campanile and Institute Building. Of particular significance in the church is the imposing baldacchino over the High Altar, which dominates the east end.", "ticketed_events": "No", "fully_booked": ""}, "geometry": {"type": "Point", "coordinates": [-0.1088928, 51.5258475]}}, {"type": "Feature", "properties": {"name": "St Dunstan and All Saints Church", "url": "https://openhouselondon.open-city.org.uk/listings/2497", "description": "Grade I listed early medieval parish church (from 952 before Tower of London) in spacious churchyard. Fine interior: Anglo-Saxon Rood, Norman font, 'squint', fine memorials incl founders of Trinity House, 1950s glass. Bells of Stepney.", "ticketed_events": "No", "fully_booked": ""}, "geometry": {"type": "Point", "coordinates": [-0.0416646, 51.5168842]}}, {"type": "Feature", "properties": {"name": "The City Centre", "url": "https://openhouselondon.open-city.org.uk/listings/2653", "description": "An overview of the latest developments and architecture in the City of London via the interactive 1:500 scale Pipers model that shows the future skyline with all of the proposed new towers.", "ticketed_events": "No", "fully_booked": ""}, "geometry": {"type": "Point", "coordinates": [-0.0913978, 51.5153573]}}, {"type": "Feature", "properties": {"name": "German Historical Institute", "url": "https://openhouselondon.open-city.org.uk/listings/6371", "description": "This Grade II* listed building includes an Adam-style ceiling on the 1st floor and a beautiful staircase with wrought-iron balustrade. Once home to the Pharmaceutical Society of Great Britain, it now houses an historical research institute.", "ticketed_events": "No", "fully_booked": ""}, "geometry": {"type": "Point", "coordinates": [-0.1239694, 51.5189044]}}, {"type": "Feature", "properties": {"name": "The Library at Willesden Green", "url": "https://openhouselondon.open-city.org.uk/listings/6420", "description": "A modern 4-storey building incorporating the much-loved Victorian library. The galleries and feature walls display exhibitions and contemporary art and a dramatic central atrium provides natural ventilation and daylight throughout.", "ticketed_events": "Yes", "fully_booked": "Unknown"}, "geometry": {"type": "Point", "coordinates": [-0.2290558, 51.5469042]}}, {"type": "Feature", "properties": {"name": "Maggie's Barts", "url": "https://openhouselondon.open-city.org.uk/listings/6604", "description": "Maggie's Barts opened in December 2017. Maggie's Centres are unique, welcoming and uplifting places with qualified staff on hand to provide free practical, emotional and social support for people with cancer, their families and friends.", "ticketed_events": "Yes", "fully_booked": "Unknown"}, "geometry": {"type": "Point", "coordinates": [-0.1000463, 51.517496]}}, {"type": "Feature", "properties": {"name": "Westbourne Park Baptist Church", "url": "https://openhouselondon.open-city.org.uk/listings/8139", "description": "The building is a church worship area with an additional hall, meeting rooms, offices, a children's library and 33 affordable units of accommodation made up of one, two and three bedroom flats.", "ticketed_events": "Yes", "fully_booked": "Unknown"}, "geometry": {"type": "Point", "coordinates": [-0.1894917, 51.518639]}}, {"type": "Feature", "properties": {"name": "Windmill Place ", "url": "https://openhouselondon.open-city.org.uk/listings/8364", "description": "The project includes 24 high quality homes which respond to their surroundings in both scale and materiality, with high quality, light coloured brickwork to complement the local area.", "ticketed_events": "No", "fully_booked": ""}, "geometry": {"type": "Point", "coordinates": [-0.1136844, 51.3006817]}}, {"type": "Feature", "properties": {"name": "Macintosh Court Sheltered Housing Scheme", "url": "https://openhouselondon.open-city.org.uk/listings/8372", "description": "Formerly 269 Leigham Court Road, Kate Macintosh designed the Grade II Listed sheltered housing scheme of 44 flats,  common room, shop and amenities contained in seven blocks, linked by a covered walkway surrounded by trees and gardens.", "ticketed_events": "No", "fully_booked": ""}, "geometry": {"type": "Point", "coordinates": [-0.1140792, 51.4298955]}}, {"type": "Feature", "properties": {"name": "Macintosh Court Sheltered Housing Scheme", "url": "https://openhouselondon.open-city.org.uk/listings/8372", "description": "Formerly 269 Leigham Court Road, Kate Macintosh designed the Grade II Listed sheltered housing scheme of 44 flats,  common room, shop and amenities contained in seven blocks, linked by a covered walkway surrounded by trees and gardens.", "ticketed_events": "No", "fully_booked": ""}, "geometry": {"type": "Point", "coordinates": [-0.1140792, 51.4298955]}}, {"type": "Feature", "properties": {"name": "Macintosh Court Sheltered Housing Scheme", "url": "https://openhouselondon.open-city.org.uk/listings/8372", "description": "Formerly 269 Leigham Court Road, Kate Macintosh designed the Grade II Listed sheltered housing scheme of 44 flats,  common room, shop and amenities contained in seven blocks, linked by a covered walkway surrounded by trees and gardens.", "ticketed_events": "No", "fully_booked": ""}, "geometry": {"type": "Point", "coordinates": [-0.1140792, 51.4298955]}}, {"type": "Feature", "properties": {"name": "The Reach", "url": "https://openhouselondon.open-city.org.uk/listings/8623", "description": "A 5,700 sq m residential-led mixed-use development for Peabody in Plumstead, South London", "ticketed_events": "No", "fully_booked": ""}, "geometry": {"type": "Point", "coordinates": [0.0902989, 51.4984726]}}, {"type": "Feature", "properties": {"name": "Museum of Neoliberalism", "url": "https://openhouselondon.open-city.org.uk/listings/8739", "description": "The museum is situated in a shopfront in Leegate Shopping Centre, which has been described by the Evening Standard as \"the worst shopping precinct in the country.\"", "ticketed_events": "Yes", "fully_booked": "Unknown"}, "geometry": {"type": "Point", "coordinates": [0.0122701, 51.4560516]}}, {"type": "Feature", "properties": {"name": "Alderman Jones House", "url": "https://openhouselondon.open-city.org.uk/listings/8952", "description": "Becontree Estate two storey cottage house with garden located on a banjo.", "ticketed_events": "Yes", "fully_booked": "Unknown"}, "geometry": {"type": "Point", "coordinates": [0.1326619, 51.5499898]}}, {"type": "Feature", "properties": {"name": "Reliance Arcade", "url": "https://openhouselondon.open-city.org.uk/listings/9043", "description": "Reliance Arcade is a Grade II Listed covered market in Brixton, London.  The Arcade was constructed in the 1920s and is home to 40 small retail units catering largely to local African-Caribbean communities.", "ticketed_events": "No", "fully_booked": ""}, "geometry": {"type": "Point", "coordinates": [-0.1131814, 51.462185]}}, {"type": "Feature", "properties": {"name": "Hidden London: Life Support ", "url": "https://openhouselondon.open-city.org.uk/listings/9168", "description": "Online tour of some of London and its estuary's hidden infrastructure - the systems and facilities that power our city and keep us alive, but we rarely think about. How does it all connect with the ship that blocked the Suez Canal?", "ticketed_events": "Yes", "fully_booked": "Unknown"}, "geometry": {"type": "Point", "coordinates": [-0.02258, 51.542812]}}, {"type": "Feature", "properties": {"name": "The Standard, London", "url": "https://openhouselondon.open-city.org.uk/listings/9211", "description": "This ambitious transformation of the former Camden Town Hall Annexe, a 1974 Brutalist structure, into a landmark hotel was achieved through the restoration of the original concrete fa\u00e7ade and the addition of three striking storeys.", "ticketed_events": "No", "fully_booked": ""}, "geometry": {"type": "Point", "coordinates": [-0.1241809, 51.5294123]}}, {"type": "Feature", "properties": {"name": "The Standard, London", "url": "https://openhouselondon.open-city.org.uk/listings/9211", "description": "This ambitious transformation of the former Camden Town Hall Annexe, a 1974 Brutalist structure, into a landmark hotel was achieved through the restoration of the original concrete fa\u00e7ade and the addition of three striking storeys.", "ticketed_events": "No", "fully_booked": ""}, "geometry": {"type": "Point", "coordinates": [-0.1241809, 51.5294123]}}, {"type": "Feature", "properties": {"name": "The Standard, London", "url": "https://openhouselondon.open-city.org.uk/listings/9211", "description": "This ambitious transformation of the former Camden Town Hall Annexe, a 1974 Brutalist structure, into a landmark hotel was achieved through the restoration of the original concrete fa\u00e7ade and the addition of three striking storeys.", "ticketed_events": "No", "fully_booked": ""}, "geometry": {"type": "Point", "coordinates": [-0.1241809, 51.5294123]}}, {"type": "Feature", "properties": {"name": "The Standard, London", "url": "https://openhouselondon.open-city.org.uk/listings/9211", "description": "This ambitious transformation of the former Camden Town Hall Annexe, a 1974 Brutalist structure, into a landmark hotel was achieved through the restoration of the original concrete fa\u00e7ade and the addition of three striking storeys.", "ticketed_events": "No", "fully_booked": ""}, "geometry": {"type": "Point", "coordinates": [-0.1241809, 51.5294123]}}, {"type": "Feature", "properties": {"name": "Trafalgar Tavern", "url": "https://openhouselondon.open-city.org.uk/listings/9249", "description": "A grand riverside Victorian pub, named after Horatio Nelson's victory at the Battle of Trafalgar. Featuring hundreds of original paintings on the walls.", "ticketed_events": "No", "fully_booked": ""}, "geometry": {"type": "Point", "coordinates": [-0.0042335, 51.4845712]}}, {"type": "Feature", "properties": {"name": "Creating thoughtful homes with Amos Goldreich Architecture", "url": "https://openhouselondon.open-city.org.uk/listings/9261", "description": "We Design Homes talks to Amos Goldreich about his latest projects, discussing the relationships they form with those they work with to create homes that have a positive impact on people\u2019s lives and are a joy to experience.", "ticketed_events": "Yes", "fully_booked": "Unknown"}, "geometry": {"type": "Point", "coordinates": [-0.0049002, 51.5101854]}}, {"type": "Feature", "properties": {"name": "Slavery and the City ", "url": "https://openhouselondon.open-city.org.uk/listings/9344", "description": "We will explore sites and institutions with direct links to the history of slavery and hear why the apologies were made last year, whilst wandering within the story packed streets and alleyways of the Square Mile.", "ticketed_events": "Yes", "fully_booked": "Unknown"}, "geometry": {"type": "Point", "coordinates": [-0.097557, 51.5148819]}}, {"type": "Feature", "properties": {"name": "National Youth Theatre", "url": "https://openhouselondon.open-city.org.uk/listings/9812", "description": "Completed in Summer 2021, the National Youth Theatre has been redeveloped to double its capacity for studio space and was designed with young people, for young people. Recipient of the Mayor of London's Good Growth Fund.", "ticketed_events": "Yes", "fully_booked": "Unknown"}, "geometry": {"type": "Point", "coordinates": [-0.1224606, 51.5591868]}}, {"type": "Feature", "properties": {"name": "Hyde Park Chapel", "url": "https://openhouselondon.open-city.org.uk/listings/9987", "description": "The four-story Church fa\u00e7ade and prominent seven-story tower is covered in Portland stone and highlighted by a golden steeple. The interior features the Christus statue and a large mural of the resurrected Jesus Christ.", "ticketed_events": "No", "fully_booked": ""}, "geometry": {"type": "Point", "coordinates": [-0.1734914, 51.4977708]}}, {"type": "Feature", "properties": {"name": "St Bride's Church, Fleet Street ", "url": "https://openhouselondon.open-city.org.uk/listings/10035", "description": "Wren designed building of 1675, interior lost in blitz of 1940, reopened 1957 with 'Wren inspired' interior", "ticketed_events": "No", "fully_booked": ""}, "geometry": {"type": "Point", "coordinates": [-0.105574, 51.5137707]}}, {"type": "Feature", "properties": {"name": "St Bride's Church, Fleet Street ", "url": "https://openhouselondon.open-city.org.uk/listings/10035", "description": "Wren designed building of 1675, interior lost in blitz of 1940, reopened 1957 with 'Wren inspired' interior", "ticketed_events": "No", "fully_booked": ""}, "geometry": {"type": "Point", "coordinates": [-0.105574, 51.5137707]}}, {"type": "Feature", "properties": {"name": "Ripple Greenway and the Lost Words Art Trail", "url": "https://openhouselondon.open-city.org.uk/listings/10191", "description": "Ripple Greenway is a beautiful 14-acre linear park and art trail.  Home to Katy Hallett\u2019s steel sculptures, inspired by Robert Macfarlane\u2019s and Jackie Morris\u2019 The Lost Words.\r\nWooden play and exercise equipment, picnic tables and benches.", "ticketed_events": "Yes", "fully_booked": "Unknown"}, "geometry": {"type": "Point", "coordinates": [0.1038885, 51.5279424]}}, {"type": "Feature", "properties": {"name": "Low Line - Green Logistics Centre", "url": "https://openhouselondon.open-city.org.uk/listings/10207", "description": "Join us for a behind the scenes visit to the new Green Logistics Centre housed in a recently refurbished arch in the heart of the Low Line in Bankside", "ticketed_events": "No", "fully_booked": ""}, "geometry": {"type": "Point", "coordinates": [-0.099555, 51.504016]}}, {"type": "Feature", "properties": {"name": "Enfield To Fork - Edmonton Green Shopping Centre", "url": "https://openhouselondon.open-city.org.uk/listings/10236", "description": "The Museum of Enfield is this year bringing its temporary exhibition to you! \u201cFrom Enfield to Fork\u201d explores the borough\u2019s history and relationship with food, from Roman Enfield to Market Gardening.", "ticketed_events": "Yes", "fully_booked": "Unknown"}, "geometry": {"type": "Point", "coordinates": [-0.0578985, 51.6241568]}}, {"type": "Feature", "properties": {"name": "Hampton Tower at SQP", "url": "https://openhouselondon.open-city.org.uk/listings/10258", "description": "South Quay Plaza is a landmark development and has been designed to maximise space in the 2.6 acres of gardens that surround it, allowing sunlight to flood the gardens and provide dual aspect views for many of the apartments.", "ticketed_events": "No", "fully_booked": ""}, "geometry": {"type": "Point", "coordinates": [-0.0171423, 51.5008063]}}, {"type": "Feature", "properties": {"name": "Studio Flox", "url": "https://openhouselondon.open-city.org.uk/listings/10281", "description": "Studio Flox at Watermans Art Centre is a combined arts centre. It is located in Brentford, England alongside the banks of the River Thames overlooking Kew Gardens in West London, England", "ticketed_events": "No", "fully_booked": ""}, "geometry": {"type": "Point", "coordinates": [-0.2987655, 51.4856009]}}, {"type": "Feature", "properties": {"name": "Self-guided Old Malden Walk", "url": "https://openhouselondon.open-city.org.uk/listings/10292", "description": "The walk is around Old Malden and covers residential developments within the district. Different styles of suburban architecture includes a selection of modernist housing. There are also historic buildings and other places of interest.", "ticketed_events": "No", "fully_booked": ""}, "geometry": {"type": "Point", "coordinates": [-0.2622807, 51.3846475]}}, {"type": "Feature", "properties": {"name": "Legal London", "url": "https://openhouselondon.open-city.org.uk/listings/10313", "description": "Join Rowan, a retired solicitor, to find out what happens in the Royal Courts of Justice and the Inns of Court - a little world that few Londoners know", "ticketed_events": "No", "fully_booked": ""}, "geometry": {"type": "Point", "coordinates": [-0.1132125, 51.5136609]}}, {"type": "Feature", "properties": {"name": "\u2018A tonic to the nation\u2019: South Bank 1951-2021", "url": "https://openhouselondon.open-city.org.uk/listings/10404", "description": "Focussing on how the South Bank\u2019s unique location and pattern of land ownership has shaped its history, the tour will address how businesses, communities, and locals have played a part in the area\u2019s growth, management, and conservation", "ticketed_events": "Yes", "fully_booked": "Unknown"}, "geometry": {"type": "Point", "coordinates": [-0.1185372, 51.505131]}}, {"type": "Feature", "properties": {"name": "Becontree Estate Walking Tours with Bill Jennings", "url": "https://openhouselondon.open-city.org.uk/listings/10448", "description": "Tours with Bill Jennings, former Becontree Estate Housing Manager. Tours will highlight the heritage and history of the estate, including Valence House museum and library, Kingsley Hall and the unique architectural features of the estate", "ticketed_events": "Yes", "fully_booked": "Unknown"}, "geometry": {"type": "Point", "coordinates": [0.1338659, 51.5589773]}}]}