{"type": "FeatureCollection", "features": [{"type": "Feature", "properties": {"name": "New Ground (online only)", "url": "https://openhouselondon.open-city.org.uk/listings/30", "description": "25 homes designed with the Older Women\u2019s Co-Housing group using PTE\u2019s \u2018fabric first\u2019 approach which maximises the benefits of orientation, air-tightness and insulation and following the co-housing model.", "ticketed_events": "No", "fully_booked": ""}, "geometry": {"type": "Point", "coordinates": [-0.2023863, 51.6541567]}}, {"type": "Feature", "properties": {"name": "Danson House", "url": "https://openhouselondon.open-city.org.uk/listings/230", "description": "A stunning Grade I listed Georgian villa designed by the architect of the Bank of England. Set in more than 200 acres of magnificent parkland overlooking Danson Lake.", "ticketed_events": "No", "fully_booked": ""}, "geometry": {"type": "Point", "coordinates": [0.1221693, 51.4543053]}}, {"type": "Feature", "properties": {"name": "Devonport Mausoleum", "url": "https://openhouselondon.open-city.org.uk/listings/249", "description": "Beautiful mausoleum in former Royal Navy cemetery, restored 1999 by the University of Greenwich. Many interesting plaques and grave stones.", "ticketed_events": "No", "fully_booked": ""}, "geometry": {"type": "Point", "coordinates": [-0.0060193, 51.480285]}}, {"type": "Feature", "properties": {"name": "The Old Finsbury Town Hall ", "url": "https://openhouselondon.open-city.org.uk/listings/375", "description": "Opened by Lord Rosebery, an ornate building with elegant decor influenced by the Art Nouveau movement. Several notable rooms including the Great Hall with unique stained glass, antique mirrors and Clerkenwell Angel statuettes.", "ticketed_events": "No", "fully_booked": ""}, "geometry": {"type": "Point", "coordinates": [-0.1100225, 51.5257219]}}, {"type": "Feature", "properties": {"name": "Former Edmonton Girls' Charity School ", "url": "https://openhouselondon.open-city.org.uk/listings/415", "description": "The former Charity School was constructed in 1793, by Obodiah Legrew, who also purchased the adjoining no.24 Church Street, part of the surviving earlier 18th century range, to create a small cottage for the School Mistress.", "ticketed_events": "No", "fully_booked": ""}, "geometry": {"type": "Point", "coordinates": [-0.0622921, 51.6251909]}}, {"type": "Feature", "properties": {"name": "Freemasons' Hall", "url": "https://openhouselondon.open-city.org.uk/listings/436", "description": "Monumental Art Deco exterior belying elaborate and varied interior decoration: extensive use of mosaic, stained glass, decorated ceilings and lighting.", "ticketed_events": "No", "fully_booked": ""}, "geometry": {"type": "Point", "coordinates": [-0.1211109, 51.5151626]}}, {"type": "Feature", "properties": {"name": "Garrick's Temple to Shakespeare, Hampton", "url": "https://openhouselondon.open-city.org.uk/listings/460", "description": "Grade I listed Georgian garden building. Tribute to Shakespeare built in the Ionic style by actor David Garrick. Arcadian Thames-side setting in restored 18C gardens thought to be by Capability Brown.", "ticketed_events": "No", "fully_booked": ""}, "geometry": {"type": "Point", "coordinates": [-0.3592084, 51.4123247]}}, {"type": "Feature", "properties": {"name": "King's Cross Public Realm", "url": "https://openhouselondon.open-city.org.uk/listings/499", "description": "King's Cross is a 67 acre development in Central London being transformed into a new city quarter with 20 regenerated heritage buildings, new homes, offices, public spaces, shops, galleries, bars, restaurants, schools and a university.", "ticketed_events": "Yes", "fully_booked": "Unknown"}, "geometry": {"type": "Point", "coordinates": [-0.1253363, 51.536507]}}, {"type": "Feature", "properties": {"name": "King's Cross Public Realm", "url": "https://openhouselondon.open-city.org.uk/listings/499", "description": "King's Cross is a 67 acre development in Central London being transformed into a new city quarter with 20 regenerated heritage buildings, new homes, offices, public spaces, shops, galleries, bars, restaurants, schools and a university.", "ticketed_events": "Yes", "fully_booked": "Unknown"}, "geometry": {"type": "Point", "coordinates": [-0.1253363, 51.536507]}}, {"type": "Feature", "properties": {"name": "King's Cross Public Realm", "url": "https://openhouselondon.open-city.org.uk/listings/499", "description": "King's Cross is a 67 acre development in Central London being transformed into a new city quarter with 20 regenerated heritage buildings, new homes, offices, public spaces, shops, galleries, bars, restaurants, schools and a university.", "ticketed_events": "Yes", "fully_booked": "Unknown"}, "geometry": {"type": "Point", "coordinates": [-0.1253363, 51.536507]}}, {"type": "Feature", "properties": {"name": "King's Cross Public Realm", "url": "https://openhouselondon.open-city.org.uk/listings/499", "description": "King's Cross is a 67 acre development in Central London being transformed into a new city quarter with 20 regenerated heritage buildings, new homes, offices, public spaces, shops, galleries, bars, restaurants, schools and a university.", "ticketed_events": "Yes", "fully_booked": "Unknown"}, "geometry": {"type": "Point", "coordinates": [-0.1253363, 51.536507]}}, {"type": "Feature", "properties": {"name": "King's Cross Public Realm", "url": "https://openhouselondon.open-city.org.uk/listings/499", "description": "King's Cross is a 67 acre development in Central London being transformed into a new city quarter with 20 regenerated heritage buildings, new homes, offices, public spaces, shops, galleries, bars, restaurants, schools and a university.", "ticketed_events": "Yes", "fully_booked": "Unknown"}, "geometry": {"type": "Point", "coordinates": [-0.1253363, 51.536507]}}, {"type": "Feature", "properties": {"name": "King's Cross Public Realm", "url": "https://openhouselondon.open-city.org.uk/listings/499", "description": "King's Cross is a 67 acre development in Central London being transformed into a new city quarter with 20 regenerated heritage buildings, new homes, offices, public spaces, shops, galleries, bars, restaurants, schools and a university.", "ticketed_events": "Yes", "fully_booked": "Unknown"}, "geometry": {"type": "Point", "coordinates": [-0.1253363, 51.536507]}}, {"type": "Feature", "properties": {"name": "Greenwich Yacht Club", "url": "https://openhouselondon.open-city.org.uk/listings/522", "description": "Contemporary timber and aluminium building using existing pier, offering unique views of the river, the O2 and the Thames Barrier.", "ticketed_events": "No", "fully_booked": ""}, "geometry": {"type": "Point", "coordinates": [0.017723, 51.4948461]}}, {"type": "Feature", "properties": {"name": "Hackney Town Hall ", "url": "https://openhouselondon.open-city.org.uk/listings/549", "description": "Grade II listed Neoclassical building of Art Deco style. \r\n\r\nLink to be provided", "ticketed_events": "No", "fully_booked": ""}, "geometry": {"type": "Point", "coordinates": [-0.0564343, 51.5450322]}}, {"type": "Feature", "properties": {"name": "Barking Riverside London", "url": "https://openhouselondon.open-city.org.uk/listings/600", "description": "A new sustainable neighbourhood being created alongside 2km of south-facing Thames river frontage. A partnership with The Mayor of London and L&Q, 10,800 new homes will house up to 29,000 people.", "ticketed_events": "Yes", "fully_booked": "Unknown"}, "geometry": {"type": "Point", "coordinates": [0.1242973, 51.5254427]}}, {"type": "Feature", "properties": {"name": "Hogarth's House", "url": "https://openhouselondon.open-city.org.uk/listings/628", "description": "Early 18C red brick home of artist William Hogarth extended significantly c1749-1764. A 2020 extension adds a curved glass wall in the shape of Hogarth's Line of Beauty. Delightful walled garden containing famous ancient mulberry tree.", "ticketed_events": "No", "fully_booked": ""}, "geometry": {"type": "Point", "coordinates": [-0.2588145, 51.4870991]}}, {"type": "Feature", "properties": {"name": "Hogarth's House", "url": "https://openhouselondon.open-city.org.uk/listings/628", "description": "Early 18C red brick home of artist William Hogarth extended significantly c1749-1764. A 2020 extension adds a curved glass wall in the shape of Hogarth's Line of Beauty. Delightful walled garden containing famous ancient mulberry tree.", "ticketed_events": "No", "fully_booked": ""}, "geometry": {"type": "Point", "coordinates": [-0.2588145, 51.4870991]}}, {"type": "Feature", "properties": {"name": "Hogarth's House", "url": "https://openhouselondon.open-city.org.uk/listings/628", "description": "Early 18C red brick home of artist William Hogarth extended significantly c1749-1764. A 2020 extension adds a curved glass wall in the shape of Hogarth's Line of Beauty. Delightful walled garden containing famous ancient mulberry tree.", "ticketed_events": "No", "fully_booked": ""}, "geometry": {"type": "Point", "coordinates": [-0.2588145, 51.4870991]}}, {"type": "Feature", "properties": {"name": "Holy Trinity Church Sloane Square", "url": "https://openhouselondon.open-city.org.uk/listings/649", "description": "A sumptuous feast of Victorian stained glass and bold sacred sculpture at what Sir John Betjeman called the 'cathedral of the Arts and Crafts movement.' Work by William Morris, Edward Burne-Jones, William Blake and Christopher Whall.", "ticketed_events": "Yes", "fully_booked": "Unknown"}, "geometry": {"type": "Point", "coordinates": [-0.1576196, 51.4933589]}}, {"type": "Feature", "properties": {"name": "House Mill", "url": "https://openhouselondon.open-city.org.uk/listings/697", "description": "The World\u2019s largest tidal mill. 5-storey, timber-framed, brick-clad timber watermill with four waterwheels, originally built 1776 to mill grain for distillery trade. Operational until 1940. On historic 3 Mills Site, Clock Mill adjacent.", "ticketed_events": "Yes", "fully_booked": "Unknown"}, "geometry": {"type": "Point", "coordinates": [-0.0063917, 51.5268477]}}, {"type": "Feature", "properties": {"name": "Isokon Building (Lawn Road Flats)", "url": "https://openhouselondon.open-city.org.uk/listings/768", "description": "Grade I listed 1934 residential block of flats in Hampstead, designed by the Canadian modernist architect Wells Coates for clients Jack and Molly Pritchard. English Heritage blue plaque for Bauhaus masters Gropius, Breuer and Moholy-Nagy.", "ticketed_events": "No", "fully_booked": ""}, "geometry": {"type": "Point", "coordinates": [-0.1618582, 51.5522126]}}, {"type": "Feature", "properties": {"name": "Abbey Mills Pumping Station", "url": "https://openhouselondon.open-city.org.uk/listings/803", "description": "Abbey Mills pumping station 'A', built by engineer Joseph Bazalgette, Edmund Cooper and architect Charles Driver. Built between 1865 and 1868 it has been described as the cathedral of sewage.", "ticketed_events": "Yes", "fully_booked": "Unknown"}, "geometry": {"type": "Point", "coordinates": [-0.0039021, 51.5316884]}}, {"type": "Feature", "properties": {"name": "Keats House", "url": "https://openhouselondon.open-city.org.uk/listings/822", "description": "Keats House is the beautiful Regency villa, where Romantic poet John Keats found inspiration, friendship and love. Today, it is a museum provided by the City of London Corporation for the benefit of London and the nation.", "ticketed_events": "No", "fully_booked": ""}, "geometry": {"type": "Point", "coordinates": [-0.1682077, 51.5554841]}}, {"type": "Feature", "properties": {"name": "Kenwood ", "url": "https://openhouselondon.open-city.org.uk/listings/835", "description": "A striking Neoclassical villa in tranquil gardens on Hampstead Heath, Kenwood boasts breath-taking interiors by Robert Adam and a world-class art collection. For guaranteed entry, book your free ticket via the English Heritage website.", "ticketed_events": "Yes", "fully_booked": "Unknown"}, "geometry": {"type": "Point", "coordinates": [-0.1675998, 51.5713283]}}, {"type": "Feature", "properties": {"name": "London Museum of Water & Steam", "url": "https://openhouselondon.open-city.org.uk/listings/838", "description": "The Museum is housed within in a unique collection of Grade I and II listed buildings. Even though they were purpose-built and purely functional buildings, the architect took great care to make the buildings aesthetically pleasing.", "ticketed_events": "No", "fully_booked": ""}, "geometry": {"type": "Point", "coordinates": [-0.2899079, 51.4895259]}}, {"type": "Feature", "properties": {"name": "London Museum of Water & Steam", "url": "https://openhouselondon.open-city.org.uk/listings/838", "description": "The Museum is housed within in a unique collection of Grade I and II listed buildings. Even though they were purpose-built and purely functional buildings, the architect took great care to make the buildings aesthetically pleasing.", "ticketed_events": "No", "fully_booked": ""}, "geometry": {"type": "Point", "coordinates": [-0.2899079, 51.4895259]}}, {"type": "Feature", "properties": {"name": "St Martin's Parish Church, West Drayton", "url": "https://openhouselondon.open-city.org.uk/listings/841", "description": "A Grade II* listed church dating from 13th century with some interesting features\r\nAdjacent to a 16th century Gate House", "ticketed_events": "No", "fully_booked": ""}, "geometry": {"type": "Point", "coordinates": [-0.4705, 51.5044301]}}, {"type": "Feature", "properties": {"name": "Kilmorey Mausoleum", "url": "https://openhouselondon.open-city.org.uk/listings/842", "description": "Egyptian-style, pink and grey mausoleum created for the second Earl of Kilmorey. The form relates to the shrines at the heart of Egyptian Temples.", "ticketed_events": "No", "fully_booked": ""}, "geometry": {"type": "Point", "coordinates": [-0.3230432, 51.4603197]}}, {"type": "Feature", "properties": {"name": "Kilmorey Mausoleum", "url": "https://openhouselondon.open-city.org.uk/listings/842", "description": "Egyptian-style, pink and grey mausoleum created for the second Earl of Kilmorey. The form relates to the shrines at the heart of Egyptian Temples.", "ticketed_events": "No", "fully_booked": ""}, "geometry": {"type": "Point", "coordinates": [-0.3230432, 51.4603197]}}, {"type": "Feature", "properties": {"name": "Kilmorey Mausoleum", "url": "https://openhouselondon.open-city.org.uk/listings/842", "description": "Egyptian-style, pink and grey mausoleum created for the second Earl of Kilmorey. The form relates to the shrines at the heart of Egyptian Temples.", "ticketed_events": "No", "fully_booked": ""}, "geometry": {"type": "Point", "coordinates": [-0.3230432, 51.4603197]}}, {"type": "Feature", "properties": {"name": "Kilmorey Mausoleum", "url": "https://openhouselondon.open-city.org.uk/listings/842", "description": "Egyptian-style, pink and grey mausoleum created for the second Earl of Kilmorey. The form relates to the shrines at the heart of Egyptian Temples.", "ticketed_events": "No", "fully_booked": ""}, "geometry": {"type": "Point", "coordinates": [-0.3230432, 51.4603197]}}, {"type": "Feature", "properties": {"name": "Kilmorey Mausoleum", "url": "https://openhouselondon.open-city.org.uk/listings/842", "description": "Egyptian-style, pink and grey mausoleum created for the second Earl of Kilmorey. The form relates to the shrines at the heart of Egyptian Temples.", "ticketed_events": "No", "fully_booked": ""}, "geometry": {"type": "Point", "coordinates": [-0.3230432, 51.4603197]}}, {"type": "Feature", "properties": {"name": "Kilmorey Mausoleum", "url": "https://openhouselondon.open-city.org.uk/listings/842", "description": "Egyptian-style, pink and grey mausoleum created for the second Earl of Kilmorey. The form relates to the shrines at the heart of Egyptian Temples.", "ticketed_events": "No", "fully_booked": ""}, "geometry": {"type": "Point", "coordinates": [-0.3230432, 51.4603197]}}, {"type": "Feature", "properties": {"name": "Kilmorey Mausoleum", "url": "https://openhouselondon.open-city.org.uk/listings/842", "description": "Egyptian-style, pink and grey mausoleum created for the second Earl of Kilmorey. The form relates to the shrines at the heart of Egyptian Temples.", "ticketed_events": "No", "fully_booked": ""}, "geometry": {"type": "Point", "coordinates": [-0.3230432, 51.4603197]}}, {"type": "Feature", "properties": {"name": "Kilmorey Mausoleum", "url": "https://openhouselondon.open-city.org.uk/listings/842", "description": "Egyptian-style, pink and grey mausoleum created for the second Earl of Kilmorey. The form relates to the shrines at the heart of Egyptian Temples.", "ticketed_events": "No", "fully_booked": ""}, "geometry": {"type": "Point", "coordinates": [-0.3230432, 51.4603197]}}, {"type": "Feature", "properties": {"name": "King George V Pumping Station", "url": "https://openhouselondon.open-city.org.uk/listings/845", "description": "Designed to pump water from the River Lee into the King George V reservoir, the building houses three old disused gas Humphrey pumps, and two electric pumps currently in service.", "ticketed_events": "No", "fully_booked": ""}, "geometry": {"type": "Point", "coordinates": [-0.0166978, 51.6637992]}}, {"type": "Feature", "properties": {"name": "Old Royal Naval College - King William Court", "url": "https://openhouselondon.open-city.org.uk/listings/846", "description": "Wren-designed building completed under the direction of Hawksmoor and Vanbrugh, 1698-1712. Original wood panelling, refurbished by Dannatt Johnson in 2001 for University of Greenwich.", "ticketed_events": "Yes", "fully_booked": "Unknown"}, "geometry": {"type": "Point", "coordinates": [-0.0085059, 51.4827104]}}, {"type": "Feature", "properties": {"name": "Kirkaldy's Testing Works", "url": "https://openhouselondon.open-city.org.uk/listings/856", "description": "Proudly carved over the door are the words \u2018Facts not Opinions\u2019. Inside, the authentic sight - and smell - of Kirkaldy\u2019s Testing and Experimenting Works is a unique and direct link with an ingenious age of engineering.", "ticketed_events": "No", "fully_booked": ""}, "geometry": {"type": "Point", "coordinates": [-0.1021465, 51.5060804]}}, {"type": "Feature", "properties": {"name": "Lambeth Town Hall", "url": "https://openhouselondon.open-city.org.uk/listings/876", "description": "Landmark Edwardian Baroque style town hall with 1930s assembly room.  All in red brick and Portland stone . New atrium, reception and courtyard space along with historic marble staircase and ornate council chamber. Grade II listed.", "ticketed_events": "No", "fully_booked": ""}, "geometry": {"type": "Point", "coordinates": [-0.1168719, 51.4606617]}}, {"type": "Feature", "properties": {"name": "Lambeth Town Hall", "url": "https://openhouselondon.open-city.org.uk/listings/876", "description": "Landmark Edwardian Baroque style town hall with 1930s assembly room.  All in red brick and Portland stone . New atrium, reception and courtyard space along with historic marble staircase and ornate council chamber. Grade II listed.", "ticketed_events": "No", "fully_booked": ""}, "geometry": {"type": "Point", "coordinates": [-0.1168719, 51.4606617]}}, {"type": "Feature", "properties": {"name": "Lauderdale House", "url": "https://openhouselondon.open-city.org.uk/listings/888", "description": "Grade II* listed building in Waterlow Park dating to 1582 and recently refurbished. Original Tudor wooden framework adapted by successive owners over the centuries. Today the house runs primarily as an arts, heritage and education centre.", "ticketed_events": "No", "fully_booked": ""}, "geometry": {"type": "Point", "coordinates": [-0.143254, 51.569267]}}, {"type": "Feature", "properties": {"name": "Lauderdale House", "url": "https://openhouselondon.open-city.org.uk/listings/888", "description": "Grade II* listed building in Waterlow Park dating to 1582 and recently refurbished. Original Tudor wooden framework adapted by successive owners over the centuries. Today the house runs primarily as an arts, heritage and education centre.", "ticketed_events": "No", "fully_booked": ""}, "geometry": {"type": "Point", "coordinates": [-0.143254, 51.569267]}}, {"type": "Feature", "properties": {"name": "Lauderdale House", "url": "https://openhouselondon.open-city.org.uk/listings/888", "description": "Grade II* listed building in Waterlow Park dating to 1582 and recently refurbished. Original Tudor wooden framework adapted by successive owners over the centuries. Today the house runs primarily as an arts, heritage and education centre.", "ticketed_events": "No", "fully_booked": ""}, "geometry": {"type": "Point", "coordinates": [-0.143254, 51.569267]}}, {"type": "Feature", "properties": {"name": "Walthamstow Pumphouse Museum", "url": "https://openhouselondon.open-city.org.uk/listings/983", "description": "Grade II listed Victorian engine house remodelled to take a pair of 1895 Marshall steam engines, still in working order. A museum celebrating the rich Boroughs and the Lea Valley Region Industrial Heritage.", "ticketed_events": "No", "fully_booked": ""}, "geometry": {"type": "Point", "coordinates": [-0.0353163, 51.5766333]}}, {"type": "Feature", "properties": {"name": "Bow Church \u2013 St Mary", "url": "https://openhouselondon.open-city.org.uk/listings/1019", "description": "Medieval village church, restored in late 19C and after bomb damage in WWII. 15C font and memorials from five centuries. Grade II* listed. Refurbished for 700th anniversary in 2011; the bell tower and cupola were restored in 2017-18.", "ticketed_events": "No", "fully_booked": ""}, "geometry": {"type": "Point", "coordinates": [-0.0167013, 51.5287753]}}, {"type": "Feature", "properties": {"name": "Manor House Gardens Ice House", "url": "https://openhouselondon.open-city.org.uk/listings/1025", "description": "Grade II listed ice well and underground chambers (1770) in Manor House Gardens park, which provided ice for nearby Manor House. Cited in 2002 Civic Trust Awards.", "ticketed_events": "No", "fully_booked": ""}, "geometry": {"type": "Point", "coordinates": [0.0049386, 51.4570479]}}, {"type": "Feature", "properties": {"name": "Markfield Beam Engine and House", "url": "https://openhouselondon.open-city.org.uk/listings/1041", "description": "A masterpiece of Victorian engineering, Markfield Beam Engine provided a vital public health facility from 1855-1964. \r\n\r\nSteaming demonstrations, 4 & 5 Sept from 12.30pm.\r\n\r\nSet in Markfield Park along side the River Lee.", "ticketed_events": "Yes", "fully_booked": "Unknown"}, "geometry": {"type": "Point", "coordinates": [-0.0632564, 51.5811524]}}, {"type": "Feature", "properties": {"name": "Fulham Palace", "url": "https://openhouselondon.open-city.org.uk/listings/1150", "description": "Residence of the Bishop of London until 1973. Tudor red-brick courtyard with Georgian additions & Butterfield Chapel (1867). Walled garden. Completed a National Lottery Heritage Fund restoration project in spring 2019.", "ticketed_events": "Yes", "fully_booked": "Unknown"}, "geometry": {"type": "Point", "coordinates": [-0.2162458, 51.4719586]}}, {"type": "Feature", "properties": {"name": "Oak Room, New River Head", "url": "https://openhouselondon.open-city.org.uk/listings/1188", "description": "Formerly boardroom of the 17C water house, the Oak Room is a fine late Renaissance room demonstrating the New River Company's wealth. 1697 carved oak interior, attributed to Grinling Gibbons, including overmantel and panels over the doors.", "ticketed_events": "Yes", "fully_booked": "Unknown"}, "geometry": {"type": "Point", "coordinates": [-0.1072226, 51.5282306]}}, {"type": "Feature", "properties": {"name": "New West End Synagogue", "url": "https://openhouselondon.open-city.org.uk/listings/1191", "description": "Grade I listed Victorian synagogue, Audsley's masterpiece.  Includes metalwork, stained glass and a mosaic; stained glass by NHJ Westlake. Further enrichment 1894-5 included lighting designed by George Aitchison.", "ticketed_events": "No", "fully_booked": ""}, "geometry": {"type": "Point", "coordinates": [-0.1901419, 51.5118152]}}, {"type": "Feature", "properties": {"name": "Museum of London", "url": "https://openhouselondon.open-city.org.uk/listings/1220", "description": "Part of an ambitious redevelopment of the area following WWll bombing, this building forms part of the Barbican complex. The architects were inspired by post-war modernism to include green design elements and raised walkways.", "ticketed_events": "Yes", "fully_booked": "Unknown"}, "geometry": {"type": "Point", "coordinates": [-0.0960666, 51.5177983]}}, {"type": "Feature", "properties": {"name": "Museum of London", "url": "https://openhouselondon.open-city.org.uk/listings/1220", "description": "Part of an ambitious redevelopment of the area following WWll bombing, this building forms part of the Barbican complex. The architects were inspired by post-war modernism to include green design elements and raised walkways.", "ticketed_events": "Yes", "fully_booked": "Unknown"}, "geometry": {"type": "Point", "coordinates": [-0.0960666, 51.5177983]}}, {"type": "Feature", "properties": {"name": "Museum of London", "url": "https://openhouselondon.open-city.org.uk/listings/1220", "description": "Part of an ambitious redevelopment of the area following WWll bombing, this building forms part of the Barbican complex. The architects were inspired by post-war modernism to include green design elements and raised walkways.", "ticketed_events": "Yes", "fully_booked": "Unknown"}, "geometry": {"type": "Point", "coordinates": [-0.0960666, 51.5177983]}}, {"type": "Feature", "properties": {"name": "Museum of London", "url": "https://openhouselondon.open-city.org.uk/listings/1220", "description": "Part of an ambitious redevelopment of the area following WWll bombing, this building forms part of the Barbican complex. The architects were inspired by post-war modernism to include green design elements and raised walkways.", "ticketed_events": "Yes", "fully_booked": "Unknown"}, "geometry": {"type": "Point", "coordinates": [-0.0960666, 51.5177983]}}, {"type": "Feature", "properties": {"name": "Museum of London", "url": "https://openhouselondon.open-city.org.uk/listings/1220", "description": "Part of an ambitious redevelopment of the area following WWll bombing, this building forms part of the Barbican complex. The architects were inspired by post-war modernism to include green design elements and raised walkways.", "ticketed_events": "Yes", "fully_booked": "Unknown"}, "geometry": {"type": "Point", "coordinates": [-0.0960666, 51.5177983]}}, {"type": "Feature", "properties": {"name": "Museum of London", "url": "https://openhouselondon.open-city.org.uk/listings/1220", "description": "Part of an ambitious redevelopment of the area following WWll bombing, this building forms part of the Barbican complex. The architects were inspired by post-war modernism to include green design elements and raised walkways.", "ticketed_events": "Yes", "fully_booked": "Unknown"}, "geometry": {"type": "Point", "coordinates": [-0.0960666, 51.5177983]}}, {"type": "Feature", "properties": {"name": "Museum of London", "url": "https://openhouselondon.open-city.org.uk/listings/1220", "description": "Part of an ambitious redevelopment of the area following WWll bombing, this building forms part of the Barbican complex. The architects were inspired by post-war modernism to include green design elements and raised walkways.", "ticketed_events": "Yes", "fully_booked": "Unknown"}, "geometry": {"type": "Point", "coordinates": [-0.0960666, 51.5177983]}}, {"type": "Feature", "properties": {"name": "Museum of London", "url": "https://openhouselondon.open-city.org.uk/listings/1220", "description": "Part of an ambitious redevelopment of the area following WWll bombing, this building forms part of the Barbican complex. The architects were inspired by post-war modernism to include green design elements and raised walkways.", "ticketed_events": "Yes", "fully_booked": "Unknown"}, "geometry": {"type": "Point", "coordinates": [-0.0960666, 51.5177983]}}, {"type": "Feature", "properties": {"name": "Museum of London", "url": "https://openhouselondon.open-city.org.uk/listings/1220", "description": "Part of an ambitious redevelopment of the area following WWll bombing, this building forms part of the Barbican complex. The architects were inspired by post-war modernism to include green design elements and raised walkways.", "ticketed_events": "Yes", "fully_booked": "Unknown"}, "geometry": {"type": "Point", "coordinates": [-0.0960666, 51.5177983]}}, {"type": "Feature", "properties": {"name": "Nunhead Cemetery", "url": "https://openhouselondon.open-city.org.uk/listings/1237", "description": "Magnificent Victorian cemetery with Gothic chapel & restored & ruined lodge. One of London's wildest cemeteries. Part restored with the help of a lottery grant. 52 acres of woodland, with bats, owls, foxes & squirrels. Grade II* landscape.", "ticketed_events": "No", "fully_booked": ""}, "geometry": {"type": "Point", "coordinates": [-0.0519675, 51.4651848]}}, {"type": "Feature", "properties": {"name": "Nunhead Cemetery", "url": "https://openhouselondon.open-city.org.uk/listings/1237", "description": "Magnificent Victorian cemetery with Gothic chapel & restored & ruined lodge. One of London's wildest cemeteries. Part restored with the help of a lottery grant. 52 acres of woodland, with bats, owls, foxes & squirrels. Grade II* landscape.", "ticketed_events": "No", "fully_booked": ""}, "geometry": {"type": "Point", "coordinates": [-0.0519675, 51.4651848]}}, {"type": "Feature", "properties": {"name": "Old Operating Theatre Museum & Herb Garret ", "url": "https://openhouselondon.open-city.org.uk/listings/1268", "description": "St Thomas' Church attic (1703) once part of old St Thomas' Hospital, houses the hospital's Herb Garret and the oldest surviving operating theatre (1822) in Europe.", "ticketed_events": "No", "fully_booked": ""}, "geometry": {"type": "Point", "coordinates": [-0.0884359, 51.5049991]}}, {"type": "Feature", "properties": {"name": "Royal Over-Seas League", "url": "https://openhouselondon.open-city.org.uk/listings/1290", "description": "Over-Seas House is an amalgamation of two Grade I listed buildings \u2013 Rutland House (James Gibbs, 1736) and Vernon House (1835 rebuilt 1905), with an Art Deco style wing added in 1937.", "ticketed_events": "Yes", "fully_booked": "Unknown"}, "geometry": {"type": "Point", "coordinates": [-0.1394065, 51.5066394]}}, {"type": "Feature", "properties": {"name": "Pullman Court ", "url": "https://openhouselondon.open-city.org.uk/listings/1297", "description": "Grade II* listed buildings, modern movement style with balcony walkways and period internal features.\r\nPullman Court hopes to open in 2021 but there may be restrictions. Our website has a short film and further information about the site.", "ticketed_events": "No", "fully_booked": ""}, "geometry": {"type": "Point", "coordinates": [-0.1230979, 51.4431169]}}, {"type": "Feature", "properties": {"name": "Old Royal Naval College - Admiral's House, Jacobean Undercroft, talks in the grounds and Smartphone tour", "url": "https://openhouselondon.open-city.org.uk/listings/1310", "description": "Sir Christopher Wren's riverside masterpiece in Greenwich, built as the Royal Hospital for Seamen and begun in 1696.", "ticketed_events": "Yes", "fully_booked": "Unknown"}, "geometry": {"type": "Point", "coordinates": [-0.0059154, 51.4832059]}}, {"type": "Feature", "properties": {"name": "Old Royal Naval College - Admiral's House, Jacobean Undercroft, talks in the grounds and Smartphone tour", "url": "https://openhouselondon.open-city.org.uk/listings/1310", "description": "Sir Christopher Wren's riverside masterpiece in Greenwich, built as the Royal Hospital for Seamen and begun in 1696.", "ticketed_events": "Yes", "fully_booked": "Unknown"}, "geometry": {"type": "Point", "coordinates": [-0.0059154, 51.4832059]}}, {"type": "Feature", "properties": {"name": "Old Royal Naval College - Admiral's House, Jacobean Undercroft, talks in the grounds and Smartphone tour", "url": "https://openhouselondon.open-city.org.uk/listings/1310", "description": "Sir Christopher Wren's riverside masterpiece in Greenwich, built as the Royal Hospital for Seamen and begun in 1696.", "ticketed_events": "Yes", "fully_booked": "Unknown"}, "geometry": {"type": "Point", "coordinates": [-0.0059154, 51.4832059]}}, {"type": "Feature", "properties": {"name": "Old Royal Naval College - Admiral's House, Jacobean Undercroft, talks in the grounds and Smartphone tour", "url": "https://openhouselondon.open-city.org.uk/listings/1310", "description": "Sir Christopher Wren's riverside masterpiece in Greenwich, built as the Royal Hospital for Seamen and begun in 1696.", "ticketed_events": "Yes", "fully_booked": "Unknown"}, "geometry": {"type": "Point", "coordinates": [-0.0059154, 51.4832059]}}, {"type": "Feature", "properties": {"name": "Old Royal Naval College - Admiral's House, Jacobean Undercroft, talks in the grounds and Smartphone tour", "url": "https://openhouselondon.open-city.org.uk/listings/1310", "description": "Sir Christopher Wren's riverside masterpiece in Greenwich, built as the Royal Hospital for Seamen and begun in 1696.", "ticketed_events": "Yes", "fully_booked": "Unknown"}, "geometry": {"type": "Point", "coordinates": [-0.0059154, 51.4832059]}}, {"type": "Feature", "properties": {"name": "Old Royal Naval College - Admiral's House, Jacobean Undercroft, talks in the grounds and Smartphone tour", "url": "https://openhouselondon.open-city.org.uk/listings/1310", "description": "Sir Christopher Wren's riverside masterpiece in Greenwich, built as the Royal Hospital for Seamen and begun in 1696.", "ticketed_events": "Yes", "fully_booked": "Unknown"}, "geometry": {"type": "Point", "coordinates": [-0.0059154, 51.4832059]}}, {"type": "Feature", "properties": {"name": "Old Royal Naval College - Admiral's House, Jacobean Undercroft, talks in the grounds and Smartphone tour", "url": "https://openhouselondon.open-city.org.uk/listings/1310", "description": "Sir Christopher Wren's riverside masterpiece in Greenwich, built as the Royal Hospital for Seamen and begun in 1696.", "ticketed_events": "Yes", "fully_booked": "Unknown"}, "geometry": {"type": "Point", "coordinates": [-0.0059154, 51.4832059]}}, {"type": "Feature", "properties": {"name": "Old Royal Naval College - Admiral's House, Jacobean Undercroft, talks in the grounds and Smartphone tour", "url": "https://openhouselondon.open-city.org.uk/listings/1310", "description": "Sir Christopher Wren's riverside masterpiece in Greenwich, built as the Royal Hospital for Seamen and begun in 1696.", "ticketed_events": "Yes", "fully_booked": "Unknown"}, "geometry": {"type": "Point", "coordinates": [-0.0059154, 51.4832059]}}, {"type": "Feature", "properties": {"name": "Old Royal Naval College - Admiral's House, Jacobean Undercroft, talks in the grounds and Smartphone tour", "url": "https://openhouselondon.open-city.org.uk/listings/1310", "description": "Sir Christopher Wren's riverside masterpiece in Greenwich, built as the Royal Hospital for Seamen and begun in 1696.", "ticketed_events": "Yes", "fully_booked": "Unknown"}, "geometry": {"type": "Point", "coordinates": [-0.0059154, 51.4832059]}}, {"type": "Feature", "properties": {"name": "Old Royal Naval College - Admiral's House, Jacobean Undercroft, talks in the grounds and Smartphone tour", "url": "https://openhouselondon.open-city.org.uk/listings/1310", "description": "Sir Christopher Wren's riverside masterpiece in Greenwich, built as the Royal Hospital for Seamen and begun in 1696.", "ticketed_events": "Yes", "fully_booked": "Unknown"}, "geometry": {"type": "Point", "coordinates": [-0.0059154, 51.4832059]}}, {"type": "Feature", "properties": {"name": "Old Royal Naval College - Admiral's House, Jacobean Undercroft, talks in the grounds and Smartphone tour", "url": "https://openhouselondon.open-city.org.uk/listings/1310", "description": "Sir Christopher Wren's riverside masterpiece in Greenwich, built as the Royal Hospital for Seamen and begun in 1696.", "ticketed_events": "Yes", "fully_booked": "Unknown"}, "geometry": {"type": "Point", "coordinates": [-0.0059154, 51.4832059]}}, {"type": "Feature", "properties": {"name": "Old Royal Naval College - Admiral's House, Jacobean Undercroft, talks in the grounds and Smartphone tour", "url": "https://openhouselondon.open-city.org.uk/listings/1310", "description": "Sir Christopher Wren's riverside masterpiece in Greenwich, built as the Royal Hospital for Seamen and begun in 1696.", "ticketed_events": "Yes", "fully_booked": "Unknown"}, "geometry": {"type": "Point", "coordinates": [-0.0059154, 51.4832059]}}, {"type": "Feature", "properties": {"name": "Old Royal Naval College - Admiral's House, Jacobean Undercroft, talks in the grounds and Smartphone tour", "url": "https://openhouselondon.open-city.org.uk/listings/1310", "description": "Sir Christopher Wren's riverside masterpiece in Greenwich, built as the Royal Hospital for Seamen and begun in 1696.", "ticketed_events": "Yes", "fully_booked": "Unknown"}, "geometry": {"type": "Point", "coordinates": [-0.0059154, 51.4832059]}}, {"type": "Feature", "properties": {"name": "Old Royal Naval College - Admiral's House, Jacobean Undercroft, talks in the grounds and Smartphone tour", "url": "https://openhouselondon.open-city.org.uk/listings/1310", "description": "Sir Christopher Wren's riverside masterpiece in Greenwich, built as the Royal Hospital for Seamen and begun in 1696.", "ticketed_events": "Yes", "fully_booked": "Unknown"}, "geometry": {"type": "Point", "coordinates": [-0.0059154, 51.4832059]}}, {"type": "Feature", "properties": {"name": "Old Royal Naval College - Admiral's House, Jacobean Undercroft, talks in the grounds and Smartphone tour", "url": "https://openhouselondon.open-city.org.uk/listings/1310", "description": "Sir Christopher Wren's riverside masterpiece in Greenwich, built as the Royal Hospital for Seamen and begun in 1696.", "ticketed_events": "Yes", "fully_booked": "Unknown"}, "geometry": {"type": "Point", "coordinates": [-0.0059154, 51.4832059]}}, {"type": "Feature", "properties": {"name": "Old Royal Naval College - Admiral's House, Jacobean Undercroft, talks in the grounds and Smartphone tour", "url": "https://openhouselondon.open-city.org.uk/listings/1310", "description": "Sir Christopher Wren's riverside masterpiece in Greenwich, built as the Royal Hospital for Seamen and begun in 1696.", "ticketed_events": "Yes", "fully_booked": "Unknown"}, "geometry": {"type": "Point", "coordinates": [-0.0059154, 51.4832059]}}, {"type": "Feature", "properties": {"name": "Old Royal Naval College - Admiral's House, Jacobean Undercroft, talks in the grounds and Smartphone tour", "url": "https://openhouselondon.open-city.org.uk/listings/1310", "description": "Sir Christopher Wren's riverside masterpiece in Greenwich, built as the Royal Hospital for Seamen and begun in 1696.", "ticketed_events": "Yes", "fully_booked": "Unknown"}, "geometry": {"type": "Point", "coordinates": [-0.0059154, 51.4832059]}}, {"type": "Feature", "properties": {"name": "Old Royal Naval College - Admiral's House, Jacobean Undercroft, talks in the grounds and Smartphone tour", "url": "https://openhouselondon.open-city.org.uk/listings/1310", "description": "Sir Christopher Wren's riverside masterpiece in Greenwich, built as the Royal Hospital for Seamen and begun in 1696.", "ticketed_events": "Yes", "fully_booked": "Unknown"}, "geometry": {"type": "Point", "coordinates": [-0.0059154, 51.4832059]}}, {"type": "Feature", "properties": {"name": "Old Royal Naval College - Admiral's House, Jacobean Undercroft, talks in the grounds and Smartphone tour", "url": "https://openhouselondon.open-city.org.uk/listings/1310", "description": "Sir Christopher Wren's riverside masterpiece in Greenwich, built as the Royal Hospital for Seamen and begun in 1696.", "ticketed_events": "Yes", "fully_booked": "Unknown"}, "geometry": {"type": "Point", "coordinates": [-0.0059154, 51.4832059]}}, {"type": "Feature", "properties": {"name": "Old Royal Naval College - Admiral's House, Jacobean Undercroft, talks in the grounds and Smartphone tour", "url": "https://openhouselondon.open-city.org.uk/listings/1310", "description": "Sir Christopher Wren's riverside masterpiece in Greenwich, built as the Royal Hospital for Seamen and begun in 1696.", "ticketed_events": "Yes", "fully_booked": "Unknown"}, "geometry": {"type": "Point", "coordinates": [-0.0059154, 51.4832059]}}, {"type": "Feature", "properties": {"name": "Old Royal Naval College - Admiral's House, Jacobean Undercroft, talks in the grounds and Smartphone tour", "url": "https://openhouselondon.open-city.org.uk/listings/1310", "description": "Sir Christopher Wren's riverside masterpiece in Greenwich, built as the Royal Hospital for Seamen and begun in 1696.", "ticketed_events": "Yes", "fully_booked": "Unknown"}, "geometry": {"type": "Point", "coordinates": [-0.0059154, 51.4832059]}}, {"type": "Feature", "properties": {"name": "Old Royal Naval College - Admiral's House, Jacobean Undercroft, talks in the grounds and Smartphone tour", "url": "https://openhouselondon.open-city.org.uk/listings/1310", "description": "Sir Christopher Wren's riverside masterpiece in Greenwich, built as the Royal Hospital for Seamen and begun in 1696.", "ticketed_events": "Yes", "fully_booked": "Unknown"}, "geometry": {"type": "Point", "coordinates": [-0.0059154, 51.4832059]}}, {"type": "Feature", "properties": {"name": "Painters' Hall", "url": "https://openhouselondon.open-city.org.uk/listings/1311", "description": "Acquired in 1532 and rebuilt in 1670 after the Great Fire, the Hall was partially destroyed in 1941 by enemy action and rebuilt in a Neo-Georgian style in 1960. The original charter, portraiture and stained glass are of particular interest.", "ticketed_events": "No", "fully_booked": ""}, "geometry": {"type": "Point", "coordinates": [-0.0949113, 51.5116375]}}, {"type": "Feature", "properties": {"name": "Paxton Locher House", "url": "https://openhouselondon.open-city.org.uk/listings/1334", "description": "A unique modern courtyard house making brilliant use of a restricted site. A retractable glass roof gives wonderful natural light and opens the house to the sky in dry weather.", "ticketed_events": "No", "fully_booked": ""}, "geometry": {"type": "Point", "coordinates": [-0.1044339, 51.5231767]}}, {"type": "Feature", "properties": {"name": "St Paul's Bow Common", "url": "https://openhouselondon.open-city.org.uk/listings/1365", "description": "Described as 'the most significant church built after the WWII in Britain' - Brutalist, inclusive and influential signpost for future church design.", "ticketed_events": "No", "fully_booked": ""}, "geometry": {"type": "Point", "coordinates": [-0.0293729, 51.517146]}}, {"type": "Feature", "properties": {"name": "St Paul's Bow Common", "url": "https://openhouselondon.open-city.org.uk/listings/1365", "description": "Described as 'the most significant church built after the WWII in Britain' - Brutalist, inclusive and influential signpost for future church design.", "ticketed_events": "No", "fully_booked": ""}, "geometry": {"type": "Point", "coordinates": [-0.0293729, 51.517146]}}, {"type": "Feature", "properties": {"name": "Pitzhanger Manor & Gallery", "url": "https://openhouselondon.open-city.org.uk/listings/1369", "description": "Designed by Sir John Soane as a family home and country residence. Following a three-year conservation project,  Pitzhanger has been returned to Soane\u2019s innovative original design and re-opened to the public in March 2019.", "ticketed_events": "Yes", "fully_booked": "Unknown"}, "geometry": {"type": "Point", "coordinates": [-0.3073139, 51.5114492]}}, {"type": "Feature", "properties": {"name": "Pitzhanger Manor & Gallery", "url": "https://openhouselondon.open-city.org.uk/listings/1369", "description": "Designed by Sir John Soane as a family home and country residence. Following a three-year conservation project,  Pitzhanger has been returned to Soane\u2019s innovative original design and re-opened to the public in March 2019.", "ticketed_events": "Yes", "fully_booked": "Unknown"}, "geometry": {"type": "Point", "coordinates": [-0.3073139, 51.5114492]}}, {"type": "Feature", "properties": {"name": "Pitzhanger Manor & Gallery", "url": "https://openhouselondon.open-city.org.uk/listings/1369", "description": "Designed by Sir John Soane as a family home and country residence. Following a three-year conservation project,  Pitzhanger has been returned to Soane\u2019s innovative original design and re-opened to the public in March 2019.", "ticketed_events": "Yes", "fully_booked": "Unknown"}, "geometry": {"type": "Point", "coordinates": [-0.3073139, 51.5114492]}}, {"type": "Feature", "properties": {"name": "Pitzhanger Manor & Gallery", "url": "https://openhouselondon.open-city.org.uk/listings/1369", "description": "Designed by Sir John Soane as a family home and country residence. Following a three-year conservation project,  Pitzhanger has been returned to Soane\u2019s innovative original design and re-opened to the public in March 2019.", "ticketed_events": "Yes", "fully_booked": "Unknown"}, "geometry": {"type": "Point", "coordinates": [-0.3073139, 51.5114492]}}, {"type": "Feature", "properties": {"name": "Pitzhanger Manor & Gallery", "url": "https://openhouselondon.open-city.org.uk/listings/1369", "description": "Designed by Sir John Soane as a family home and country residence. Following a three-year conservation project,  Pitzhanger has been returned to Soane\u2019s innovative original design and re-opened to the public in March 2019.", "ticketed_events": "Yes", "fully_booked": "Unknown"}, "geometry": {"type": "Point", "coordinates": [-0.3073139, 51.5114492]}}, {"type": "Feature", "properties": {"name": "Guildhall Art Gallery", "url": "https://openhouselondon.open-city.org.uk/listings/1405", "description": "Houses the City of London's art collection, built over remains of London's 2C Roman amphitheatre. Fa\u00e7ade uses Portland stone and Collyweston stone slates. Interior uses finishes of marble, American elm, damask and painted wall coverings.", "ticketed_events": "Yes", "fully_booked": "Unknown"}, "geometry": {"type": "Point", "coordinates": [-0.0919056, 51.5152757]}}, {"type": "Feature", "properties": {"name": "Old Royal Naval College - Queen Mary Court", "url": "https://openhouselondon.open-city.org.uk/listings/1433", "description": "Last major building on the site (1751). Original layout, timber panelling, barrel vaulting and Portland stone. Refurbished in 2000 by Dannatt Johnson for University of Greenwich.", "ticketed_events": "Yes", "fully_booked": "Unknown"}, "geometry": {"type": "Point", "coordinates": [-0.0085059, 51.4827104]}}, {"type": "Feature", "properties": {"name": "Reform Club", "url": "https://openhouselondon.open-city.org.uk/listings/1457", "description": "Built as a Whig gentleman's club and inspired by Italian Renaissance palaces. Lobby leads to an enclosed colonnaded courtyard with complementary glazed roof and tessellated floor. Tunnelled staircase leads to upper floor.", "ticketed_events": "Yes", "fully_booked": "Unknown"}, "geometry": {"type": "Point", "coordinates": [-0.1332457, 51.5065129]}}, {"type": "Feature", "properties": {"name": "Reform Club", "url": "https://openhouselondon.open-city.org.uk/listings/1457", "description": "Built as a Whig gentleman's club and inspired by Italian Renaissance palaces. Lobby leads to an enclosed colonnaded courtyard with complementary glazed roof and tessellated floor. Tunnelled staircase leads to upper floor.", "ticketed_events": "Yes", "fully_booked": "Unknown"}, "geometry": {"type": "Point", "coordinates": [-0.1332457, 51.5065129]}}, {"type": "Feature", "properties": {"name": "Reform Club", "url": "https://openhouselondon.open-city.org.uk/listings/1457", "description": "Built as a Whig gentleman's club and inspired by Italian Renaissance palaces. Lobby leads to an enclosed colonnaded courtyard with complementary glazed roof and tessellated floor. Tunnelled staircase leads to upper floor.", "ticketed_events": "Yes", "fully_booked": "Unknown"}, "geometry": {"type": "Point", "coordinates": [-0.1332457, 51.5065129]}}, {"type": "Feature", "properties": {"name": "Reform Club", "url": "https://openhouselondon.open-city.org.uk/listings/1457", "description": "Built as a Whig gentleman's club and inspired by Italian Renaissance palaces. Lobby leads to an enclosed colonnaded courtyard with complementary glazed roof and tessellated floor. Tunnelled staircase leads to upper floor.", "ticketed_events": "Yes", "fully_booked": "Unknown"}, "geometry": {"type": "Point", "coordinates": [-0.1332457, 51.5065129]}}, {"type": "Feature", "properties": {"name": "Reform Club", "url": "https://openhouselondon.open-city.org.uk/listings/1457", "description": "Built as a Whig gentleman's club and inspired by Italian Renaissance palaces. Lobby leads to an enclosed colonnaded courtyard with complementary glazed roof and tessellated floor. Tunnelled staircase leads to upper floor.", "ticketed_events": "Yes", "fully_booked": "Unknown"}, "geometry": {"type": "Point", "coordinates": [-0.1332457, 51.5065129]}}, {"type": "Feature", "properties": {"name": "Reform Club", "url": "https://openhouselondon.open-city.org.uk/listings/1457", "description": "Built as a Whig gentleman's club and inspired by Italian Renaissance palaces. Lobby leads to an enclosed colonnaded courtyard with complementary glazed roof and tessellated floor. Tunnelled staircase leads to upper floor.", "ticketed_events": "Yes", "fully_booked": "Unknown"}, "geometry": {"type": "Point", "coordinates": [-0.1332457, 51.5065129]}}, {"type": "Feature", "properties": {"name": "Reform Club", "url": "https://openhouselondon.open-city.org.uk/listings/1457", "description": "Built as a Whig gentleman's club and inspired by Italian Renaissance palaces. Lobby leads to an enclosed colonnaded courtyard with complementary glazed roof and tessellated floor. Tunnelled staircase leads to upper floor.", "ticketed_events": "Yes", "fully_booked": "Unknown"}, "geometry": {"type": "Point", "coordinates": [-0.1332457, 51.5065129]}}, {"type": "Feature", "properties": {"name": "Reform Club", "url": "https://openhouselondon.open-city.org.uk/listings/1457", "description": "Built as a Whig gentleman's club and inspired by Italian Renaissance palaces. Lobby leads to an enclosed colonnaded courtyard with complementary glazed roof and tessellated floor. Tunnelled staircase leads to upper floor.", "ticketed_events": "Yes", "fully_booked": "Unknown"}, "geometry": {"type": "Point", "coordinates": [-0.1332457, 51.5065129]}}, {"type": "Feature", "properties": {"name": "Reform Club", "url": "https://openhouselondon.open-city.org.uk/listings/1457", "description": "Built as a Whig gentleman's club and inspired by Italian Renaissance palaces. Lobby leads to an enclosed colonnaded courtyard with complementary glazed roof and tessellated floor. Tunnelled staircase leads to upper floor.", "ticketed_events": "Yes", "fully_booked": "Unknown"}, "geometry": {"type": "Point", "coordinates": [-0.1332457, 51.5065129]}}, {"type": "Feature", "properties": {"name": "Reform Club", "url": "https://openhouselondon.open-city.org.uk/listings/1457", "description": "Built as a Whig gentleman's club and inspired by Italian Renaissance palaces. Lobby leads to an enclosed colonnaded courtyard with complementary glazed roof and tessellated floor. Tunnelled staircase leads to upper floor.", "ticketed_events": "Yes", "fully_booked": "Unknown"}, "geometry": {"type": "Point", "coordinates": [-0.1332457, 51.5065129]}}, {"type": "Feature", "properties": {"name": "Reform Club", "url": "https://openhouselondon.open-city.org.uk/listings/1457", "description": "Built as a Whig gentleman's club and inspired by Italian Renaissance palaces. Lobby leads to an enclosed colonnaded courtyard with complementary glazed roof and tessellated floor. Tunnelled staircase leads to upper floor.", "ticketed_events": "Yes", "fully_booked": "Unknown"}, "geometry": {"type": "Point", "coordinates": [-0.1332457, 51.5065129]}}, {"type": "Feature", "properties": {"name": "Roe Green Village", "url": "https://openhouselondon.open-city.org.uk/listings/1487", "description": "Built in 1918-19 to provide housing for AirCo (the Aircraft Manufacturing Company based in Colindale), Roe Green was designed in the garden village idiom by Sir Frank Baines, HM Office of Works principal architect.", "ticketed_events": "No", "fully_booked": ""}, "geometry": {"type": "Point", "coordinates": [-0.2673659, 51.5904507]}}, {"type": "Feature", "properties": {"name": "Roe Green Village", "url": "https://openhouselondon.open-city.org.uk/listings/1487", "description": "Built in 1918-19 to provide housing for AirCo (the Aircraft Manufacturing Company based in Colindale), Roe Green was designed in the garden village idiom by Sir Frank Baines, HM Office of Works principal architect.", "ticketed_events": "No", "fully_booked": ""}, "geometry": {"type": "Point", "coordinates": [-0.2673659, 51.5904507]}}, {"type": "Feature", "properties": {"name": "St Alban Church", "url": "https://openhouselondon.open-city.org.uk/listings/1502", "description": "Notable 1930s Grade II listed church with Swedish and German influences externally. Landmark tower. Stepped tunnel-vault with arches to side aisle walls giving a light lively interior. Marquetry panelling to Lady Chapel.", "ticketed_events": "No", "fully_booked": ""}, "geometry": {"type": "Point", "coordinates": [-0.3692052, 51.5826832]}}, {"type": "Feature", "properties": {"name": "St Alban Church", "url": "https://openhouselondon.open-city.org.uk/listings/1502", "description": "Notable 1930s Grade II listed church with Swedish and German influences externally. Landmark tower. Stepped tunnel-vault with arches to side aisle walls giving a light lively interior. Marquetry panelling to Lady Chapel.", "ticketed_events": "No", "fully_booked": ""}, "geometry": {"type": "Point", "coordinates": [-0.3692052, 51.5826832]}}, {"type": "Feature", "properties": {"name": "Round Chapel", "url": "https://openhouselondon.open-city.org.uk/listings/1503", "description": "Grade II* listed Nonconformist chapel for 1,000 people. Described by Pevsner as 'one of the finest Nonconformist buildings in London'. Horseshoe plan, innovative cast-iron columns and tracery, restored as a centre for the performing arts.", "ticketed_events": "No", "fully_booked": ""}, "geometry": {"type": "Point", "coordinates": [-0.0525794, 51.5523354]}}, {"type": "Feature", "properties": {"name": "Royal College of Physicians ", "url": "https://openhouselondon.open-city.org.uk/listings/1527", "description": "One of London's most important and provocative post-war Grade I listed buildings set amongst the Regency terraces of Regent\u2019s Park. It\u2019s white mosaic exterior with distinct modernist lines draws visitors in to dramatic interior spaces.", "ticketed_events": "Yes", "fully_booked": "Unknown"}, "geometry": {"type": "Point", "coordinates": [-0.1449807, 51.5257492]}}, {"type": "Feature", "properties": {"name": "Royal College of Physicians ", "url": "https://openhouselondon.open-city.org.uk/listings/1527", "description": "One of London's most important and provocative post-war Grade I listed buildings set amongst the Regency terraces of Regent\u2019s Park. It\u2019s white mosaic exterior with distinct modernist lines draws visitors in to dramatic interior spaces.", "ticketed_events": "Yes", "fully_booked": "Unknown"}, "geometry": {"type": "Point", "coordinates": [-0.1449807, 51.5257492]}}, {"type": "Feature", "properties": {"name": "Royal College of Physicians ", "url": "https://openhouselondon.open-city.org.uk/listings/1527", "description": "One of London's most important and provocative post-war Grade I listed buildings set amongst the Regency terraces of Regent\u2019s Park. It\u2019s white mosaic exterior with distinct modernist lines draws visitors in to dramatic interior spaces.", "ticketed_events": "Yes", "fully_booked": "Unknown"}, "geometry": {"type": "Point", "coordinates": [-0.1449807, 51.5257492]}}, {"type": "Feature", "properties": {"name": "Royal Hospital Chelsea, home of the Chelsea Pensioners", "url": "https://openhouselondon.open-city.org.uk/listings/1538", "description": "Numbered amongst the UK's architectural glories and boasting 66 acres of beautiful grounds, the Royal Hospital Chelsea has been home to the iconic Army veteran community fondly known as the 'Chelsea Pensioners' since its foundation in 1692.", "ticketed_events": "No", "fully_booked": ""}, "geometry": {"type": "Point", "coordinates": [-0.1582174, 51.4878309]}}, {"type": "Feature", "properties": {"name": "Royal Opera House", "url": "https://openhouselondon.open-city.org.uk/listings/1550", "description": "Housing the Royal Opera and the Royal Ballet, the historic building was reconfigured in 2018 by Stanton Williams to deliver not only world-class performance spaces, but also a welcoming and inclusive cultural and social hub.", "ticketed_events": "No", "fully_booked": ""}, "geometry": {"type": "Point", "coordinates": [-0.1226537, 51.5130471]}}, {"type": "Feature", "properties": {"name": "Rudolf Steiner House", "url": "https://openhouselondon.open-city.org.uk/listings/1571", "description": "Unique example of Expressionist architecture in London with sculptural staircase based on organic plant forms. Grade II listed. New cafe area and renovations in 2008. Refurbishment of theatre and foyer 2020.", "ticketed_events": "No", "fully_booked": ""}, "geometry": {"type": "Point", "coordinates": [-0.1605557, 51.5248974]}}, {"type": "Feature", "properties": {"name": "Walter Segal Self-build Houses ", "url": "https://openhouselondon.open-city.org.uk/listings/1615", "description": "A close of 13 self-built houses. Each is unique, built using method developed by Walter Segal, who led the project in the 1980s. Houses have been extended and renovated. Sustainable features including solar electric, water & space heating.", "ticketed_events": "No", "fully_booked": ""}, "geometry": {"type": "Point", "coordinates": [-0.0503453, 51.4497048]}}, {"type": "Feature", "properties": {"name": "Walter Segal Self-build Houses ", "url": "https://openhouselondon.open-city.org.uk/listings/1615", "description": "A close of 13 self-built houses. Each is unique, built using method developed by Walter Segal, who led the project in the 1980s. Houses have been extended and renovated. Sustainable features including solar electric, water & space heating.", "ticketed_events": "No", "fully_booked": ""}, "geometry": {"type": "Point", "coordinates": [-0.0503453, 51.4497048]}}, {"type": "Feature", "properties": {"name": "Walter Segal Self-build Houses ", "url": "https://openhouselondon.open-city.org.uk/listings/1615", "description": "A close of 13 self-built houses. Each is unique, built using method developed by Walter Segal, who led the project in the 1980s. Houses have been extended and renovated. Sustainable features including solar electric, water & space heating.", "ticketed_events": "No", "fully_booked": ""}, "geometry": {"type": "Point", "coordinates": [-0.0503453, 51.4497048]}}, {"type": "Feature", "properties": {"name": "Walter Segal Self-build Houses ", "url": "https://openhouselondon.open-city.org.uk/listings/1615", "description": "A close of 13 self-built houses. Each is unique, built using method developed by Walter Segal, who led the project in the 1980s. Houses have been extended and renovated. Sustainable features including solar electric, water & space heating.", "ticketed_events": "No", "fully_booked": ""}, "geometry": {"type": "Point", "coordinates": [-0.0503453, 51.4497048]}}, {"type": "Feature", "properties": {"name": "Walter Segal Self-build Houses ", "url": "https://openhouselondon.open-city.org.uk/listings/1615", "description": "A close of 13 self-built houses. Each is unique, built using method developed by Walter Segal, who led the project in the 1980s. Houses have been extended and renovated. Sustainable features including solar electric, water & space heating.", "ticketed_events": "No", "fully_booked": ""}, "geometry": {"type": "Point", "coordinates": [-0.0503453, 51.4497048]}}, {"type": "Feature", "properties": {"name": "Walter Segal Self-build Houses ", "url": "https://openhouselondon.open-city.org.uk/listings/1615", "description": "A close of 13 self-built houses. Each is unique, built using method developed by Walter Segal, who led the project in the 1980s. Houses have been extended and renovated. Sustainable features including solar electric, water & space heating.", "ticketed_events": "No", "fully_booked": ""}, "geometry": {"type": "Point", "coordinates": [-0.0503453, 51.4497048]}}, {"type": "Feature", "properties": {"name": "Senate House", "url": "https://openhouselondon.open-city.org.uk/listings/1617", "description": "London\u2019s tallest secular building when it opened as the HQ of the University of London and home to the Ministry of Information during WWII, this Grade II* listed landmark features Classicism and Art Deco elements.", "ticketed_events": "Yes", "fully_booked": "Unknown"}, "geometry": {"type": "Point", "coordinates": [-0.1308206, 51.5229378]}}, {"type": "Feature", "properties": {"name": "Senate House", "url": "https://openhouselondon.open-city.org.uk/listings/1617", "description": "London\u2019s tallest secular building when it opened as the HQ of the University of London and home to the Ministry of Information during WWII, this Grade II* listed landmark features Classicism and Art Deco elements.", "ticketed_events": "Yes", "fully_booked": "Unknown"}, "geometry": {"type": "Point", "coordinates": [-0.1308206, 51.5229378]}}, {"type": "Feature", "properties": {"name": "Senate House", "url": "https://openhouselondon.open-city.org.uk/listings/1617", "description": "London\u2019s tallest secular building when it opened as the HQ of the University of London and home to the Ministry of Information during WWII, this Grade II* listed landmark features Classicism and Art Deco elements.", "ticketed_events": "Yes", "fully_booked": "Unknown"}, "geometry": {"type": "Point", "coordinates": [-0.1308206, 51.5229378]}}, {"type": "Feature", "properties": {"name": "Severndroog Castle", "url": "https://openhouselondon.open-city.org.uk/listings/1620", "description": "Grade II* listed triangular brick Georgian tower sited in Oxleas Woods. Standing 63ft tall, it offers spectacular panoramic views across the capital. It was built in 1784 by Lady Anne James in memory of her husband Sir William James.", "ticketed_events": "No", "fully_booked": ""}, "geometry": {"type": "Point", "coordinates": [0.0608257, 51.4657028]}}, {"type": "Feature", "properties": {"name": "BAPS Shri Swaminarayan Mandir", "url": "https://openhouselondon.open-city.org.uk/listings/1645", "description": "Europe\u2019s first traditional Hindu temple is a masterpiece of exquisite Indian craftsmanship. Using 5,000 tonnes of Italian and Indian marble and the finest Bulgarian limestone, it was hand-carved in India before being assembled in London.", "ticketed_events": "No", "fully_booked": ""}, "geometry": {"type": "Point", "coordinates": [-0.2615212, 51.5474305]}}, {"type": "Feature", "properties": {"name": "South London Gallery", "url": "https://openhouselondon.open-city.org.uk/listings/1688", "description": "Public contemporary art gallery housed in 3 listed Victorian buildings restored by 6a architects. Comprising galleries, caf\u00e9, shop, gardens, kitchen and converted Victorian Fire Station.", "ticketed_events": "No", "fully_booked": ""}, "geometry": {"type": "Point", "coordinates": [-0.0811445, 51.474419]}}, {"type": "Feature", "properties": {"name": "South London Gallery", "url": "https://openhouselondon.open-city.org.uk/listings/1688", "description": "Public contemporary art gallery housed in 3 listed Victorian buildings restored by 6a architects. Comprising galleries, caf\u00e9, shop, gardens, kitchen and converted Victorian Fire Station.", "ticketed_events": "No", "fully_booked": ""}, "geometry": {"type": "Point", "coordinates": [-0.0811445, 51.474419]}}, {"type": "Feature", "properties": {"name": "Peter Jones", "url": "https://openhouselondon.open-city.org.uk/listings/1756", "description": "Grade II* listed building, involving complex mix of new build and restoration. Britain's first ever curtain walling and listed features such as spiral staircase. Sloane Room has one of best views over Chelsea. RIBA Award Winner 2005.", "ticketed_events": "No", "fully_booked": ""}, "geometry": {"type": "Point", "coordinates": [-0.1589754, 51.4922471]}}, {"type": "Feature", "properties": {"name": "St Bride Foundation ", "url": "https://openhouselondon.open-city.org.uk/listings/1761", "description": "Built in 1893 as a printers' institute in the Anglo-Dutch style, with sandstone dressings, steeply pitched tiled roof and gables; many original features remain including the swimming pool and library.", "ticketed_events": "No", "fully_booked": ""}, "geometry": {"type": "Point", "coordinates": [-0.1049387, 51.513548]}}, {"type": "Feature", "properties": {"name": "St Peter & St Paul Harlington", "url": "https://openhouselondon.open-city.org.uk/listings/1855", "description": "Grade I listed church dating from 1086, with Norman font and Norman stone arch, carved with cats heads. Interesting monuments including Easter sepulchre, ancient yew tree in churchyard. Good restoration between 1830 and 1860.", "ticketed_events": "No", "fully_booked": ""}, "geometry": {"type": "Point", "coordinates": [-0.4339041, 51.4930212]}}, {"type": "Feature", "properties": {"name": "The City Churches: St Stephen Walbrook", "url": "https://openhouselondon.open-city.org.uk/listings/1867", "description": "Wren's own and 'finest City Church'.  Fantastic architecture with different shapes,  twelve Corinthian columns and covered by huge dome - first of its type. Central stone altar by Henry Moore installed in 1987. Birthplace of the Samaritans.", "ticketed_events": "Yes", "fully_booked": "Unknown"}, "geometry": {"type": "Point", "coordinates": [-0.0900562, 51.5126287]}}, {"type": "Feature", "properties": {"name": "Sukkat Shalom Reform Synagogue", "url": "https://openhouselondon.open-city.org.uk/listings/1927", "description": "Grade II* listed, originally the Merchant Seaman's Orphan Asylum, bought by the synagogue in 1995 and restored with Lottery Fund grant. Timber work and windows from a synagogue which was inside the Tottenham Home for Incurables.", "ticketed_events": "No", "fully_booked": ""}, "geometry": {"type": "Point", "coordinates": [0.0281146, 51.5844382]}}, {"type": "Feature", "properties": {"name": "The Temple Church", "url": "https://openhouselondon.open-city.org.uk/listings/1984", "description": "Medieval architecture meets Wren's refurbishments in this inspiring building, the Mother Church of the Common Law. The Magna Carta exhibit: has William Marshal and King John where they would have debated and agreed clauses of Magna Carta.", "ticketed_events": "No", "fully_booked": ""}, "geometry": {"type": "Point", "coordinates": [-0.1097664, 51.5134606]}}, {"type": "Feature", "properties": {"name": "The Art Workers' Guild ", "url": "https://openhouselondon.open-city.org.uk/listings/2003", "description": "1713 terraced house with 1914 hall at rear. Notable renovated Arts and Crafts interior. Newly refurbished glass vaulted courtyard. Portraits of Guild Masters since 1884.", "ticketed_events": "No", "fully_booked": ""}, "geometry": {"type": "Point", "coordinates": [-0.1227227, 51.5214982]}}, {"type": "Feature", "properties": {"name": "The Art Workers' Guild ", "url": "https://openhouselondon.open-city.org.uk/listings/2003", "description": "1713 terraced house with 1914 hall at rear. Notable renovated Arts and Crafts interior. Newly refurbished glass vaulted courtyard. Portraits of Guild Masters since 1884.", "ticketed_events": "No", "fully_booked": ""}, "geometry": {"type": "Point", "coordinates": [-0.1227227, 51.5214982]}}, {"type": "Feature", "properties": {"name": "The Art Workers' Guild ", "url": "https://openhouselondon.open-city.org.uk/listings/2003", "description": "1713 terraced house with 1914 hall at rear. Notable renovated Arts and Crafts interior. Newly refurbished glass vaulted courtyard. Portraits of Guild Masters since 1884.", "ticketed_events": "No", "fully_booked": ""}, "geometry": {"type": "Point", "coordinates": [-0.1227227, 51.5214982]}}, {"type": "Feature", "properties": {"name": "The Art Workers' Guild ", "url": "https://openhouselondon.open-city.org.uk/listings/2003", "description": "1713 terraced house with 1914 hall at rear. Notable renovated Arts and Crafts interior. Newly refurbished glass vaulted courtyard. Portraits of Guild Masters since 1884.", "ticketed_events": "No", "fully_booked": ""}, "geometry": {"type": "Point", "coordinates": [-0.1227227, 51.5214982]}}, {"type": "Feature", "properties": {"name": "The Great Barn, Harmondsworth", "url": "https://openhouselondon.open-city.org.uk/listings/2050", "description": "The timbers of this great medieval barn (1426-7), over 190 feet long and nearly 40 feet high, are 95% original. Displays include the conservation/repairs carried out in 2014 and its place in the agricultural history of the village.", "ticketed_events": "No", "fully_booked": ""}, "geometry": {"type": "Point", "coordinates": [-0.4781988, 51.4891715]}}, {"type": "Feature", "properties": {"name": "The Hospital Chapel of St Mary & St Thomas ", "url": "https://openhouselondon.open-city.org.uk/listings/2059", "description": "Founded c1145 by the Abbess of Barking as a hospice for thirteen old and infirm men, the present building is 12C and 19C. Grade II* listed with many interesting monuments, including Burne-Jones windows.", "ticketed_events": "No", "fully_booked": ""}, "geometry": {"type": "Point", "coordinates": [0.0689756, 51.5579607]}}, {"type": "Feature", "properties": {"name": "The Hospital Chapel of St Mary & St Thomas ", "url": "https://openhouselondon.open-city.org.uk/listings/2059", "description": "Founded c1145 by the Abbess of Barking as a hospice for thirteen old and infirm men, the present building is 12C and 19C. Grade II* listed with many interesting monuments, including Burne-Jones windows.", "ticketed_events": "No", "fully_booked": ""}, "geometry": {"type": "Point", "coordinates": [0.0689756, 51.5579607]}}, {"type": "Feature", "properties": {"name": "The Royal Society ", "url": "https://openhouselondon.open-city.org.uk/listings/2135", "description": "A spectacular Grade I listed building designed by famed architect John Nash. Built in 1831, these former townhouses have undergone refurbishments throughout their history. The building is now home to the UK's national science academy.", "ticketed_events": "Yes", "fully_booked": "Unknown"}, "geometry": {"type": "Point", "coordinates": [-0.1324592, 51.5058745]}}, {"type": "Feature", "properties": {"name": "The Stanley Picker Trust, Picker House (online only)", "url": "https://openhouselondon.open-city.org.uk/listings/2144", "description": "Completed in 1968 by Kenneth Wood, RIBA, T Eng (CEI).  A time capsule of the 1960s, it is set in a quiet cul-de-sac on steeply sloping ground which both inspired and challenged the architect when creating the modern split-level design.", "ticketed_events": "No", "fully_booked": ""}, "geometry": {"type": "Point", "coordinates": [-0.0677747, 51.5105908]}}, {"type": "Feature", "properties": {"name": "The Temple Wanstead Park", "url": "https://openhouselondon.open-city.org.uk/listings/2149", "description": "The Temple, 1760 remnant of magnificent Wanstead House estate, set in Grade II listed landscape Wanstead Park. Displays within, activities for all under Doric portico & in grassed enclosure.", "ticketed_events": "No", "fully_booked": ""}, "geometry": {"type": "Point", "coordinates": [0.0425088, 51.5680738]}}, {"type": "Feature", "properties": {"name": "The Temple Wanstead Park", "url": "https://openhouselondon.open-city.org.uk/listings/2149", "description": "The Temple, 1760 remnant of magnificent Wanstead House estate, set in Grade II listed landscape Wanstead Park. Displays within, activities for all under Doric portico & in grassed enclosure.", "ticketed_events": "No", "fully_booked": ""}, "geometry": {"type": "Point", "coordinates": [0.0425088, 51.5680738]}}, {"type": "Feature", "properties": {"name": "Tooting Bec Lido ", "url": "https://openhouselondon.open-city.org.uk/listings/2181", "description": "Outdoor pool 100x33 yards. One million gallons of unheated water. Iconic outdoor cubicle doors, fountain and caf\u00e9 added in the 1930s, with Art Deco style entrance in 2001. Sports hall pavilion added in 2016.", "ticketed_events": "No", "fully_booked": ""}, "geometry": {"type": "Point", "coordinates": [-0.1388495, 51.4314844]}}, {"type": "Feature", "properties": {"name": "Tooting Bec Lido ", "url": "https://openhouselondon.open-city.org.uk/listings/2181", "description": "Outdoor pool 100x33 yards. One million gallons of unheated water. Iconic outdoor cubicle doors, fountain and caf\u00e9 added in the 1930s, with Art Deco style entrance in 2001. Sports hall pavilion added in 2016.", "ticketed_events": "No", "fully_booked": ""}, "geometry": {"type": "Point", "coordinates": [-0.1388495, 51.4314844]}}, {"type": "Feature", "properties": {"name": "Tooting Bec Lido ", "url": "https://openhouselondon.open-city.org.uk/listings/2181", "description": "Outdoor pool 100x33 yards. One million gallons of unheated water. Iconic outdoor cubicle doors, fountain and caf\u00e9 added in the 1930s, with Art Deco style entrance in 2001. Sports hall pavilion added in 2016.", "ticketed_events": "No", "fully_booked": ""}, "geometry": {"type": "Point", "coordinates": [-0.1388495, 51.4314844]}}, {"type": "Feature", "properties": {"name": "Self-guided Tower Gardens Garden Suburb Walk", "url": "https://openhouselondon.open-city.org.uk/listings/2192", "description": "One of the first garden suburbs in the world, 2-storey terraced cottages retaining decorative architectural features. LCC created 'housing of the working classes' role for architects' department under Riley, member of the Art Workers guild.", "ticketed_events": "No", "fully_booked": ""}, "geometry": {"type": "Point", "coordinates": [-0.0907723, 51.5987078]}}, {"type": "Feature", "properties": {"name": "Trinity Buoy Wharf/Container City", "url": "https://openhouselondon.open-city.org.uk/listings/2205", "description": "Home to London's only lighthouse, fine stock buildings and examples of the innovative Container City buildings. This former buoy manufacturing site is now a centre for the creative industries with various sculptures and installations.", "ticketed_events": "No", "fully_booked": ""}, "geometry": {"type": "Point", "coordinates": [0.0087426, 51.5084415]}}, {"type": "Feature", "properties": {"name": "Trinity Buoy Wharf/Container City", "url": "https://openhouselondon.open-city.org.uk/listings/2205", "description": "Home to London's only lighthouse, fine stock buildings and examples of the innovative Container City buildings. This former buoy manufacturing site is now a centre for the creative industries with various sculptures and installations.", "ticketed_events": "No", "fully_booked": ""}, "geometry": {"type": "Point", "coordinates": [0.0087426, 51.5084415]}}, {"type": "Feature", "properties": {"name": "Trinity Buoy Wharf/Container City", "url": "https://openhouselondon.open-city.org.uk/listings/2205", "description": "Home to London's only lighthouse, fine stock buildings and examples of the innovative Container City buildings. This former buoy manufacturing site is now a centre for the creative industries with various sculptures and installations.", "ticketed_events": "No", "fully_booked": ""}, "geometry": {"type": "Point", "coordinates": [0.0087426, 51.5084415]}}, {"type": "Feature", "properties": {"name": "Trinity Buoy Wharf/Container City", "url": "https://openhouselondon.open-city.org.uk/listings/2205", "description": "Home to London's only lighthouse, fine stock buildings and examples of the innovative Container City buildings. This former buoy manufacturing site is now a centre for the creative industries with various sculptures and installations.", "ticketed_events": "No", "fully_booked": ""}, "geometry": {"type": "Point", "coordinates": [0.0087426, 51.5084415]}}, {"type": "Feature", "properties": {"name": "Trinity Buoy Wharf/Container City", "url": "https://openhouselondon.open-city.org.uk/listings/2205", "description": "Home to London's only lighthouse, fine stock buildings and examples of the innovative Container City buildings. This former buoy manufacturing site is now a centre for the creative industries with various sculptures and installations.", "ticketed_events": "No", "fully_booked": ""}, "geometry": {"type": "Point", "coordinates": [0.0087426, 51.5084415]}}, {"type": "Feature", "properties": {"name": "Bevin Court ", "url": "https://openhouselondon.open-city.org.uk/listings/2214", "description": "One of London's hidden Modernist gems. Lubetkin's motto 'Nothing is too good for ordinary people' resonates through this building.", "ticketed_events": "No", "fully_booked": ""}, "geometry": {"type": "Point", "coordinates": [-0.1130874, 51.5303935]}}, {"type": "Feature", "properties": {"name": "The North Wing, St Bartholomew's 'Barts' Hospital", "url": "https://openhouselondon.open-city.org.uk/listings/2231", "description": "Founded in 1123 and rebuilt to designs of James Gibbs. Barts' Grade I listed North Wing showcases spectacular canvases by William Hogarth & the historic Great Hall. Museum & touring exhibition from the Wellcome Collection also open.", "ticketed_events": "No", "fully_booked": ""}, "geometry": {"type": "Point", "coordinates": [-0.1003783, 51.5177514]}}, {"type": "Feature", "properties": {"name": "The Church of Our Most Holy Redeemer", "url": "https://openhouselondon.open-city.org.uk/listings/2288", "description": "A unique II* listed Italianate church by John Dando Sedding with attached Campanile and Institute Building. Of particular significance in the church is the imposing baldacchino over the High Altar, which dominates the east end.", "ticketed_events": "No", "fully_booked": ""}, "geometry": {"type": "Point", "coordinates": [-0.1088928, 51.5258475]}}, {"type": "Feature", "properties": {"name": "The Church of Our Most Holy Redeemer", "url": "https://openhouselondon.open-city.org.uk/listings/2288", "description": "A unique II* listed Italianate church by John Dando Sedding with attached Campanile and Institute Building. Of particular significance in the church is the imposing baldacchino over the High Altar, which dominates the east end.", "ticketed_events": "No", "fully_booked": ""}, "geometry": {"type": "Point", "coordinates": [-0.1088928, 51.5258475]}}, {"type": "Feature", "properties": {"name": "Hampstead Garden Suburb Free Church", "url": "https://openhouselondon.open-city.org.uk/listings/2297", "description": "Grade I listed Non-conformist church, set in the suburb's integrally planned Central Square to balance St Jude's Church nearby, but with a low concrete dome. Distinctive interior with large Tuscan columns on high brick plinths.", "ticketed_events": "No", "fully_booked": ""}, "geometry": {"type": "Point", "coordinates": [-0.190889, 51.5807555]}}, {"type": "Feature", "properties": {"name": "West India Dock Impounding Station", "url": "https://openhouselondon.open-city.org.uk/listings/2328", "description": "The recently automated impounding station controls the water level in the docks using the original Worthington Simpson pumps driven by Lancashire dynamo.", "ticketed_events": "No", "fully_booked": ""}, "geometry": {"type": "Point", "coordinates": [-0.0247009, 51.5021182]}}, {"type": "Feature", "properties": {"name": "West India Dock Impounding Station", "url": "https://openhouselondon.open-city.org.uk/listings/2328", "description": "The recently automated impounding station controls the water level in the docks using the original Worthington Simpson pumps driven by Lancashire dynamo.", "ticketed_events": "No", "fully_booked": ""}, "geometry": {"type": "Point", "coordinates": [-0.0247009, 51.5021182]}}, {"type": "Feature", "properties": {"name": "West India Dock Impounding Station", "url": "https://openhouselondon.open-city.org.uk/listings/2328", "description": "The recently automated impounding station controls the water level in the docks using the original Worthington Simpson pumps driven by Lancashire dynamo.", "ticketed_events": "No", "fully_booked": ""}, "geometry": {"type": "Point", "coordinates": [-0.0247009, 51.5021182]}}, {"type": "Feature", "properties": {"name": "West India Dock Impounding Station", "url": "https://openhouselondon.open-city.org.uk/listings/2328", "description": "The recently automated impounding station controls the water level in the docks using the original Worthington Simpson pumps driven by Lancashire dynamo.", "ticketed_events": "No", "fully_booked": ""}, "geometry": {"type": "Point", "coordinates": [-0.0247009, 51.5021182]}}, {"type": "Feature", "properties": {"name": "West India Dock Impounding Station", "url": "https://openhouselondon.open-city.org.uk/listings/2328", "description": "The recently automated impounding station controls the water level in the docks using the original Worthington Simpson pumps driven by Lancashire dynamo.", "ticketed_events": "No", "fully_booked": ""}, "geometry": {"type": "Point", "coordinates": [-0.0247009, 51.5021182]}}, {"type": "Feature", "properties": {"name": "West India Dock Impounding Station", "url": "https://openhouselondon.open-city.org.uk/listings/2328", "description": "The recently automated impounding station controls the water level in the docks using the original Worthington Simpson pumps driven by Lancashire dynamo.", "ticketed_events": "No", "fully_booked": ""}, "geometry": {"type": "Point", "coordinates": [-0.0247009, 51.5021182]}}, {"type": "Feature", "properties": {"name": "Benjamin Franklin House", "url": "https://openhouselondon.open-city.org.uk/listings/2347", "description": "Grade I listed Georgian house, the only surviving home of Benjamin Franklin, retaining many original features including central staircase, lathing, 18th Century panelling, stoves, windows, fittings and beams.", "ticketed_events": "Yes", "fully_booked": "Unknown"}, "geometry": {"type": "Point", "coordinates": [-0.1249787, 51.5076706]}}, {"type": "Feature", "properties": {"name": "Hanwell Flight of Locks & Three Bridges", "url": "https://openhouselondon.open-city.org.uk/listings/2406", "description": "Flight of locks and side ponds at Hanwell is a Scheduled  Monument. Three Bridges is a unique stacked intersection of road, rail and canal and Brunel's last major railway project. Walks led by knowledgeable enthusiasts.", "ticketed_events": "No", "fully_booked": ""}, "geometry": {"type": "Point", "coordinates": [-0.3434089, 51.504142]}}, {"type": "Feature", "properties": {"name": "Hanwell Flight of Locks & Three Bridges", "url": "https://openhouselondon.open-city.org.uk/listings/2406", "description": "Flight of locks and side ponds at Hanwell is a Scheduled  Monument. Three Bridges is a unique stacked intersection of road, rail and canal and Brunel's last major railway project. Walks led by knowledgeable enthusiasts.", "ticketed_events": "No", "fully_booked": ""}, "geometry": {"type": "Point", "coordinates": [-0.3434089, 51.504142]}}, {"type": "Feature", "properties": {"name": "Hanwell Flight of Locks & Three Bridges", "url": "https://openhouselondon.open-city.org.uk/listings/2406", "description": "Flight of locks and side ponds at Hanwell is a Scheduled  Monument. Three Bridges is a unique stacked intersection of road, rail and canal and Brunel's last major railway project. Walks led by knowledgeable enthusiasts.", "ticketed_events": "No", "fully_booked": ""}, "geometry": {"type": "Point", "coordinates": [-0.3434089, 51.504142]}}, {"type": "Feature", "properties": {"name": "Wrotham Park", "url": "https://openhouselondon.open-city.org.uk/listings/2418", "description": "A privately-owned Grade II listed Palladian mansion with grand interiors restored in 1883, set in 300 acres of parkland in the midst of 2,500 acres. Built for Admiral The Hon. John Byng.", "ticketed_events": "No", "fully_booked": ""}, "geometry": {"type": "Point", "coordinates": [-0.1976526, 51.6732098]}}, {"type": "Feature", "properties": {"name": "Wrotham Park", "url": "https://openhouselondon.open-city.org.uk/listings/2418", "description": "A privately-owned Grade II listed Palladian mansion with grand interiors restored in 1883, set in 300 acres of parkland in the midst of 2,500 acres. Built for Admiral The Hon. John Byng.", "ticketed_events": "No", "fully_booked": ""}, "geometry": {"type": "Point", "coordinates": [-0.1976526, 51.6732098]}}, {"type": "Feature", "properties": {"name": "Wrotham Park", "url": "https://openhouselondon.open-city.org.uk/listings/2418", "description": "A privately-owned Grade II listed Palladian mansion with grand interiors restored in 1883, set in 300 acres of parkland in the midst of 2,500 acres. Built for Admiral The Hon. John Byng.", "ticketed_events": "No", "fully_booked": ""}, "geometry": {"type": "Point", "coordinates": [-0.1976526, 51.6732098]}}, {"type": "Feature", "properties": {"name": "Wrotham Park", "url": "https://openhouselondon.open-city.org.uk/listings/2418", "description": "A privately-owned Grade II listed Palladian mansion with grand interiors restored in 1883, set in 300 acres of parkland in the midst of 2,500 acres. Built for Admiral The Hon. John Byng.", "ticketed_events": "No", "fully_booked": ""}, "geometry": {"type": "Point", "coordinates": [-0.1976526, 51.6732098]}}, {"type": "Feature", "properties": {"name": "Wrotham Park", "url": "https://openhouselondon.open-city.org.uk/listings/2418", "description": "A privately-owned Grade II listed Palladian mansion with grand interiors restored in 1883, set in 300 acres of parkland in the midst of 2,500 acres. Built for Admiral The Hon. John Byng.", "ticketed_events": "No", "fully_booked": ""}, "geometry": {"type": "Point", "coordinates": [-0.1976526, 51.6732098]}}, {"type": "Feature", "properties": {"name": "Wrotham Park", "url": "https://openhouselondon.open-city.org.uk/listings/2418", "description": "A privately-owned Grade II listed Palladian mansion with grand interiors restored in 1883, set in 300 acres of parkland in the midst of 2,500 acres. Built for Admiral The Hon. John Byng.", "ticketed_events": "No", "fully_booked": ""}, "geometry": {"type": "Point", "coordinates": [-0.1976526, 51.6732098]}}, {"type": "Feature", "properties": {"name": "York House", "url": "https://openhouselondon.open-city.org.uk/listings/2423", "description": "Mid-17C house, a scheduled ancient monument, with fine staircase and 18C additions.", "ticketed_events": "No", "fully_booked": ""}, "geometry": {"type": "Point", "coordinates": [-0.324506, 51.4474994]}}, {"type": "Feature", "properties": {"name": "All Saints Church, Edmonton", "url": "https://openhouselondon.open-city.org.uk/listings/2456", "description": "Church dating back to at least early C12. Charles and Mary Lamb are buried in the churchyard.", "ticketed_events": "No", "fully_booked": ""}, "geometry": {"type": "Point", "coordinates": [-0.0663422, 51.6260409]}}, {"type": "Feature", "properties": {"name": "Christ Church", "url": "https://openhouselondon.open-city.org.uk/listings/2462", "description": "Grade II* listed church with ragstone tower, spire, good stained glass by Kempe and recently restored William Hill organ. A characteristic work of Scott. It is Gothic Revival in the style of the 13C.", "ticketed_events": "No", "fully_booked": ""}, "geometry": {"type": "Point", "coordinates": [0.0237026, 51.5779483]}}, {"type": "Feature", "properties": {"name": "Christ Church, Streatham", "url": "https://openhouselondon.open-city.org.uk/listings/2465", "description": "Grade I listed pioneering brick polychromy. Designed with early Christian, Italian, Ottoman, Alhambran, Mamluk, Sevillean and Ancient Egyptian influences with fine mosaics and stained glass by Crane, Bentley. Lee and Hayward.", "ticketed_events": "No", "fully_booked": ""}, "geometry": {"type": "Point", "coordinates": [-0.121144, 51.4446151]}}, {"type": "Feature", "properties": {"name": "Church of St Lawrence, Little Stanmore", "url": "https://openhouselondon.open-city.org.uk/listings/2467", "description": "Unique Continental Baroque church rebuilt in 1715 by James Brydges, first Duke of Chandos. Painted walls and ceiling with trompe-l'oeil effect. Wood carvings by Grinling Gibbons and the organ on which Handel played.", "ticketed_events": "No", "fully_booked": ""}, "geometry": {"type": "Point", "coordinates": [-0.2877463, 51.6086171]}}, {"type": "Feature", "properties": {"name": "St Alfege Church, Greenwich", "url": "https://openhouselondon.open-city.org.uk/listings/2483", "description": "Magnificent English Baroque church, Grade I listed, gutted by fire in 1941 and restored by Sir Albert Richardson to original design. Many original features. Burial site of Thomas Tallis, organist/choirmaster (1505-85).", "ticketed_events": "No", "fully_booked": ""}, "geometry": {"type": "Point", "coordinates": [-0.0099899, 51.4810449]}}, {"type": "Feature", "properties": {"name": "St Alfege Church, Greenwich", "url": "https://openhouselondon.open-city.org.uk/listings/2483", "description": "Magnificent English Baroque church, Grade I listed, gutted by fire in 1941 and restored by Sir Albert Richardson to original design. Many original features. Burial site of Thomas Tallis, organist/choirmaster (1505-85).", "ticketed_events": "No", "fully_booked": ""}, "geometry": {"type": "Point", "coordinates": [-0.0099899, 51.4810449]}}, {"type": "Feature", "properties": {"name": "St Alfege Church, Greenwich", "url": "https://openhouselondon.open-city.org.uk/listings/2483", "description": "Magnificent English Baroque church, Grade I listed, gutted by fire in 1941 and restored by Sir Albert Richardson to original design. Many original features. Burial site of Thomas Tallis, organist/choirmaster (1505-85).", "ticketed_events": "No", "fully_booked": ""}, "geometry": {"type": "Point", "coordinates": [-0.0099899, 51.4810449]}}, {"type": "Feature", "properties": {"name": "St Alfege Church, Greenwich", "url": "https://openhouselondon.open-city.org.uk/listings/2483", "description": "Magnificent English Baroque church, Grade I listed, gutted by fire in 1941 and restored by Sir Albert Richardson to original design. Many original features. Burial site of Thomas Tallis, organist/choirmaster (1505-85).", "ticketed_events": "No", "fully_booked": ""}, "geometry": {"type": "Point", "coordinates": [-0.0099899, 51.4810449]}}, {"type": "Feature", "properties": {"name": "St Andrew's Kingsbury (new church)", "url": "https://openhouselondon.open-city.org.uk/listings/2485", "description": "Meticulous 1930s rebuilding (complete with original furnishings) of an 1840s Marylebone church. Grade I listed. Contains works by Pugin, Burges, Street, Pearson and Butterfield.", "ticketed_events": "No", "fully_booked": ""}, "geometry": {"type": "Point", "coordinates": [-0.2620318, 51.5675671]}}, {"type": "Feature", "properties": {"name": "St Andrew's Kingsbury (new church)", "url": "https://openhouselondon.open-city.org.uk/listings/2485", "description": "Meticulous 1930s rebuilding (complete with original furnishings) of an 1840s Marylebone church. Grade I listed. Contains works by Pugin, Burges, Street, Pearson and Butterfield.", "ticketed_events": "No", "fully_booked": ""}, "geometry": {"type": "Point", "coordinates": [-0.2620318, 51.5675671]}}, {"type": "Feature", "properties": {"name": "St Barnabas Church", "url": "https://openhouselondon.open-city.org.uk/listings/2491", "description": "Early English style, full of Pre-Raphaelite decoration. Important works by Bodley, Comper and Cundy and windows by Kempe and Tower. First Oxford Movement church. Recently restored 10 bell peal; bell ringing quarter peal once a month", "ticketed_events": "No", "fully_booked": ""}, "geometry": {"type": "Point", "coordinates": [-0.1516259, 51.4905308]}}, {"type": "Feature", "properties": {"name": "St Dunstan and All Saints Church", "url": "https://openhouselondon.open-city.org.uk/listings/2497", "description": "Grade I listed early medieval parish church (from 952 before Tower of London) in spacious churchyard. Fine interior: Anglo-Saxon Rood, Norman font, 'squint', fine memorials incl founders of Trinity House, 1950s glass. Bells of Stepney.", "ticketed_events": "No", "fully_booked": ""}, "geometry": {"type": "Point", "coordinates": [-0.0416646, 51.5168842]}}, {"type": "Feature", "properties": {"name": "St John the Baptist Holland Road", "url": "https://openhouselondon.open-city.org.uk/listings/2511", "description": "Possibly the last stone-vaulted building built in London \u2013 of soaring nobility embellished with carvings and fittings of exceptional quality.", "ticketed_events": "No", "fully_booked": ""}, "geometry": {"type": "Point", "coordinates": [-0.2143819, 51.5032295]}}, {"type": "Feature", "properties": {"name": "St Jude on the Hill", "url": "https://openhouselondon.open-city.org.uk/listings/2517", "description": "Eccentric Edwardian church, Grade I listed. Described by Simon Jenkins as 'one of Lutyens' most distinctive creations'. Extensive 20C wall-paintings by Walter Starmer, memorial to horses of WWI. Local archives display.", "ticketed_events": "Yes", "fully_booked": "Unknown"}, "geometry": {"type": "Point", "coordinates": [-0.1893314, 51.5805196]}}, {"type": "Feature", "properties": {"name": "St Mary the Virgin", "url": "https://openhouselondon.open-city.org.uk/listings/2528", "description": "Small Grade I listed 12C chapel in lovely churchyard setting, it retains original architectural features and has interesting brasses, monuments and stained glass windows.", "ticketed_events": "No", "fully_booked": ""}, "geometry": {"type": "Point", "coordinates": [0.0589782, 51.5483795]}}, {"type": "Feature", "properties": {"name": "St Mary's Church, Battersea", "url": "https://openhouselondon.open-city.org.uk/listings/2533", "description": "Classic Grade I listed Georgian church with outstanding interior and monuments. Renovated 2019/20.", "ticketed_events": "No", "fully_booked": ""}, "geometry": {"type": "Point", "coordinates": [-0.1754191, 51.4765511]}}, {"type": "Feature", "properties": {"name": "St Paul's, Newington", "url": "https://openhouselondon.open-city.org.uk/listings/2556", "description": "Modern architecture church with large copper and lead roof and concrete, brick and stained glass external structure. Marble, wood and plaster interior and artwork by Sculptor Freda Pinto and Gerald Holtom.", "ticketed_events": "No", "fully_booked": ""}, "geometry": {"type": "Point", "coordinates": [-0.1018666, 51.4850778]}}, {"type": "Feature", "properties": {"name": "Bedford Park Walking Tour", "url": "https://openhouselondon.open-city.org.uk/listings/2569", "description": "Bedford Park is a planned suburb of 1877-86 and a precursor to the Garden Cities and Garden Suburbs. You'll see houses, churches, and public houses by leading 19th century architects Richard Norman Shaw, EW Godwin, EJ May, Maurice B Adams.", "ticketed_events": "No", "fully_booked": ""}, "geometry": {"type": "Point", "coordinates": [-0.2539543, 51.4963073]}}, {"type": "Feature", "properties": {"name": "Brentham Garden Suburb", "url": "https://openhouselondon.open-city.org.uk/listings/2571", "description": "Britain's first co-partnership garden suburb, first houses built 1901. Parker and Unwin's plan introduced 1907, mainly Arts and Crafts style; fascinating social history.", "ticketed_events": "No", "fully_booked": ""}, "geometry": {"type": "Point", "coordinates": [-0.3082987, 51.5289008]}}, {"type": "Feature", "properties": {"name": "All Saints, Foots Cray", "url": "https://openhouselondon.open-city.org.uk/listings/2616", "description": "Medieval church (c1330) amended 1863 by Hakewill and retaining original elements such as windows and an arch to the north aisle, and altar tomb of Sir Simon de Vaughan.", "ticketed_events": "No", "fully_booked": ""}, "geometry": {"type": "Point", "coordinates": [0.1089291, 51.4248285]}}, {"type": "Feature", "properties": {"name": "Bruce Castle Museum", "url": "https://openhouselondon.open-city.org.uk/listings/2728", "description": "Tudor Manor House built for Sir William Compton in 1514, substantially altered in 17C, 18C & 19C. A museum since 1906 housing local history and community collections, archives, art & exhibitions of Bruce Castle, and Haringey area.", "ticketed_events": "No", "fully_booked": ""}, "geometry": {"type": "Point", "coordinates": [-0.075367, 51.599108]}}, {"type": "Feature", "properties": {"name": "Bruce Castle Museum", "url": "https://openhouselondon.open-city.org.uk/listings/2728", "description": "Tudor Manor House built for Sir William Compton in 1514, substantially altered in 17C, 18C & 19C. A museum since 1906 housing local history and community collections, archives, art & exhibitions of Bruce Castle, and Haringey area.", "ticketed_events": "No", "fully_booked": ""}, "geometry": {"type": "Point", "coordinates": [-0.075367, 51.599108]}}, {"type": "Feature", "properties": {"name": "Bruce Castle Museum", "url": "https://openhouselondon.open-city.org.uk/listings/2728", "description": "Tudor Manor House built for Sir William Compton in 1514, substantially altered in 17C, 18C & 19C. A museum since 1906 housing local history and community collections, archives, art & exhibitions of Bruce Castle, and Haringey area.", "ticketed_events": "No", "fully_booked": ""}, "geometry": {"type": "Point", "coordinates": [-0.075367, 51.599108]}}, {"type": "Feature", "properties": {"name": "Bruce Castle Museum", "url": "https://openhouselondon.open-city.org.uk/listings/2728", "description": "Tudor Manor House built for Sir William Compton in 1514, substantially altered in 17C, 18C & 19C. A museum since 1906 housing local history and community collections, archives, art & exhibitions of Bruce Castle, and Haringey area.", "ticketed_events": "No", "fully_booked": ""}, "geometry": {"type": "Point", "coordinates": [-0.075367, 51.599108]}}, {"type": "Feature", "properties": {"name": "Caledonian Park: Clock Tower Tours ", "url": "https://openhouselondon.open-city.org.uk/listings/2764", "description": "Opened in 1855 as centrepiece of the Metropolitan Cattle Market. The clock tower offers magnificent views over London. The clock mechanism was made by John Moore of Clerkenwell. The tower has been renovated with help from the Heritage Fund.", "ticketed_events": "No", "fully_booked": ""}, "geometry": {"type": "Point", "coordinates": [-0.1236156, 51.5471359]}}, {"type": "Feature", "properties": {"name": "Caledonian Park: Clock Tower Tours ", "url": "https://openhouselondon.open-city.org.uk/listings/2764", "description": "Opened in 1855 as centrepiece of the Metropolitan Cattle Market. The clock tower offers magnificent views over London. The clock mechanism was made by John Moore of Clerkenwell. The tower has been renovated with help from the Heritage Fund.", "ticketed_events": "No", "fully_booked": ""}, "geometry": {"type": "Point", "coordinates": [-0.1236156, 51.5471359]}},