{"type": "FeatureCollection", "features": [{"type": "Feature", "properties": {"name": "The Old Finsbury Town Hall ", "url": "https://openhouselondon.open-city.org.uk/listings/375", "description": "Opened by Lord Rosebery, an ornate building with elegant decor influenced by the Art Nouveau movement. Several notable rooms including the Great Hall with unique stained glass, antique mirrors and Clerkenwell Angel statuettes.", "ticketed_events": "No", "fully_booked": ""}, "geometry": {"type": "Point", "coordinates": [-0.1100225, 51.5257219]}}, {"type": "Feature", "properties": {"name": "Foreign, Commonwealth & Development Office ", "url": "https://openhouselondon.open-city.org.uk/listings/400", "description": "Grade I listed Victorian government office buildings. Route includes the magnificent and richly decorated Durbar Court, India Office Council Chamber, Locarno Suite and Foreign Office Grand Staircase.", "ticketed_events": "No", "fully_booked": ""}, "geometry": {"type": "Point", "coordinates": [-0.1271549, 51.5021869]}}, {"type": "Feature", "properties": {"name": "The Swedenborg Society", "url": "https://openhouselondon.open-city.org.uk/listings/889", "description": "Grade II listed Georgian domestic building c1760, formerly part of Bedford Estate. Interior refurbished 1924-5 to form lecture hall (restored 2014), library, bookshop and offices. Oak woodwork and green Doulton tiles line the staircase.", "ticketed_events": "Yes", "fully_booked": "Yes"}, "geometry": {"type": "Point", "coordinates": [-0.1229063, 51.5180093]}}, {"type": "Feature", "properties": {"name": "Guildhall Art Gallery", "url": "https://openhouselondon.open-city.org.uk/listings/1405", "description": "Houses the City of London's art collection, built over remains of London's 2C Roman amphitheatre. Fa\u00e7ade uses Portland stone and Collyweston stone slates. Interior uses finishes of marble, American elm, damask and painted wall coverings.", "ticketed_events": "Yes", "fully_booked": "Unknown"}, "geometry": {"type": "Point", "coordinates": [-0.0919056, 51.5152757]}}, {"type": "Feature", "properties": {"name": "Argentine Ambassador's Residence ", "url": "https://openhouselondon.open-city.org.uk/listings/2060", "description": "Known as the 'Independent North Mansion' and christened by Sydney Herbert as 'Belgrave Villa' and then simply 'The Villa' by his successor the 6th Duke of Richmond. Owned by Argentina since 1936 and with sumptuous interiors still intact.", "ticketed_events": "Yes", "fully_booked": "Unknown"}, "geometry": {"type": "Point", "coordinates": [-0.1531628, 51.5006179]}}, {"type": "Feature", "properties": {"name": "Argentine Ambassador's Residence ", "url": "https://openhouselondon.open-city.org.uk/listings/2060", "description": "Known as the 'Independent North Mansion' and christened by Sydney Herbert as 'Belgrave Villa' and then simply 'The Villa' by his successor the 6th Duke of Richmond. Owned by Argentina since 1936 and with sumptuous interiors still intact.", "ticketed_events": "Yes", "fully_booked": "Unknown"}, "geometry": {"type": "Point", "coordinates": [-0.1531628, 51.5006179]}}, {"type": "Feature", "properties": {"name": "Argentine Ambassador's Residence ", "url": "https://openhouselondon.open-city.org.uk/listings/2060", "description": "Known as the 'Independent North Mansion' and christened by Sydney Herbert as 'Belgrave Villa' and then simply 'The Villa' by his successor the 6th Duke of Richmond. Owned by Argentina since 1936 and with sumptuous interiors still intact.", "ticketed_events": "Yes", "fully_booked": "Unknown"}, "geometry": {"type": "Point", "coordinates": [-0.1531628, 51.5006179]}}, {"type": "Feature", "properties": {"name": "Argentine Ambassador's Residence ", "url": "https://openhouselondon.open-city.org.uk/listings/2060", "description": "Known as the 'Independent North Mansion' and christened by Sydney Herbert as 'Belgrave Villa' and then simply 'The Villa' by his successor the 6th Duke of Richmond. Owned by Argentina since 1936 and with sumptuous interiors still intact.", "ticketed_events": "Yes", "fully_booked": "Unknown"}, "geometry": {"type": "Point", "coordinates": [-0.1531628, 51.5006179]}}, {"type": "Feature", "properties": {"name": "Argentine Ambassador's Residence ", "url": "https://openhouselondon.open-city.org.uk/listings/2060", "description": "Known as the 'Independent North Mansion' and christened by Sydney Herbert as 'Belgrave Villa' and then simply 'The Villa' by his successor the 6th Duke of Richmond. Owned by Argentina since 1936 and with sumptuous interiors still intact.", "ticketed_events": "Yes", "fully_booked": "Unknown"}, "geometry": {"type": "Point", "coordinates": [-0.1531628, 51.5006179]}}, {"type": "Feature", "properties": {"name": "The Ismaili Centre", "url": "https://openhouselondon.open-city.org.uk/listings/2063", "description": "Part of an international family of Ismaili Centres, a religious, cultural and social space for the Shia Ismaili Muslim community. The serenity of the entrance fountain to the roof garden reflects Muslim traditions in architecture and design", "ticketed_events": "No", "fully_booked": ""}, "geometry": {"type": "Point", "coordinates": [-0.1732322, 51.4956616]}}, {"type": "Feature", "properties": {"name": "The Church of Our Most Holy Redeemer", "url": "https://openhouselondon.open-city.org.uk/listings/2288", "description": "A unique II* listed Italianate church by John Dando Sedding with attached Campanile and Institute Building. Of particular significance in the church is the imposing baldacchino over the High Altar, which dominates the east end.", "ticketed_events": "No", "fully_booked": ""}, "geometry": {"type": "Point", "coordinates": [-0.1088928, 51.5258475]}}, {"type": "Feature", "properties": {"name": "The Church of Our Most Holy Redeemer", "url": "https://openhouselondon.open-city.org.uk/listings/2288", "description": "A unique II* listed Italianate church by John Dando Sedding with attached Campanile and Institute Building. Of particular significance in the church is the imposing baldacchino over the High Altar, which dominates the east end.", "ticketed_events": "No", "fully_booked": ""}, "geometry": {"type": "Point", "coordinates": [-0.1088928, 51.5258475]}}, {"type": "Feature", "properties": {"name": "St Dunstan and All Saints Church", "url": "https://openhouselondon.open-city.org.uk/listings/2497", "description": "Grade I listed early medieval parish church (from 952 before Tower of London) in spacious churchyard. Fine interior: Anglo-Saxon Rood, Norman font, 'squint', fine memorials incl founders of Trinity House, 1950s glass. Bells of Stepney.", "ticketed_events": "No", "fully_booked": ""}, "geometry": {"type": "Point", "coordinates": [-0.0416646, 51.5168842]}}, {"type": "Feature", "properties": {"name": "The City Centre", "url": "https://openhouselondon.open-city.org.uk/listings/2653", "description": "An overview of the latest developments and architecture in the City of London via the interactive 1:500 scale Pipers model that shows the future skyline with all of the proposed new towers.", "ticketed_events": "No", "fully_booked": ""}, "geometry": {"type": "Point", "coordinates": [-0.0913978, 51.5153573]}}, {"type": "Feature", "properties": {"name": "Chiswick House", "url": "https://openhouselondon.open-city.org.uk/listings/2862", "description": "One of the earliest and finest examples of Neo-Palladian design in the UK, Chiswick House is an 18C villa in west London. The 65 acres of Grade I listed gardens are the birthplace of the English Landscape Movement.", "ticketed_events": "Yes", "fully_booked": "No"}, "geometry": {"type": "Point", "coordinates": [-0.2576476, 51.4854919]}}, {"type": "Feature", "properties": {"name": "Whitehall Historic House ", "url": "https://openhouselondon.open-city.org.uk/listings/3742", "description": "Originally a farmer's house dating to 1500, with jettied upper storey. Later additions reflect the changing lifestyles of the owners, including the Killicks for over two centuries. Now houses scale model of Henry VIII's Nonsuch Palace.", "ticketed_events": "Yes", "fully_booked": "Unknown"}, "geometry": {"type": "Point", "coordinates": [-0.2171867, 51.3593955]}}, {"type": "Feature", "properties": {"name": "St George's German Lutheran Church", "url": "https://openhouselondon.open-city.org.uk/listings/3894", "description": "The oldest surviving German church in England from 1763 with unaltered Georgian interior including box pews, German memorials and wheezy German Walcker organ from 1870.", "ticketed_events": "Yes", "fully_booked": "No"}, "geometry": {"type": "Point", "coordinates": [-0.0702833, 51.5141275]}}, {"type": "Feature", "properties": {"name": "Honeywood Museum", "url": "https://openhouselondon.open-city.org.uk/listings/3939", "description": "Chalk and flint house dating to 17C with additions including extensions of 1896 and 1903 when owned by John Pattinson Kirk. Rich in period detail and the interior restored and stairs opened up with funding from the Heritage Lottery Fund.", "ticketed_events": "Yes", "fully_booked": "Unknown"}, "geometry": {"type": "Point", "coordinates": [-0.1652992, 51.3654585]}}, {"type": "Feature", "properties": {"name": "City Information Centre", "url": "https://openhouselondon.open-city.org.uk/listings/4009", "description": "London's main tourist information centre is clad in a specially manufactured system of 220 pre-finished stainless steel panels. This subtly reflective surface provides a striking counterpoint to St Paul's. RIBA Award Winner 2009.", "ticketed_events": "No", "fully_booked": ""}, "geometry": {"type": "Point", "coordinates": [-0.0988858, 51.5130959]}}, {"type": "Feature", "properties": {"name": "Silchester Estate", "url": "https://openhouselondon.open-city.org.uk/listings/5957", "description": "New development of 112 mixed tenure homes, community and retail facilities delivered by Peabody and RBKC. Designed around a communal garden and integrating an existing 20-storey tower within a new urban block. Sculpture by Nathan Coley.", "ticketed_events": "Yes", "fully_booked": "Yes"}, "geometry": {"type": "Point", "coordinates": [-0.219257, 51.5130786]}}, {"type": "Feature", "properties": {"name": "Silchester Estate", "url": "https://openhouselondon.open-city.org.uk/listings/5957", "description": "New development of 112 mixed tenure homes, community and retail facilities delivered by Peabody and RBKC. Designed around a communal garden and integrating an existing 20-storey tower within a new urban block. Sculpture by Nathan Coley.", "ticketed_events": "Yes", "fully_booked": "Yes"}, "geometry": {"type": "Point", "coordinates": [-0.219257, 51.5130786]}}, {"type": "Feature", "properties": {"name": "Silchester Estate", "url": "https://openhouselondon.open-city.org.uk/listings/5957", "description": "New development of 112 mixed tenure homes, community and retail facilities delivered by Peabody and RBKC. Designed around a communal garden and integrating an existing 20-storey tower within a new urban block. Sculpture by Nathan Coley.", "ticketed_events": "Yes", "fully_booked": "Yes"}, "geometry": {"type": "Point", "coordinates": [-0.219257, 51.5130786]}}, {"type": "Feature", "properties": {"name": "German Historical Institute", "url": "https://openhouselondon.open-city.org.uk/listings/6371", "description": "This Grade II* listed building includes an Adam-style ceiling on the 1st floor and a beautiful staircase with wrought-iron balustrade. Once home to the Pharmaceutical Society of Great Britain, it now houses an historical research institute.", "ticketed_events": "No", "fully_booked": ""}, "geometry": {"type": "Point", "coordinates": [-0.1239694, 51.5189044]}}, {"type": "Feature", "properties": {"name": "The Library at Willesden Green", "url": "https://openhouselondon.open-city.org.uk/listings/6420", "description": "A modern 4-storey building incorporating the much-loved Victorian library. The galleries and feature walls display exhibitions and contemporary art and a dramatic central atrium provides natural ventilation and daylight throughout.", "ticketed_events": "Yes", "fully_booked": "No"}, "geometry": {"type": "Point", "coordinates": [-0.2290558, 51.5469042]}}, {"type": "Feature", "properties": {"name": "Anise Gallery / AVR London ", "url": "https://openhouselondon.open-city.org.uk/listings/6446", "description": "An 1870s Zion Chapel on the Malham Road industrial Estate recently renovated into a family home. Guided tours of the Old Chapel will be available throughout the day.", "ticketed_events": "Yes", "fully_booked": "No"}, "geometry": {"type": "Point", "coordinates": [-0.0483133, 51.4431677]}}, {"type": "Feature", "properties": {"name": "Maggie's Barts", "url": "https://openhouselondon.open-city.org.uk/listings/6604", "description": "Maggie's Barts opened in December 2017. Maggie's Centres are unique, welcoming and uplifting places with qualified staff on hand to provide free practical, emotional and social support for people with cancer, their families and friends.", "ticketed_events": "Yes", "fully_booked": "Yes"}, "geometry": {"type": "Point", "coordinates": [-0.1000463, 51.517496]}}, {"type": "Feature", "properties": {"name": "SPPARC", "url": "https://openhouselondon.open-city.org.uk/listings/6850", "description": "This award-winning practice has an exciting UK & International portfolio & invites you to take part in live debates, explore its workshops, listen to talks & become part of the design process.", "ticketed_events": "Yes", "fully_booked": "No"}, "geometry": {"type": "Point", "coordinates": [-0.1316053, 51.5189903]}}, {"type": "Feature", "properties": {"name": "Sun Rain Rooms", "url": "https://openhouselondon.open-city.org.uk/listings/6853", "description": "Set in a Grade II listed Georgian townhouse, Tonkin Liu's studio has been extended. Designed and built by the practice, an innovative timber roof and reflecting pool gathers the bouncing rain, to make it a good place to be on a bad day.", "ticketed_events": "Yes", "fully_booked": "Yes"}, "geometry": {"type": "Point", "coordinates": [-0.110053, 51.5263788]}}, {"type": "Feature", "properties": {"name": "Sun Rain Rooms", "url": "https://openhouselondon.open-city.org.uk/listings/6853", "description": "Set in a Grade II listed Georgian townhouse, Tonkin Liu's studio has been extended. Designed and built by the practice, an innovative timber roof and reflecting pool gathers the bouncing rain, to make it a good place to be on a bad day.", "ticketed_events": "Yes", "fully_booked": "Yes"}, "geometry": {"type": "Point", "coordinates": [-0.110053, 51.5263788]}}, {"type": "Feature", "properties": {"name": "Sun Rain Rooms", "url": "https://openhouselondon.open-city.org.uk/listings/6853", "description": "Set in a Grade II listed Georgian townhouse, Tonkin Liu's studio has been extended. Designed and built by the practice, an innovative timber roof and reflecting pool gathers the bouncing rain, to make it a good place to be on a bad day.", "ticketed_events": "Yes", "fully_booked": "Yes"}, "geometry": {"type": "Point", "coordinates": [-0.110053, 51.5263788]}}, {"type": "Feature", "properties": {"name": "Foundry Co-Working Hub", "url": "https://openhouselondon.open-city.org.uk/listings/7448", "description": "Cullinan Studio converted this Victorian warehouse into their low-energy office in 2012, retaining 80% of the existing building fabric. The Foundry co-working hub is now home to several organisations working in the built environment.", "ticketed_events": "Yes", "fully_booked": "Yes"}, "geometry": {"type": "Point", "coordinates": [-0.0961593, 51.5333343]}}, {"type": "Feature", "properties": {"name": "Foundry Co-Working Hub", "url": "https://openhouselondon.open-city.org.uk/listings/7448", "description": "Cullinan Studio converted this Victorian warehouse into their low-energy office in 2012, retaining 80% of the existing building fabric. The Foundry co-working hub is now home to several organisations working in the built environment.", "ticketed_events": "Yes", "fully_booked": "Yes"}, "geometry": {"type": "Point", "coordinates": [-0.0961593, 51.5333343]}}, {"type": "Feature", "properties": {"name": "Foundry Co-Working Hub", "url": "https://openhouselondon.open-city.org.uk/listings/7448", "description": "Cullinan Studio converted this Victorian warehouse into their low-energy office in 2012, retaining 80% of the existing building fabric. The Foundry co-working hub is now home to several organisations working in the built environment.", "ticketed_events": "Yes", "fully_booked": "Yes"}, "geometry": {"type": "Point", "coordinates": [-0.0961593, 51.5333343]}}, {"type": "Feature", "properties": {"name": "Estorick Collection of Modern Italian Art ", "url": "https://openhouselondon.open-city.org.uk/listings/7787", "description": "The Estorick Collection is housed in a beautiful Georgian building previously known as Northampton Lodge. Today, the museum comprises six galleries over three floors, as well as a library, offices, a caf\u00e9 and bookshop.", "ticketed_events": "Yes", "fully_booked": "Yes"}, "geometry": {"type": "Point", "coordinates": [-0.0998909, 51.5439931]}}, {"type": "Feature", "properties": {"name": "King's Cross Masterplan", "url": "https://openhouselondon.open-city.org.uk/listings/7788", "description": "The King\u2019s Cross Masterplan established a framework for the incremental redevelopment of this industrial heritage site through a mix of uses and a network of public spaces structuring new urban blocks and knitting the site into its context.", "ticketed_events": "Yes", "fully_booked": "Yes"}, "geometry": {"type": "Point", "coordinates": [-0.1253363, 51.536507]}}, {"type": "Feature", "properties": {"name": "Olympic Legacy Masterplan", "url": "https://openhouselondon.open-city.org.uk/listings/7789", "description": "London\u2019s 2012 Games provided a catalyst for regeneration in the Lower Lea Valley. Guided by the Legacy Masterplan, thousands of new homes and jobs are now being created, stitching together existing communities across the former floodplain.", "ticketed_events": "Yes", "fully_booked": "Yes"}, "geometry": {"type": "Point", "coordinates": [-0.0097731, 51.5414752]}}, {"type": "Feature", "properties": {"name": "100 Liverpool Street", "url": "https://openhouselondon.open-city.org.uk/listings/8278", "description": "Undergoing major redevelopment, 100 Liverpool Street  provides a positive working environment of 433,000 sq ft of bright and airy office space, 90,000 sq ft of of new shops and restaurants across three levels,.", "ticketed_events": "Yes", "fully_booked": "Yes"}, "geometry": {"type": "Point", "coordinates": [-0.0830936, 51.5183046]}}, {"type": "Feature", "properties": {"name": "100 Liverpool Street", "url": "https://openhouselondon.open-city.org.uk/listings/8278", "description": "Undergoing major redevelopment, 100 Liverpool Street  provides a positive working environment of 433,000 sq ft of bright and airy office space, 90,000 sq ft of of new shops and restaurants across three levels,.", "ticketed_events": "Yes", "fully_booked": "Yes"}, "geometry": {"type": "Point", "coordinates": [-0.0830936, 51.5183046]}}, {"type": "Feature", "properties": {"name": "100 Liverpool Street", "url": "https://openhouselondon.open-city.org.uk/listings/8278", "description": "Undergoing major redevelopment, 100 Liverpool Street  provides a positive working environment of 433,000 sq ft of bright and airy office space, 90,000 sq ft of of new shops and restaurants across three levels,.", "ticketed_events": "Yes", "fully_booked": "Yes"}, "geometry": {"type": "Point", "coordinates": [-0.0830936, 51.5183046]}}, {"type": "Feature", "properties": {"name": "PEER ", "url": "https://openhouselondon.open-city.org.uk/listings/8360", "description": "PEER is a gallery with a 10-metre wide glass fa\u00e7ade, bringing art straight onto the street. With its community garden, and Chris Ofili's 'Black Hands' outdoor clock, PEER is also a welcoming and open public space.", "ticketed_events": "Yes", "fully_booked": "No"}, "geometry": {"type": "Point", "coordinates": [-0.0804329, 51.5297245]}}, {"type": "Feature", "properties": {"name": "All Hallows Twickenham", "url": "https://openhouselondon.open-city.org.uk/listings/8725", "description": "All Hallows is a Grade I Listed building with an interesting history. Built by Sir Christopher Wren in Lombard Street, London. The tower, bells, cloister and many furnishings were moved to Twickenham in 1939 as the building had subsidence.", "ticketed_events": "No", "fully_booked": ""}, "geometry": {"type": "Point", "coordinates": [-0.3348228, 51.4538781]}}, {"type": "Feature", "properties": {"name": "Museum of Neoliberalism", "url": "https://openhouselondon.open-city.org.uk/listings/8739", "description": "The museum is situated in a shopfront in Leegate Shopping Centre, which has been described by the Evening Standard as \"the worst shopping precinct in the country.\"", "ticketed_events": "Yes", "fully_booked": "Unknown"}, "geometry": {"type": "Point", "coordinates": [0.0122701, 51.4560516]}}, {"type": "Feature", "properties": {"name": "West Hendon Masterplan", "url": "https://openhouselondon.open-city.org.uk/listings/8775", "description": "The West Hendon masterplan has been developed in order to regenerate a 1960s housing estate adjacent to the Welsh Harp reservoir. It incorporates affordable housing, new public parks, primary school, community centre and commercial space.", "ticketed_events": "Yes", "fully_booked": "Yes"}, "geometry": {"type": "Point", "coordinates": [-0.2392682, 51.5772325]}}, {"type": "Feature", "properties": {"name": "Kingston School of Art", "url": "https://openhouselondon.open-city.org.uk/listings/8791", "description": "Haworth Tompkins have delivered a transformative overhaul of Kingston University\u2019s Knights Park Campus to provide over 10,000 sqm of refurbished creative space for Kingston School of Art.", "ticketed_events": "Yes", "fully_booked": "No"}, "geometry": {"type": "Point", "coordinates": [-0.3078384, 51.4063084]}}, {"type": "Feature", "properties": {"name": "Kingston School of Art", "url": "https://openhouselondon.open-city.org.uk/listings/8791", "description": "Haworth Tompkins have delivered a transformative overhaul of Kingston University\u2019s Knights Park Campus to provide over 10,000 sqm of refurbished creative space for Kingston School of Art.", "ticketed_events": "Yes", "fully_booked": "No"}, "geometry": {"type": "Point", "coordinates": [-0.3078384, 51.4063084]}}, {"type": "Feature", "properties": {"name": "Kingston School of Art", "url": "https://openhouselondon.open-city.org.uk/listings/8791", "description": "Haworth Tompkins have delivered a transformative overhaul of Kingston University\u2019s Knights Park Campus to provide over 10,000 sqm of refurbished creative space for Kingston School of Art.", "ticketed_events": "Yes", "fully_booked": "No"}, "geometry": {"type": "Point", "coordinates": [-0.3078384, 51.4063084]}}, {"type": "Feature", "properties": {"name": "Alderman Jones House", "url": "https://openhouselondon.open-city.org.uk/listings/8952", "description": "Becontree Estate two storey cottage house with garden located on a banjo.", "ticketed_events": "Yes", "fully_booked": "No"}, "geometry": {"type": "Point", "coordinates": [0.1326619, 51.5499898]}}, {"type": "Feature", "properties": {"name": "Reliance Arcade", "url": "https://openhouselondon.open-city.org.uk/listings/9043", "description": "Reliance Arcade is a Grade II Listed covered market in Brixton, London.  The Arcade was constructed in the 1920s and is home to 40 small retail units catering largely to local African-Caribbean communities.", "ticketed_events": "No", "fully_booked": ""}, "geometry": {"type": "Point", "coordinates": [-0.1131814, 51.462185]}}, {"type": "Feature", "properties": {"name": "Soho tour by SODA Studio", "url": "https://openhouselondon.open-city.org.uk/listings/9210", "description": "SODA Studio will lead two tours of Soho by day and by night to explore both historic and contemporary buildings that they know and love, which help create the modern 'village' we know today.", "ticketed_events": "Yes", "fully_booked": "Yes"}, "geometry": {"type": "Point", "coordinates": [-0.1340543, 51.5126804]}}, {"type": "Feature", "properties": {"name": "Virtual TOUR \u2013 The Saints and the City of London ", "url": "https://openhouselondon.open-city.org.uk/listings/9322", "description": "Virtual tour will use a variety of saints to access many of the religious sites of City of London", "ticketed_events": "Yes", "fully_booked": "Yes"}, "geometry": {"type": "Point", "coordinates": [-0.0677747, 51.5105908]}}, {"type": "Feature", "properties": {"name": "Slavery and the City ", "url": "https://openhouselondon.open-city.org.uk/listings/9344", "description": "We will explore sites and institutions with direct links to the history of slavery and hear why the apologies were made last year, whilst wandering within the story packed streets and alleyways of the Square Mile.", "ticketed_events": "Yes", "fully_booked": "Unknown"}, "geometry": {"type": "Point", "coordinates": [-0.097557, 51.5148819]}}, {"type": "Feature", "properties": {"name": "Flow Gallery", "url": "https://openhouselondon.open-city.org.uk/listings/9595", "description": "The interior of the building was redesigned in 2014 by John Pardey  to combine a craft gallery with a live work space for the gallery owner. Inspired by Kettle's Yard Flow space exhibits ceramics, glass, wood, textiles and jewellery.", "ticketed_events": "Yes", "fully_booked": "No"}, "geometry": {"type": "Point", "coordinates": [-0.197374, 51.5150985]}}, {"type": "Feature", "properties": {"name": "National Youth Theatre", "url": "https://openhouselondon.open-city.org.uk/listings/9812", "description": "Completed in Summer 2021, the National Youth Theatre has been redeveloped to double its capacity for studio space and was designed with young people, for young people. Recipient of the Mayor of London's Good Growth Fund.", "ticketed_events": "Yes", "fully_booked": "Unknown"}, "geometry": {"type": "Point", "coordinates": [-0.1224606, 51.5591868]}}, {"type": "Feature", "properties": {"name": "National Youth Theatre", "url": "https://openhouselondon.open-city.org.uk/listings/9812", "description": "Completed in Summer 2021, the National Youth Theatre has been redeveloped to double its capacity for studio space and was designed with young people, for young people. Recipient of the Mayor of London's Good Growth Fund.", "ticketed_events": "Yes", "fully_booked": "Unknown"}, "geometry": {"type": "Point", "coordinates": [-0.1224606, 51.5591868]}}, {"type": "Feature", "properties": {"name": "National Youth Theatre", "url": "https://openhouselondon.open-city.org.uk/listings/9812", "description": "Completed in Summer 2021, the National Youth Theatre has been redeveloped to double its capacity for studio space and was designed with young people, for young people. Recipient of the Mayor of London's Good Growth Fund.", "ticketed_events": "Yes", "fully_booked": "Unknown"}, "geometry": {"type": "Point", "coordinates": [-0.1224606, 51.5591868]}}, {"type": "Feature", "properties": {"name": "Hyde Park Chapel", "url": "https://openhouselondon.open-city.org.uk/listings/9987", "description": "The four-story Church fa\u00e7ade and prominent seven-story tower is covered in Portland stone and highlighted by a golden steeple. The interior features the Christus statue and a large mural of the resurrected Jesus Christ.", "ticketed_events": "No", "fully_booked": ""}, "geometry": {"type": "Point", "coordinates": [-0.1734914, 51.4977708]}}, {"type": "Feature", "properties": {"name": "St Bride's Church, Fleet Street ", "url": "https://openhouselondon.open-city.org.uk/listings/10035", "description": "Wren designed building of 1675, interior lost in blitz of 1940, reopened 1957 with 'Wren inspired' interior", "ticketed_events": "No", "fully_booked": ""}, "geometry": {"type": "Point", "coordinates": [-0.105574, 51.5137707]}}, {"type": "Feature", "properties": {"name": "St Bride's Church, Fleet Street ", "url": "https://openhouselondon.open-city.org.uk/listings/10035", "description": "Wren designed building of 1675, interior lost in blitz of 1940, reopened 1957 with 'Wren inspired' interior", "ticketed_events": "No", "fully_booked": ""}, "geometry": {"type": "Point", "coordinates": [-0.105574, 51.5137707]}}, {"type": "Feature", "properties": {"name": "Ripple Greenway and the Lost Words Art Trail", "url": "https://openhouselondon.open-city.org.uk/listings/10191", "description": "Ripple Greenway is a beautiful 14-acre linear park and art trail.  Home to Katy Hallett\u2019s steel sculptures, inspired by Robert Macfarlane\u2019s and Jackie Morris\u2019 The Lost Words.\r\nWooden play and exercise equipment, picnic tables and benches.", "ticketed_events": "Yes", "fully_booked": "No"}, "geometry": {"type": "Point", "coordinates": [0.1038885, 51.5279424]}}, {"type": "Feature", "properties": {"name": "Stuart Shave Modern Art Gallery", "url": "https://openhouselondon.open-city.org.uk/listings/10211", "description": "Modern art gallery refurbished and restored in 2020 by architect Giles Reid. The gallery comprises two floors, plus a staff office used for private viewing. Rooms are unified by minimal detailing, traditional joinery and parquet.", "ticketed_events": "No", "fully_booked": ""}, "geometry": {"type": "Point", "coordinates": [-0.1390185, 51.5072198]}}, {"type": "Feature", "properties": {"name": "Expressway", "url": "https://openhouselondon.open-city.org.uk/listings/10234", "description": "Expressway is already the chosen home for nearly 200 thriving businesses that support an around 1,100 jobs. Covering over 120,000 sqft of cost-effective office, light industrial & storage space all located under the Silvertown Way flyover.", "ticketed_events": "Yes", "fully_booked": "Yes"}, "geometry": {"type": "Point", "coordinates": [0.0164793, 51.505699]}}, {"type": "Feature", "properties": {"name": "Enfield To Fork - Edmonton Green Shopping Centre", "url": "https://openhouselondon.open-city.org.uk/listings/10236", "description": "The Museum of Enfield is this year bringing its temporary exhibition to you! \u201cFrom Enfield to Fork\u201d explores the borough\u2019s history and relationship with food, from Roman Enfield to Market Gardening.", "ticketed_events": "Yes", "fully_booked": "No"}, "geometry": {"type": "Point", "coordinates": [-0.0578985, 51.6241568]}}, {"type": "Feature", "properties": {"name": "The Former Peek Frean\u2019s Biscuit Factory, Bermondsey", "url": "https://openhouselondon.open-city.org.uk/listings/10243", "description": "Part of the former Peek Frean\u2019s Biscuit Factory, the birthplace of Twiglets and the Garibaldi, this 1970s warehouse is now at the heart of a new community for Bermondsey.", "ticketed_events": "Yes", "fully_booked": "Unknown"}, "geometry": {"type": "Point", "coordinates": [-0.0621258, 51.4944916]}}, {"type": "Feature", "properties": {"name": "Nunnery Gallery", "url": "https://openhouselondon.open-city.org.uk/listings/10254", "description": "In 1868 the Dominican sisters established a convent in the heart of the East End. Today, the Nunnery Gallery maintains some of its original neo-gothic features, and original hardwood floor and hosts a programme of site-responsive art.", "ticketed_events": "No", "fully_booked": ""}, "geometry": {"type": "Point", "coordinates": [-0.0166699, 51.5291891]}}, {"type": "Feature", "properties": {"name": "38 Grosvenor Square", "url": "https://openhouselondon.open-city.org.uk/listings/10266", "description": "A beautiful Mayfair town house c 1727 original to the Square. Transformed 1776 by John Johnson for Duke of Dorset; magnificent staircase, lavish \u2018Adamesque\u2019 entertaining suite. Mid-C19 Italianate front by Thomas Cundy.", "ticketed_events": "Yes", "fully_booked": "Yes"}, "geometry": {"type": "Point", "coordinates": [-0.1515592, 51.5105161]}}, {"type": "Feature", "properties": {"name": "38 Grosvenor Square", "url": "https://openhouselondon.open-city.org.uk/listings/10266", "description": "A beautiful Mayfair town house c 1727 original to the Square. Transformed 1776 by John Johnson for Duke of Dorset; magnificent staircase, lavish \u2018Adamesque\u2019 entertaining suite. Mid-C19 Italianate front by Thomas Cundy.", "ticketed_events": "Yes", "fully_booked": "Yes"}, "geometry": {"type": "Point", "coordinates": [-0.1515592, 51.5105161]}}, {"type": "Feature", "properties": {"name": "38 Grosvenor Square", "url": "https://openhouselondon.open-city.org.uk/listings/10266", "description": "A beautiful Mayfair town house c 1727 original to the Square. Transformed 1776 by John Johnson for Duke of Dorset; magnificent staircase, lavish \u2018Adamesque\u2019 entertaining suite. Mid-C19 Italianate front by Thomas Cundy.", "ticketed_events": "Yes", "fully_booked": "Yes"}, "geometry": {"type": "Point", "coordinates": [-0.1515592, 51.5105161]}}, {"type": "Feature", "properties": {"name": "Dreamings collage art exhibition", "url": "https://openhouselondon.open-city.org.uk/listings/10275", "description": "A collage art exhibition. Every day except Monday and Tuesday. A talk \"Why Collage?\" on Sunday evening at 7, followed by a Q&A and an art raffle for charity", "ticketed_events": "No", "fully_booked": ""}, "geometry": {"type": "Point", "coordinates": [-0.3046688, 51.4882787]}}, {"type": "Feature", "properties": {"name": "Studio Flox", "url": "https://openhouselondon.open-city.org.uk/listings/10281", "description": "Studio Flox at Watermans Art Centre is a combined arts centre. It is located in Brentford, England alongside the banks of the River Thames overlooking Kew Gardens in West London, England", "ticketed_events": "No", "fully_booked": ""}, "geometry": {"type": "Point", "coordinates": [-0.2987655, 51.4856009]}}, {"type": "Feature", "properties": {"name": "Tooley Street Beacon", "url": "https://openhouselondon.open-city.org.uk/listings/10290", "description": "The Tooley Street Beacon, complete with large floor map of the local area, is a new and striking landmark at the Tooley Street Triangle, creating a new public square (or triangle) outside the main entrance to London Bridge station.", "ticketed_events": "Yes", "fully_booked": "No"}, "geometry": {"type": "Point", "coordinates": [-0.086753, 51.5058213]}}, {"type": "Feature", "properties": {"name": "Tooley Street Beacon", "url": "https://openhouselondon.open-city.org.uk/listings/10290", "description": "The Tooley Street Beacon, complete with large floor map of the local area, is a new and striking landmark at the Tooley Street Triangle, creating a new public square (or triangle) outside the main entrance to London Bridge station.", "ticketed_events": "Yes", "fully_booked": "No"}, "geometry": {"type": "Point", "coordinates": [-0.086753, 51.5058213]}}, {"type": "Feature", "properties": {"name": "Tooley Street Beacon", "url": "https://openhouselondon.open-city.org.uk/listings/10290", "description": "The Tooley Street Beacon, complete with large floor map of the local area, is a new and striking landmark at the Tooley Street Triangle, creating a new public square (or triangle) outside the main entrance to London Bridge station.", "ticketed_events": "Yes", "fully_booked": "No"}, "geometry": {"type": "Point", "coordinates": [-0.086753, 51.5058213]}}, {"type": "Feature", "properties": {"name": "Self-guided Old Malden Walk", "url": "https://openhouselondon.open-city.org.uk/listings/10292", "description": "The walk is around Old Malden and covers residential developments within the district. Different styles of suburban architecture includes a selection of modernist housing. There are also historic buildings and other places of interest.", "ticketed_events": "No", "fully_booked": ""}, "geometry": {"type": "Point", "coordinates": [-0.2622807, 51.3846475]}}, {"type": "Feature", "properties": {"name": "The Steamship Project Space ", "url": "https://openhouselondon.open-city.org.uk/listings/10305", "description": "With a sculpture garden, performance art in the attic and live music in the bowels of The Steamship, built in the heart of Docklands 1885, the resident artists show how the area has transformed and how they've transformed the former pub.", "ticketed_events": "Yes", "fully_booked": "No"}, "geometry": {"type": "Point", "coordinates": [-0.005648, 51.509052]}}, {"type": "Feature", "properties": {"name": "The Steamship Project Space ", "url": "https://openhouselondon.open-city.org.uk/listings/10305", "description": "With a sculpture garden, performance art in the attic and live music in the bowels of The Steamship, built in the heart of Docklands 1885, the resident artists show how the area has transformed and how they've transformed the former pub.", "ticketed_events": "Yes", "fully_booked": "No"}, "geometry": {"type": "Point", "coordinates": [-0.005648, 51.509052]}}, {"type": "Feature", "properties": {"name": "The Steamship Project Space ", "url": "https://openhouselondon.open-city.org.uk/listings/10305", "description": "With a sculpture garden, performance art in the attic and live music in the bowels of The Steamship, built in the heart of Docklands 1885, the resident artists show how the area has transformed and how they've transformed the former pub.", "ticketed_events": "Yes", "fully_booked": "No"}, "geometry": {"type": "Point", "coordinates": [-0.005648, 51.509052]}}, {"type": "Feature", "properties": {"name": "Gareth Gardner Gallery", "url": "https://openhouselondon.open-city.org.uk/listings/10318", "description": "Gareth Gardner Gallery is a small gallery space in Deptford, showing photography of architecture and the built environment. The fit-out was designed by architect Studio C102 and its industrial style was inspired by art gallery warehouses.", "ticketed_events": "No", "fully_booked": ""}, "geometry": {"type": "Point", "coordinates": [-0.0246217, 51.4784669]}}, {"type": "Feature", "properties": {"name": "Wellbeing Walk: South Kensington", "url": "https://openhouselondon.open-city.org.uk/listings/10382", "description": "Our walking tour takes inspiration from the streets of South Kensington to explore practical ways to support wellbeing and find pools of calm in the midst of London's buzz and bustle.", "ticketed_events": "Yes", "fully_booked": "Yes"}, "geometry": {"type": "Point", "coordinates": [-0.1741449, 51.4945337]}}, {"type": "Feature", "properties": {"name": "ShedX: Baking Ideas, Tolworth Station", "url": "https://openhouselondon.open-city.org.uk/listings/10388", "description": "A meanwhile project developed by The Community Brain as a hub for activities exploring rewilding, access to local green space, and other initiatives including a new community farm. Shortlisted for the Open City Stewardship Awards 2021.", "ticketed_events": "No", "fully_booked": ""}, "geometry": {"type": "Point", "coordinates": [-0.2794336, 51.3771754]}}, {"type": "Feature", "properties": {"name": "ShedX: Baking Ideas, Tolworth Station", "url": "https://openhouselondon.open-city.org.uk/listings/10388", "description": "A meanwhile project developed by The Community Brain as a hub for activities exploring rewilding, access to local green space, and other initiatives including a new community farm. Shortlisted for the Open City Stewardship Awards 2021.", "ticketed_events": "No", "fully_booked": ""}, "geometry": {"type": "Point", "coordinates": [-0.2794336, 51.3771754]}}, {"type": "Feature", "properties": {"name": "Scene change: Lost and hidden East West End theatres", "url": "https://openhouselondon.open-city.org.uk/listings/10408", "description": "This walking tour will explore a variety of spaces and places, vanished sites and hidden venues, from priory remains to the site of former indoor tennis courts, and following the movement of the westward expansion of the capital.", "ticketed_events": "Yes", "fully_booked": "Yes"}, "geometry": {"type": "Point", "coordinates": [-0.1036766, 51.5121434]}}, {"type": "Feature", "properties": {"name": "Montagu Evans 11th and 12th Floors", "url": "https://openhouselondon.open-city.org.uk/listings/10425", "description": "Montagu Evans LLP Head office, situated on floors 11 & 12 within 70 St Mary Axe - nicknamed the Can Of Ham. Montagu Evans offices house up to 220 colleagues onsite who work within the property management business.", "ticketed_events": "Yes", "fully_booked": "Yes"}, "geometry": {"type": "Point", "coordinates": [-0.0794339, 51.5152857]}}]}