name,url,description,address,latitude,longitude,start_time,end_time,ticketed_events,fully_booked
1 Halliwick Road,https://programme.openhouse.org.uk/listings/8767,"A low energy refurbishment of an Edwardian house, with rear extension and loft conversion. Wood fibre insulation, MVHR, airtightness layer, triple glazing, timber structure and low embodied energy materials.","1 Halliwick Road, N10 1AA",51.60121,-0.14843,10:00:00,17:00:00,No,
1 Quality Court,https://programme.openhouse.org.uk/listings/10593,"Entry to 1 Quality Court is an alley with Victorian tiles and is now built over by a modern building with Tudor accents.
The court was built up around 1700 .
1 Quality Court was originally the Patent Office .","1 Quality Court, , Chancery Lane, WC2A 1HR",51.5167278,-0.1123123,12:00:00,16:00:00,No,
130 Drayton Park,https://programme.openhouse.org.uk/listings/12763,"Upper maisonette remodelled to create a spacious top floor open-plan living space. Bespoke kitchen, dining and lounge furniture. Full height doors and a Dougls Fir stair screen","130 Drayton Park, N5 1LX",51.55634,-0.10561,10:00:00,14:00:00,No,
23 Sedgeford Road,https://programme.openhouse.org.uk/listings/10304,"Come and see our CARBON NEUTRAL TERRACED HOUSE. Find out about our retrofit solar, batteries and air source heat pump installation. Double glazing, 20% increase in radiator size and roof / loft insulation. Flat roof and north facing roof all contribute.  Heat pump is ultra quiet and our old house is very warm in the depths of winter. Electricity bills still lower than gas.","23 Sedgeford Rd, Shepherds Bush, W12 0NA",51.5089903,-0.2445241,10:30:00,17:00:00,Yes,No
6 Moretown (Gensler London Studio),https://programme.openhouse.org.uk/listings/10591,"A contemporary adaptation of a 1980s office building, and home of global design firm Gensler. Each level of the building is connected by a structural timber facade and set of stairs, and the new 5th floor cantilevers from the roof.","6 Moretown, Tower Hamlets, E1W 1YW",51.50782,-0.06809,10:00:00,16:30:00,Yes,No
"8 Stoneleigh Terrace (Highgate New Town, Stage 1)",https://programme.openhouse.org.uk/listings/689,"Built during the golden era of Camden public housing under Borough Architect Sydney Cook. Peter Tábori  studied with Ernő Goldfinger and worked with Denys Lasdun, and met Ken Adie when both were students at the Regent Street Polytechnic.","8 Stoneleigh Terrace, N19 5TY",51.565,-0.14171,14:00:00,17:30:00,Yes,No
81 Columbia Road,https://programme.openhouse.org.uk/listings/12567,Step into the historic charm of 81 Columbia Road Flower Market in East London.  This iconic Victorian terraced house functions as a space for a local artist who has focussed on photographs of London architecture and life.,"81 Columbia Road, E2 7RG",51.5297,-0.0691,10:00:00,17:00:00,No,
A House for Artists,https://programme.openhouse.org.uk/listings/7861,"A House for Artists is an ambitious project, designed to provide subsidised, sustainable long-term housing for artists; who in exchange offer free civic and cultural engagement for communities in Barking Town Centre. Co-commissioned by Create London and London Borough of Barking & Dagenham, this project has received supported from the Mayor of London.","36 Linton Rd, Barking, IG11 8SE",51.53976280000001,0.07782059999999999,11:00:00,17:40:00,Yes,Yes
A walk in Peckham's Aylesham Centre --- past and future,https://programme.openhouse.org.uk/listings/12597,"Find out more about Peckham's Aylesham Community Action group's work, get a sense of our neighbourhood's character on a walk with locals and discuss our campaigns against attempts for insensitive overdevelopments in our area.
We want to engage with built environment enthusiasts and together find some answers to London's critical questions : ‘What it takes to build or destroy a community?'","10 Rye Lane, SE15 5BT",51.47274,-0.06987,12:00:00,19:00:00,Yes,No
Acland Burghley School,https://programme.openhouse.org.uk/listings/2882,"An important example of 1960s comprehensive school design in the Brutalist style. Acland Burghley has recently received support from the National Lottery Heritage Fund for its ambitious ‘A Hall for All’ project and have welcomed in a resident orchestra, the Orchestra of the Age of Enlightenment in a collaborative partnership which is a UK-first.","93 Burghley Road, NW5 1UJ",51.5573971,-0.1396506,10:00:00,16:00:00,No,
Acme Propeller Factory,https://programme.openhouse.org.uk/listings/12565,"Acme Propeller Factory on Childers Street in Deptford is a 1920’s former ship propeller foundry. It has been home to artists since 1990. Currently, its 70,492 square feet of studio space is divided into 135 studio units, with 180 artists working in them over four floors.

The building is also home to The Acme Archive, the Acme Window Gallery and our public community and engagement space.","165 Childers Street, Deptford, SE8 5JR",51.4824,-0.03517,11:00:00,16:00:00,Yes,No
Aga Khan Centre,https://programme.openhouse.org.uk/listings/7273,"The Aga Khan Centre, designed by Pritzker prize winning architect Fumihiko Maki, houses the UK institutions of the Aga Khan Development Network. A unique feature are its six gardens inspired by different regions of the Muslim world.","Aga Khan Centre, 10 Handyside Street, N1C 4DN",51.5375703,-0.1248016,10:00:00,17:00:00,Yes,Yes
Alexandra Road Estate Flat 85B (Rowley Way),https://programme.openhouse.org.uk/listings/12110,"Visit a recently refurbished apartment of Neave Brown’s Alexandra Road Estate in Camden. This is a 3 bed maisonette flat, lower ground and ground floor levels on block B along the pedestrian Rowley Way.","85b Rowley Way, NW8 0SN",51.5404,-0.18237,14:00:00,17:00:00,Yes,Yes
Alfies Antique Market,https://programme.openhouse.org.uk/listings/12830,Alfies Antique Market is London's largest indoor antique and vintage market. The market celebrates 90 dealers who each boast uniquely sourced antique and vintage items.,"13-25 Church Street, NW8 8DT",51.52418,-0.16881,10:00:00,18:00:00,No,
Alice Billing House,https://programme.openhouse.org.uk/listings/12503,"Alice Billing House is one of Newham’s most historic buildings located on Stratford’s High Street. The building is made up of two blocks, one of which is a Grade II listed building, built in 1905-6 as firefighter’s accommodation for the West Ham Fire Brigade. Opening in January 2024, the South Block has now been converted into artist studios and is now home to over 25 artists.","Alice Billing House, 2-12 West Ham Lane, Stratford, E15 4SF",51.53997,0.00184,11:00:00,16:00:00,No,
All Saints Church,https://programme.openhouse.org.uk/listings/11192,"Historical connections
Vice Admiral Fitzroy /Charles Darwin/Crystal Palace Great Exhibition
(Grave within Church grounds),
Isambard Kingdom Brunel,
Felix Mendelssohn, Marie Tussauds to name but a few. 
Famous artist Camille Pissarro painted local scenes .","All Saints Church, Church Road, SE19 3EP",51.4111215,-0.08613599999999999,10:30:00,16:30:00,No,
Allies and Morrison Open Studio,https://programme.openhouse.org.uk/listings/2223,"Three buildings - one concrete, one Victorian, one timber - have been designed, adapted, restored and extended by Allies and Morrison to create the compact, integrated campus of studio space that the practice calls home.","85 Southwark Street, SE1 0HX",51.50562,-0.09962,10:00:00,17:00:00,No,
Angel Yard,https://programme.openhouse.org.uk/listings/11846,"Enfield Council and Jan Kattein Architects have transformed a set of derelict garages 
in Angel Edmonton into warm, generous, affordable spaces for community and 
young enterprise.","34 Snells Park, N18 2FD",51.6101568,-0.0676401,11:00:00,16:00:00,No,
Appleby Blue,https://programme.openhouse.org.uk/listings/12655,"Appleby Blue  is a a contemporary social housing project reimagining the almshouse. Designed by Stirling Prize-winning architects Witherford Watson Mann for United St Saviour's Charity and located in Bermondsey, this innovative development offers 57 almshouses for residents aged 65+, fostering intergenerational connections and promoting community-centric urban living.","Appleby Blue Almshouse, 94-116 Southwark Park Rd, SE16 3RD",51.4925,-0.06923,10:00:00,14:00:00,Yes,Yes
Architect's Studio - Richard Griffiths Architects,https://programme.openhouse.org.uk/listings/12762,Richard Griffiths Architects is a multi-award winning practice specializing in the Heritage Conservation of old buildings and new build within an historic context.  The practice is opening the office to people who are interested to learn more about our work and projects.  There will be also presentations from specialists in the field of conservation throughout the day.,"6 Queen Square, Bloomsbury, WC1N 3AT",51.52149,-0.12272,11:00:00,17:00:00,No,
Architectural Walk in Brockley,https://programme.openhouse.org.uk/listings/12711,"Brockley Conservation Area's High Victorian enclave holds many interesting houses in a variety of styles, including Edwardian domestic architecture, historic trees and original lanes and mews. These have survived into the 21st century almost intact. Houses built in the 1950s and 1960s indicate WWII bomb damage and add to the area's variety and history.","War Memorial, Lewisham Way, SE4 1SX",51.47099,-0.03007,11:00:00,12:15:00,Yes,Yes
Arding & Hobbs,https://programme.openhouse.org.uk/listings/12386,"Built at the turn of the twentieth century, Arding & Hobbs is a department store whose civic presence had been eroded by unsympathetic additions and failing tenants. Our refurbishment returns it to its former place in the community, removing a 1970s canopy, restoring old features – clock tower, barrel vaults and stained-glass dome – and adding new, in the form of a CLT-framed roof pavilion.","10 St John's Road, SW11 1PN",51.46356,-0.16768,10:00:00,12:00:00,Yes,Yes
Argentine Ambassador's Residence,https://programme.openhouse.org.uk/listings/2060,"During the Open House Festival people will have the unique opportunity to explore the historic mansion that is the home of the Argentine Embassy in the UK. Opening its doors on this special occasion, visitors will enjoy unprecedented access to the home of Argentineans in the UK and explore a glimpse of our culture through an art exposition of different Argentine artists.","49 Belgrave Square, SW1X 8QZ",51.50055039999999,-0.1531897,13:00:00,17:00:00,Yes,No
Armourers' Hall,https://programme.openhouse.org.uk/listings/12459,"Late Georgian Livery Hall rebuilt in 1839. Highlights include the main Hall, featuring a stunning 1870s lantern ceiling, and displays of historic arms and armour throughout the building.","Armourers' Hall, 81 Coleman Street, EC2R 5BJ",51.51719,-0.08936,10:30:00,17:15:00,Yes,Yes
Armstrong Audio,https://programme.openhouse.org.uk/listings/12718,"Take a tour of Armstrong Audio with engineers and owners, T & Shalma. Learn about its rich history dating back to 1932 when the company was established as 'Armstrong Wireless & Television Ltd.'. and began manufacturing public address systems, radios and televisions for public use in WWII.","Armstrong Audio, 32A Blackhorse Lane, E17 6HJ",51.588,-0.03993,09:00:00,15:00:00,No,
Art and architecture in Thamesmead,https://programme.openhouse.org.uk/listings/12774,"On the surface Thamesmead might seem concrete and grey, but on this tour we will take a look at the colour and life local artists that are breathing into the area. Examining the past and present, we'll explore the abbey ruins, exciting sculptures, concrete skywalks, and vivid murals that make this place the Town of Tomorrow.","Outside the upper concourse of Abbey Wood Station, 513 Abbey Wood Rd",51.49115,0.12163,14:00:00,16:00:00,Yes,Yes
Art in Perpetuity Trust,https://programme.openhouse.org.uk/listings/11049,"Open Studios, provides a unique glimpse to the architectural spaces and working studios of APT artists.  Over the weekend, there is also the opportunity to see our Group Show in the Gallery, curated by and featuring APT artist's work.","6 Creekdside, Harold Wharf, SE8 4SA",51.47652069999999,-0.0210711,12:00:00,17:00:00,No,
Audio-Described & Touch Tour of Rewind Exhibition,https://programme.openhouse.org.uk/listings/12793,Visitors are invited to a descriptive tour of the Rewind: This is Croydon's Music.,"Croydon Clocktower, Katharine St, CR9 1ET",51.37226,-0.09939,10:00:00,11:00:00,Yes,No
BT Tower,https://programme.openhouse.org.uk/listings/2735,"An enduring, distinctive feature of the London skyline for the last 54 years, this is a rare opportunity for members of the public to visit the famous revolving floor, 158m above the capital. After the flight the guests can watch a history of the BT Tower film in our auditorium.","45 Maple Street, W1T 4BG",51.5215779,-0.1396211,09:30:00,19:15:00,Yes,Yes
Bakers' Hall,https://programme.openhouse.org.uk/listings/12656,"There has been a Bakers' Hall on our current site since 1505.  The current incarnation dates from 1964, and is a unique collaboration of old and new.

The hall was originally designed by Trehearne and Norman, Preston and Partners in conjunction with Past Master William Newcome- Wright) and is the first of the post-war [World War II] livery halls in a Modernist idiom.","Bakers Hall, 7 Harp Lane, EC3R 6DP",51.50933,-0.08145,10:00:00,15:00:00,No,
Bank of England Museum,https://programme.openhouse.org.uk/listings/2027,The museum is part of the Bank of England rebuilding in the 1930's by Sir Herbert Baker. One room is a reconstruction of 1793 Bank of England Stock Office by Sir John Soane.,"Bartholomew Lane, EC2R 8AH",51.51426,-0.08752,11:00:00,15:30:00,No,
Bartholomew Fair,https://programme.openhouse.org.uk/listings/12884,It began with wool and ended in wildness. This tour with a City Guide will uncover 800 years of history and happenings associated with the incident-packed Bartholomew Fair.,"Smithfield Market, Outside Grand Avenue entrance on Long Lane",51.51902,-0.10107,11:00:00,15:15:00,Yes,Yes
Beaks and Boroughs: nature in London,https://programme.openhouse.org.uk/listings/12904,"London is the ultimate urban sprawl. But hiding among the buildings and cars there are an estimated eight million trees. So who else do we share our city with? Do you have a neighbourhood goose? Are there really seals in the River Thames? 

Join Lucy Brown from wildlife conservation charity ZSL on a journey through London's wild alter-ego, via the parks and waterways of Camden and Westminster.","The Good Life Eatery, 1 St John's Wood High St, NW8 7NG",51.53223,-0.16943,14:00:00,16:30:00,Yes,Yes
Beck Road Studios: Artist Open Studios & Exhibitions,https://programme.openhouse.org.uk/listings/11954,"Visit Beck Road Studios for an artist open studios event for the chance to explore 12 hidden studios in a unique railway arch. Meet the artists in person and discover their work, including painters, sculptors, filmmakers, architect, motion graphic designer. furniture  restorers, and an ethical vintage clothing label.","343-344 Arches, Beck Road, E8 4RE",51.53687,-0.05795,12:00:00,19:00:00,No,
Belsham Street studios,https://programme.openhouse.org.uk/listings/11998,"See behind the scenes of SPACE's studio buildings that are not usually open to the public. Discover work by some of the UK’s top artists, from internationally acclaimed names to new and emerging talent.","Belsham Street, E9 6NG",51.54605,-0.05194,12:00:00,17:00:00,No,
Berwick Street Market,https://programme.openhouse.org.uk/listings/12937,"Come and join us to explore this historic market and its evolution.   View images of it's historic past and its part in bringing us such exotic items as tomatoes, olive oil and grapefruit.  Take a photograph from the same spot to recreate Oasis's iconic What's the story? (Morning Glory)  album cover.  Information point and advice on exploring other Soho Open House locations and events.","Berwick Street Market, W1F 0PH",51.5129,-0.1343,12:00:00,18:00:00,No,
Bethlehem Chapel Richmond upon Thames,https://programme.openhouse.org.uk/listings/8264,"An independent Calvinistic chapel on the east side of Church Terrace in Richmond, London. Built in 1797, the small 1-storey stuccoed building is Grade II* listed. It still has its original galleried interior with pews and pulpit.","Bethlehem Chapel, Church Terrace, Richmond upon Thames , TW10 6SE",51.45909,-0.30364,10:00:00,15:30:00,No,
Beyond Beck Road (part III) 'TIME' 24',https://programme.openhouse.org.uk/listings/8270,"Join us this year at 'TIME' '24 for an assemblage of workshops and creative out-reach projects, communicating through artistic expression the notion of time and place in gesture and performance through drawing, painting, portraiture, sculpture, poetry, photography and film, capturing individuality, in the street, and beyond, to sow the seeds of a new time.","Beck Road, Hackney, E8 4RE",51.53684,-0.05696,12:00:00,22:00:00,No,
Billingsgate Roman House & Baths,https://programme.openhouse.org.uk/listings/5296,"Some of London's best Roman remains, comprising late 2C house with a 3C bath house built within its courtyard. First discovered in 1848.","101 Lower Thames Street, EC3R 6DL",51.5092887,-0.08305119999999999,11:00:00,13:45:00,Yes,Yes
Black & White Building,https://programme.openhouse.org.uk/listings/11948,"The Black and White Building (2023) is London's tallest, fully engineered timber office building. Located in the heart of Shoreditch, the building is characterized by its integrity to material, formal simplicity, and adaptable layout. Built from renewable materials and designed to be almost completely demountable, the building sets a powerful precedent for the future of sustainable architecture.","74 Rivington Street, EC2A 3AY",51.52603,-0.07904,12:00:00,16:30:00,No,
Blackheath Quaker Meeting House,https://programme.openhouse.org.uk/listings/4022,"""A brutalist jewel"", the meeting house was designed to fit in with older buildings in the conservation area and make the most of its split-level site. 
It is a small 1970s concrete building with a raised lantern, designed by Trevor Dannatt, who worked on the Royal Festival Hall.   
Grade ll Listed for its original design, it is used for Quaker worship and by community groups.","Lawn Terrace, Blackheath, SE3 9LL",51.4650118,0.007056300000000001,10:00:00,16:00:00,No,
Blackhorse Lane Ateliers,https://programme.openhouse.org.uk/listings/12715,"Blackhorse Lane Ateliers is London's only craft jeans maker. Based within a tastefully renovated 1920s factory building in Walthamstow. Join us for a behind-the-scenes tour where you will get to see the factory in operation. Find out about our methods of production, the equipment, tools and materials we work with and meet some of our team.","114b Blackhorse Lane, E17 6AA",51.59142,-0.0395,10:00:00,12:00:00,No,
Blackhorse Workshop,https://programme.openhouse.org.uk/listings/6882,"A makerspace offering open access to a fully equipped wood and metal workshop with bench space, tools and machinery. Includes education space, community café and 40 studios for creative businesses. Blackhorse Workshop is celebrating its 10th birthday in 2024.","Blackhorse Workshop, 1-2 Sutherland Road Path, E17 6BX",51.59183840000001,-0.03902129999999999,10:00:00,17:00:00,No,
Blockmakers Arms,https://programme.openhouse.org.uk/listings/12707,Visit a secluded urban courtyard forming part of the transformation of a Grade II listed former pub,"133 Shepherdess Walk, N1 7QA",51.53329,-0.09386,11:00:00,18:00:00,No,
Boston Manor House,https://programme.openhouse.org.uk/listings/10142,"Boston Manor House is a Jacobean House built for Lady Mary Reade in 1623 and later owned by the Clitherow family from the 1670s until the 1920s. The House is now open to the public with free entry six days a week. Its beautifully restored historic interiors, including breath-taking ornate plasterwork, are joined by two community exhibition galleries, meeting rooms and an attractive modern café.","Boston Manor House, Boston Manor Road, Brentford, TW8 9JX",51.49191829999999,-0.3183739,15:00:00,16:00:00,Yes,Yes
Brady Arts and Community Centre,https://programme.openhouse.org.uk/listings/11669,"The Brady Arts & Community Centre is on Hanbury St, just off Brick Lane in a busy & creative part of East London. It opened in 1935 as the Brady Jewish Girls Club and in 1960 the Boys Club joined The Brady.  We are holding our open day on Saturday 21st  September.  Come and find out about the Brady Centre's history and take part in drop in arts activities.","192-196 Hanbury Street, Tower Hamlets, E1 5HU",51.5196189,-0.0654358,12:00:00,16:00:00,Yes,No
Brent Museum,https://programme.openhouse.org.uk/listings/12231,"We have been collecting objects about the history of Brent for over 50 years. Visitors can find out about an Eiffel tower in Wembley, why you might make a pilgrimage to Willesden and what the Victorian streets of Brent were really like.","Brent Museum, The Library at Willesden Green – second floor",51.547,-0.22904,10:30:00,17:00:00,No,
Brentford Canal Toll House and Gauging Lock,https://programme.openhouse.org.uk/listings/6146,Single-storey canal toll house (1911) where tolls were collected for passing through the lock. Grand Junction Canal connected the Thames at Brentford to the Industrial Midlands in 1794 at the height of the industrial revolution.,"Grand Union Canal Walk, Brentford, TW8 8GA",51.48297,-0.3119,10:30:00,16:00:00,No,
Brentham Garden Suburb,https://programme.openhouse.org.uk/listings/2571,"Britain's first co-partnership garden suburb, first houses built 1901. Parker and Unwin's plan introduced 1907, mainly Arts and Crafts style; fascinating social history.","The Brentham Club, 38 Meadvale Road, W5 1NP",51.5287856,-0.309085,10:30:00,12:30:00,Yes,No
Brick Sixty Studio,https://programme.openhouse.org.uk/listings/12504,"A rare chance to see inside a Grade II listed brick-arched studio on Pancras Road.
Now home to Brick Sixty, who design and make products in the form of the much-loved London brick.
Built from 1895-1898, this pointed-arch arcade is one of the last surviving structures of the former Midland Railway Company coal depot, originally erected as offices and coal trading stores.","Brick Sixty, 141 Pancras Road, NW1 1UN",51.53375,-0.12931,10:00:00,18:00:00,No,
Broadwater Farm Estate - Murals and Mosaics Tour,https://programme.openhouse.org.uk/listings/12744,"Join us for a walking tour of the large-scale murals and Grade II listed mosaic mural  on Broadwater Farm Estate, commissioned in the 1980s in the wake of riots on the estate. Visit the mosaic restoration facility on the estate to hear from conservation professionals, get up close to local community art, see restoration techniques and learn about the history and future of the mosaic mural.","Broadwater Farm Community Centre, Adams Rd, N17 6HG",51.59564,-0.08439,10:30:00,16:00:00,Yes,No
Bromley Archives- Bromley Central Library,https://programme.openhouse.org.uk/listings/11775,"Join us for a guided tour of Bromley Archives. With access to the archive store, typically closed to the public, visitors will get a behind the scenes look at the collection and service.","Bromley Historic Collections, Bromley Central Library, High Street",51.4036023,0.0147679,10:00:00,16:45:00,Yes,Yes
Bromley Little Theatre,https://programme.openhouse.org.uk/listings/8913,Bromley Little Theatre (BLT) has an 113-seat auditorium that was originally a Victorian bakery and stables built in 1888. The  first production was in December 1937.,"Bromley Little Theatre , North St",51.4077287,0.0159893,10:00:00,16:00:00,No,
Bromley and Sheppard's College,https://programme.openhouse.org.uk/listings/555,"Founded to house the widows of clergymen, the original building consisted of 20 houses built around a classically-styled quadrangle. Captain Richard Ryder – one of Sir Christopher Wren's surveyors – was in charge of design and construction.","London Road (entrance via Wren Gates, no vehicle entry), Bromley",51.408,0.01227,10:00:00,16:00:00,Yes,Yes
Bruce Castle Museum,https://programme.openhouse.org.uk/listings/2728,"Tudor Manor House built for Sir William Compton in 1514, substantially altered in 17C, 18C & 19C. A museum since 1906 housing local history and community collections, archives, art & exhibitions of Bruce Castle, and Haringey area.","Lordship Lane, Tottenham, N17 8NU",51.59914939999999,-0.0754686,12:00:00,16:30:00,No,
Bullers Wood School for Girls,https://programme.openhouse.org.uk/listings/2740,"Typical mid-Victorian stucco-fronted house built on a grassy hillside, extended in 1888 by Ernest Newton with William Morris redesigning the interiors. The library, formerly drawing room, has a unique William Morris hand-painted ceiling.
The school itself has a range of older and newer buildings, including Inglewood House. The grounds will be open during the Open House festival.","St Nicolas Lane, Chislehurst, BR7 5LJ",51.4082358,0.0449388,10:30:00,14:00:00,No,
Burlington House: Linnean Society of London,https://programme.openhouse.org.uk/listings/2074,"The world's oldest active biological society. Founded in 1788, the Society takes its name from the Swedish naturalist Carl Linnaeus whose botanical, zoological and library collections have been in its keeping since 1829.","Piccadilly, W1J 0BF",51.50844,-0.13897,10:00:00,17:00:00,No,
Burlington House: Royal Academy of Arts,https://programme.openhouse.org.uk/listings/1513,"Visit hidden spaces not usually open to the public, including the newly restored Royal Academy Schools and the original residence of the RA's 'Keeper'.","Piccadilly, W1J 0BD",51.50914,-0.13962,10:00:00,18:00:00,Yes,No
Burlington House: Royal Astronomical Society,https://programme.openhouse.org.uk/listings/4496,"The Royal Astronomical Society (RAS) moved into Burlington House 150 years ago in 1874. Part of the extension to Burlington House to provide accommodation for learned societies, the building was refurbished in 2007. The RAS is the oldest astronomical society in the world and has been encouraging and promoting the study of astronomy and geophysics since 1820.","Piccadilly, W1J 0BQ",51.5082999,-0.139365,10:00:00,16:55:00,Yes,No
Burlington House: Royal Society of Chemistry,https://programme.openhouse.org.uk/listings/3091,"Experience the history, architecture and science of the East Wing of Burlington House, home to the Royal Society of Chemistry. Part of the quadrangle extension to Burlington House, it was purpose built for the learned society.","Piccadilly, W1J 0BA",51.50893,-0.1391903,10:00:00,16:40:00,Yes,No
Burlington House: Society of Antiquaries of London,https://programme.openhouse.org.uk/listings/1651,"The Society of Antiquaries of London has been exploring the material past since the early eighteenth century. This year we celebrate 150 years of residence in the purpose-built grade II* listed apartments in Burlington House, with its grand galleried library and varied collections. Today's membership of 3000 Fellows are leading experts in archaeology, history, art, architecture, and heritage.","Burlington House, Piccadilly, W1J 0BE",51.50846,-0.13894,10:00:00,16:00:00,Yes,No
Burlington House: The Geological Society of London,https://programme.openhouse.org.uk/listings/4938,"Home to the oldest geological society in the world, founded in 1807. The Society has been based at Burlington House since 1874, and now has over 12,000 members worldwide.","Piccadilly, W1J 0BG",51.50869,-0.13875,10:00:00,17:00:00,No,
Caledonian Park: Clock Tower Tours,https://programme.openhouse.org.uk/listings/2764,"The Caledonian Clock Tower was opened in 1855 as centrepiece of the Metropolitan Cattle Market. Standing at a height of 45 metres, the Clock Tower offers stunning panoramic views over London.  The clock's mechanism was made by John Moore of Clerkenwell and its bells by the Whitechapel Foundry. The Clock Tower has been renovated with help from the Heritage Lottery Fund.","Cally Clock Tower Centre, Market Road, N7 9HF",51.54731,-0.12344,11:00:00,16:00:00,Yes,No
Capisco Metal Patination Workshop,https://programme.openhouse.org.uk/listings/12827,Join us and learn more about the ancient art of patination. Celebrate 35 years of Capisco by delving into our sample archive and a gallery of our projects. Our master patination technicians will also be on hand to demonstrate some classic techniques.,"1 Period Works, 1 Lammas Road, E10 7QT",51.56584,-0.0363,12:00:00,18:00:00,No,
Carpenters' Hall,https://programme.openhouse.org.uk/listings/2808,"Livery Hall first built in 1429, much altered then demolished and rebuilt in 1880, destroyed in 1941 except for external walls (W W Pocock). Designed as a showpiece for the craft of carpentry, the third Hall on the site.","1 Throgmorton Avenue, EC2N 2JJ",51.51667,-0.086,10:00:00,16:00:00,No,
"Centre of the Cell and Neuron Pod, Queen Mary University of London",https://programme.openhouse.org.uk/listings/3216,"Neuron Pod is a striking 23-metre long and 10-metre high free-standing structure – designed as an extension to Centre of the Cell, an informal science learning centre at Queen Mary University of London’s Whitechapel campus.","4 Newark Street, E1 2AT",51.51693,-0.06156,11:00:00,16:00:00,No,
Christ Church,https://programme.openhouse.org.uk/listings/2462,"Grade II* listed church with ragstone tower, spire, good stained glass by Kempe and recently restored William Hill organ. A characteristic work of Scott. It is Gothic Revival in the style of the 13C.","Wanstead Place, E11 2SW",51.57762,0.02428,10:30:00,16:00:00,No,
"Christ Church Community Centre, Highbury",https://programme.openhouse.org.uk/listings/12531,"The Community Centre at Christ Church Highbury, Islington N5, close to Highbury Fields, was designed by Matthew Lloyd Architects, and was completed in 2022. The centre was designed in close consultation with the church and local people and provides accessible, high quality, flexible spaces, church offices and a cafe, enabling the church to better meet and serve the local community.","Christ Church, 159 Highbury Grove, N5 1SA",51.55249,-0.09875,11:00:00,16:00:00,Yes,No
Christ Church Southgate and the Minchenden Oak Garden,https://programme.openhouse.org.uk/listings/5128,Grade II listed church with fine collection of Pre-Raphaelite stained glass windows by Morris & Co. including Burne Jones and Rossetti. Wall paintings. Mosaic reredos. Minchenden Oak  - ancient pollarded oak more than 800 years old.,"Waterfall Road , Southgate, N14 7EG",51.62454,-0.12852,10:00:00,16:30:00,No,
Church of St Andrew the Apostle,https://programme.openhouse.org.uk/listings/11908,St Andrew's is a Grade II* listed building by Philip Appleby Robson (1871–1951). It boasts a magnificent Arts and Crafts interior with rich wood carvings in the chancel and magnificent stained-glass windows by Martin Travers (1886–1948) and Lawrence Stanley Lee (1909–2011).,"Sandhurst Road, Catford, SE6 1XD",51.44193,-0.00156,10:00:00,17:00:00,No,
Church of the Annunciation,https://programme.openhouse.org.uk/listings/2469,"Fine Victorian church with large mosaic and painted reredos, screen and wall paintings and some unusual glass. Arts and crafts decoration by Nathaniel Westlake and Salviati Bros.","High Street, Chislehurst, BR7 5AQ",51.41915,0.06696,10:00:00,16:00:00,No,
City Information Centre,https://programme.openhouse.org.uk/listings/4009,London's main tourist information centre is clad in a specially manufactured system of 220 pre-finished stainless steel panels. The subtly reflective surface provides a striking counterpoint to St Paul's.,"St Paul's Churchyard, EC4M 8BX",51.5131,-0.09886,09:30:00,17:30:00,No,
Climpson & Sons Coffee Roastery,https://programme.openhouse.org.uk/listings/12766,Step inside the Climpson & Son's Coffee Roastery and see the inner workings of where your favourite coffee gets sourced and roasted.,"Unit 2 & 3 Argall Works, 7-9 Argall Avenue, E10 7QE",51.5703,-0.0387,11:00:00,14:45:00,Yes,Yes
Cockpit Studios Deptford,https://programme.openhouse.org.uk/listings/12534,"A transformative project to open up Cockpit for the benefit its makers and the local community. Our proposal for the redevelopment of Cockpit’s studio building in Deptford was supported by the Mayor of London’s Good Growth Fund and the Stride partnership. Completed in early summer 2024, the project makes Cockpit more publicly accessible and creates new workshop and studio space for makers.","18-22 Creekside, Deptford, SE8 3DZ",51.47851,-0.02064,10:00:00,13:00:00,Yes,Yes
Cody Dock - Lea Way Celebration,https://programme.openhouse.org.uk/listings/11858,"Our event will focus on celebrating the rich heritage of Cody Dock, one of the last remaining brick-lined docks in London.  Our one-day festival will provide exciting opportunities to explore the lesser-known history of the Lower Lea Valley","11c South Crescent, E16 4TL",51.51929,-0.00173,11:00:00,19:00:00,No,
Cooper House,https://programme.openhouse.org.uk/listings/12499,"In response to the evolving needs of sustainable living, especially in the wake of the pandemic, the project challenges conventional spatial dynamics. A two-storey wooden structure with a pitched roof redefines the interplay between ground and upper levels, resulting in an expansive, airy ambience that promotes creativity and versatility.","2A King's Road, N17 8NP",51.60142,-0.0696,11:00:00,16:00:00,Yes,No
Coopers' Hall,https://programme.openhouse.org.uk/listings/8446,"Coopers' Hall is a late 17th century, timber-framed merchant's house with a Georgian frontage. A Livery Hall since 1957, it features a fine Courtoom, dining room and an impressive staircase spiralling up the entire height of the building. The building displays artefacts of the coopers' trade (the making of wooden casks such as barrels) and is the home of the Worshipful Company of Coopers","13 Devonshire Square, EC2M 4TH",51.5168,-0.07922,10:00:00,16:00:00,No,
Costa's Barbers,https://programme.openhouse.org.uk/listings/12545,"A high street shop, recently converted into a home with a continued, strengthened and adaptable relationship to its street - allowing the former shop floor to be used for commercial or public purposes when desired. Currently occupied as both home and architecture studio, the project was collaboratively self-built by its designers.","165 Battersea High Street, SW11 3JS",51.47061,-0.17206,10:00:00,15:00:00,Yes,No
Creative Connections at The Art Workers’ Guild,https://programme.openhouse.org.uk/listings/2003,1713 terraced house with 1914 hall at rear. Notable renovated Arts and Crafts interior. Newly refurbished glass vaulted courtyard. Portraits of Guild Masters since 1884.,"6 Queen Square, WC1N 3AT",51.5214982,-0.1227227,11:00:00,17:00:00,Yes,No
Crofton Roman Villa,https://programme.openhouse.org.uk/listings/2969,Remains of ten rooms of a masonry Roman villa-house with evidence of opus signinum and tessellated floors. Details of channelled and pillared hypocaust systems. The Villa was the centre of a farming estate of about 500 acres.,"Crofton Road, Orpington, BR6 8AF",51.37287,0.08791,10:00:00,16:00:00,No,
Croydon Central Library,https://programme.openhouse.org.uk/listings/12556,A series of events celebrating Croydon's Central Library building and its unique design. Croydon's first central library was moved to the Clocktower buildings when they first opened in May 1896. It was one of the first public libraries with open access shelves and offered one of the UK's first Children’s Libraries.,"Croydon Clocktower, Central Library, 9 Katharine Street, Croydon",51.37226,-0.09939,09:00:00,17:00:00,Yes,No
Croydon Minster,https://programme.openhouse.org.uk/listings/8724,Medieval style church rebuilt by Sir George Gilbert Scott after 1867 fire. Tower & south porch are 15C. Large nave with open timber-work roof leads to chancel dominated by superb stained glass window & rich alabaster reredos.,"Church Street, Croydon, CR0 1RN",51.37271,-0.10608,11:00:00,14:30:00,Yes,No
Croydon Unlocked,https://programme.openhouse.org.uk/listings/12590,"Photographer Rachel Adams has been commissioned to create an exhibition capturing Croydon's iconic architecture & portraits of the people who look after these buildings, such as cleaners, concierge, security guards. The exhibition will be held here, at the Croydon Clocktower atrium & also at the Croydon Urban Room, located in the Whitgift Shopping Centre. For more information on visiting this exhibition at the Croydon Urban Room, head here: https://programme.openhouse.org.uk/listings/12687","Croydon Clocktower, 9 Katharine Street, CR0 1NX",51.37226,-0.09939,09:00:00,17:00:00,No,
Croydon Urban Room,https://programme.openhouse.org.uk/listings/12687,"The Croydon Urban Room is a space to talk about the past, present and future of the Croydon town centre. Through conversa­tions, stories, exhibitions and events, the Urban Room brings together the views of those who live, work and visit the area to create a shared vision of the future and test new uses live in action.","Units 161-162 & 1161-1162 Whitgift Centre, CR0 1UQ",51.37522,-0.10075,10:00:00,17:00:00,No,
Crystal Palace Park Dinosaurs  – a tour with a London Blue Badge Tourist Guide,https://programme.openhouse.org.uk/listings/9374,"Explore the world's first dinosaur models hidden in a south London park. The 30 Grade I listed, life-size statues of dinosaurs and other extinct animals at Crystal Palace Park have thrilled
visitors for 166 years. Tour is kids friendly.","Crystal Palace Overground station, Crystal Palace Overground station",51.41811000000001,-0.07257999999999999,11:00:00,13:00:00,Yes,Yes
Crystal Palace Subway,https://programme.openhouse.org.uk/listings/12086,"It is with great delight that we announce the completion of Phase 1 of the major restoration project to the historic Grade II* listed Crystal Palace Subway.

A new roof over the East Courtyard and extensive repairs to the walls, floor, steps and entrances can be explored.

Entry is free and this is a self-led visit. There is no need to pre-book. Please note last entry is 13:30.","Crystal Palace Parade, Crystal Palace, SE19 2BA",51.42209,-0.07729,10:00:00,14:00:00,No,
DEEP SPACE,https://programme.openhouse.org.uk/listings/11665,"New build live/ work unit, unique architecture in a quiet mews in Brockley.","DEEP SPACE, 4 Ashby Mews, SE4 1TB",51.46807,-0.0323,12:00:00,17:00:00,No,
Dalston Eastern Curve Garden,https://programme.openhouse.org.uk/listings/5006,A vital community garden offering a model for maximum good for communities and for the environment on a small urban plot. It is now a site of Local Importance for Nature Conservation. Winner of an Open City Stewardship Award 2021.,"13 Dalston Lane, E8 3DF",51.5469316,-0.0733723,12:30:00,17:00:00,No,
"De Lane Lea Studios, 75 Dean Street",https://programme.openhouse.org.uk/listings/12611,"Soho is a unique neighbourhood of creativity and diversity. Join us at the former Warner Brothers De Lane Lea studio at 75 Dean Street, home of the Museum of Soho and the Westminster LGBT+ Forum. Explore an exhibition of Soho's creativity and enjoy Soho short films in our cinema.","75 Dean St, Soho, W1D 3PU",51.51381,-0.13307,12:00:00,18:00:00,No,
Deborah House studios,https://programme.openhouse.org.uk/listings/11999,"See behind the scenes of working studios that are not usually open to the public. Discover work by some of the UK’s top artists, from internationally acclaimed names to new and emerging talent.","Retreat Place, E9 6RJ",51.54521,-0.04935,12:00:00,17:00:00,No,
Devil’s Botany Distillery,https://programme.openhouse.org.uk/listings/12755,Enter the world of the curious with a special meet the maker open day at the UK's first ever Absinthe Distillery. Learn about the origins and rituals of this once illicit liquor from distiller and co-founder Rhys Everett.,"16a Heybridge Way, Leyton, E10 7NQ",51.56937,-0.03101,12:00:00,15:00:00,No,
Distinctly Mayfair walking tour,https://programme.openhouse.org.uk/listings/12789,"Explore twenty first century architecture in one of London's most luxurious and historic neighbourhoods. This walking tour covers Mayfair's new contemporary developments, discovering architectural treasures, hidden gems and buildings that are designed for our changing climate.","Meet outside 6 Bolton Street, W1J 8BA",51.50689,-0.14387,10:30:00,12:30:00,Yes,Yes
"Don't Move, Improve! - Flitch Cottage",https://programme.openhouse.org.uk/listings/12576,"A low-key, light-infused, beautiful transformation of a dark Victorian terrace in Walthamstow. 

Whittaker Parsons architecture studio has remodelled and extended the cottage, creating a bright contemporary home overlooking Ian Turkington's prairie garden.

The project was shortlisted for this year's Don't Move Improve Awards.","96 Beulah Road, E17 9LE",51.58028,-0.00996,11:00:00,15:00:00,No,
"Don't Move, Improve! - Triangle House",https://programme.openhouse.org.uk/listings/12670,"Winner of the 2024 'Don't Move Improve' award for best project under £100k A self build 38m2 triangular micro home converted from a former mechanic's garage,  creating a flexible and multifunctional home fit for living and working in.  Come and see sliding beds, triangular sofas and a pocket garden.","1a Glastonbury Street, NW6 1QJ",51.55031,-0.19943,14:00:00,16:30:00,Yes,Yes
"Don't Move, Improve! - Two-up Two-down House",https://programme.openhouse.org.uk/listings/11034,"The Two-Up Two-Down house is architectural practice Khan Bonshek's self build home, and winner of the Don't Move Improve 2024 Transformation Award. The house is a reworking of a mid terrace, using imaginative spatial devices to maximise the limited floor area. Double height volumes, exposed structure and the blurring of rooms combine to introduce light and create the illusion of space.","5 Maryland Park, Stratford, E15 1HB",51.54699840000001,0.0073969,10:00:00,17:00:00,No,
Dorich House Museum,https://programme.openhouse.org.uk/listings/271,"The former studio home of the sculptor Dora Gordine and her husband the Hon. Richard Hare, a scholar of Russian art and literature. 1930s house over four floors including a flat roof terrace and views of Richmond Park.","Dorich House Museum, 67 Kingston Vale, SW15 3RN",51.4333564,-0.2630588,11:00:00,17:00:00,No,
Dr Johnson's House,https://programme.openhouse.org.uk/listings/275,"Fine example of an early 5-floor Queen Anne town house with original panelling, open staircase and unique 'swinging panels' on the open-plan first floor. Johnson compiled his famous 'Dictionary of the English Language' (1755)  here.","17 Gough Square, EC4A 3DE",51.5150637,-0.1081791,11:00:00,17:00:00,No,
Drama Studio London,https://programme.openhouse.org.uk/listings/12759,"This world-renowned actor training school took up residence in Grange Court in 1969.
Grange Court is the heart of DSL (Drama Studio London). It's a large Victorian house and home to acting studios, a theatre, a sound studio, a library, costume wardrobe, prop store and a small secluded garden.","1 Grange Road, W5 5QN",51.50942,-0.30497,10:00:00,14:00:00,No,
Drapers' Hall,https://programme.openhouse.org.uk/listings/276,"Livery hall first built in the 1530s, twice destroyed by fire and rebuilt (1666 & 1772). Late 19C facade and opulent Victorian interior.","Throgmorton Street, EC2N 2AN",51.51523,-0.08637,11:00:00,16:00:00,No,
Eames Fine Art,https://programme.openhouse.org.uk/listings/12193,"A great example of the rich evolution of London’s buildings; from noxious leather treatment warehouse complete with sloping floors, winch poles and loading platforms to a stylish hidden Art Collector’s Studio in the space of 150 years.","54-58 Tanner Street, SE1 3PH",51.49991,-0.07823,11:00:00,17:30:00,Yes,No
East London Chapels & Churches Walk,https://programme.openhouse.org.uk/listings/12785,"A walk visiting 5 historic chapels and churches in Tower Hamlets.
Saturday 21 Sept, meeting at 9.55am.","Outside the Yurt Cafe, St Katherine's Precinct, 2 Butcher Row",51.51212,-0.04109,09:55:00,12:00:00,Yes,Yes
Eastbury Manor House,https://programme.openhouse.org.uk/listings/304,"Architecturally distinguished and well-preserved, brick-built, Elizabethan Grade I listed manor house. Contains 17C wall-paintings, wood panelling, a charming walled garden and a fine Tudor turret. Many original features have been restored.","Eastbury Manor House, Eastbury Square, Barking, IG11 9SN",51.5343105,0.0995563,10:00:00,17:00:00,No,
Eastcote Walking Tour,https://programme.openhouse.org.uk/listings/11816,"Discover the fascinating history of Eastcote and its surroundings, focused on how the landscape has changed, from the exclusively agricultural area to the today's modern suburb, revealing some of the oldest local buildings and their stories","Eastcote Station, Field End Road, Pinner, HA5 1QZ",51.57655,-0.39714,11:00:00,13:00:00,Yes,Yes
Edith Neville Primary School and Children's Centre,https://programme.openhouse.org.uk/listings/12162,"Come inside Hayhurst & Co’s intricate, light-filled building, bursting with architectural ideas and extraordinary spatial events to hear how it’s rooted in a coherent educational ethos – and empathy with young children.","174 Ossulston Street, NW1 1DN",51.5328,-0.13117,10:00:00,13:00:00,No,
Empire City walking tour,https://programme.openhouse.org.uk/listings/12616,"A walk through the City of London from the Thames (at the pool of London) up to Lloyds of London, site of the former HQ of the East India Company, looking at buildings and architecture built during the time of British Empire.","Old Billingsgate Walk, EC3R 6DX",51.50847,-0.08371,14:00:00,15:30:00,Yes,Yes
English National Ballet,https://programme.openhouse.org.uk/listings/8261,"English National Ballet bring world-class dance to the widest possible audience, and invite you into their home, the Mulryan Centre for Dance. Book for a free tour to go behind the scenes with architecture firm Howells, attend an Insights Session with ENB Artists and get up close to some beautiful ballet costumes created by our wardrobe department.","English National Ballet, 41 Hopewell Square, E14 0SY",51.5129037,0.0061236,10:00:00,17:00:00,Yes,No
Estorick Collection of Modern Italian Art,https://programme.openhouse.org.uk/listings/7787,"The Estorick Collection is housed in a beautiful Georgian building previously known as Northampton Lodge. Today, the museum comprises six galleries over three floors, as well as a library, offices, a café and bookshop.","39a Canonbury Square, N1 2AN",51.5439433,-0.1003491,11:00:00,17:30:00,Yes,Yes
Explore the authentically recreated Colony Room,https://programme.openhouse.org.uk/listings/12933,"A revival and love letter to London’s lost bohemia..   Travel back in time to the legendary haunt of some of Soho's greatest creatives.   Featuring pictures, press cuttings and even the piano from the much loved private members club.","4 Heddon Street, W1B 4BS",51.51092,-0.13932,15:00:00,23:00:00,No,
Exploring Spring Grove Isleworth,https://programme.openhouse.org.uk/listings/9032,"Centred on Spring Grove House, once Sir Joseph Banks home the 1850s vision was for John Taylor Jnr designed grand villas.  Today's  wider architecture includes a former college by John Norton & P Massey plus quirky arts & crafts properties.","Forecourt, Isleworth Railway Station, London Road, Isleworth, TW7 4BX",51.47476,-0.33689,14:30:00,16:00:00,Yes,Yes
Farmers and Fletchers' Hall,https://programme.openhouse.org.uk/listings/12679,"Farmers and Fletchers' Hall is one of the 44 Livery Halls in the City of London.  The Hall is the home to both the Worshipful Company of Fletchers, an ancient Livery Company and the Farmers, a modern Livery Company.  The  Worshipful Company of Fletchers will open it's doors to show members of the public some of the modern work of the Fletchers Livery, it's traditions and heritage.","3 Cloth St, London, EC1A 7LD",51.51981,-0.09798,10:00:00,15:30:00,Yes,No
Former Church of St Saviour,https://programme.openhouse.org.uk/listings/10594,"High church, Arts & Craft, Grade I listed for its painted walls and beautiful mosaics. 

Designed and built by William White.

The childhood church of John Betjeman. Commemorated in his poem “St Saviours”.

Golden mosaic works by Venetian artist Antonio Salviati.

The current artists caretaking the building will be present together with some of their work.","aberdeen park, highbury, N5 2AR",51.55188,-0.09388,11:00:00,18:00:00,No,
Found(ation),https://programme.openhouse.org.uk/listings/12247,"A “pretty” foundation is displayed within a future, fictional archaeological site that reveals the condition of London’s soil. 

The Antepavillion 2024 brings you into the ground to look at our building culture through the eyes of future archaeologists, and adds a sculpture to a collection of found artefacts to question how much design care we put into what is hidden below the ground.","105 Page’s Walk, SE1 4HD",51.49298,-0.08269,11:00:00,17:00:00,No,
Founders' Hall,https://programme.openhouse.org.uk/listings/8396,"Founders' Hall boasts a unique blend of neo-Vernacular, Arts and Crafts, and Post-Modern styles. Its exterior features distinctive gabled bays, terracotta panels, and metal grilles, while the interior showcases a ceremonial staircase, ornate parlour, and a livery hall illuminated by impressive œil de bœuf windows, creating an exceptional fusion of architectural elements.","Founders' Hall, 1 Cloth Fair, EC1A 7JQ",51.5192561,-0.0990206,10:00:00,16:00:00,No,
Four Corners,https://programme.openhouse.org.uk/listings/4215,"Refurbished extended building, a centre for film and photography. Central courtyard integrated 'hub' allows light and air to filter through. Loft conversion to create studio and work space. Sustainable features include sedum roof.","121 Roman Road, E2 0QN",51.52875179999999,-0.0488433,10:30:00,17:30:00,No,
Frederick W Paine Funeral Directors,https://programme.openhouse.org.uk/listings/6971,The town's oldest firm of funeral directors has conducted funerals from these premises since 1908. The original interior is Grade II listed. The building also contains the Frederick W Paine Museum and the firm's archive.,"24 Old London Road, Kingston upon Thames, KT2 6QG",51.41078,-0.29994,10:00:00,16:00:00,No,
From Forest to Morris: A walk around Walthamstow,https://programme.openhouse.org.uk/listings/11296,"A walk around historic Walthamstow showing how this unique area grew from a village into a thriving suburb, its social history and the variety of buildings that can be found where Epping Forest meets William Morris.",Outside Costa Coffee at Walthamstow Central Station 5 Station Approac,51.5828202,-0.0194102,11:00:00,13:00:00,Yes,Yes
From Prejudice to Pride,https://programme.openhouse.org.uk/listings/12883,Join a City Guide to explore the stories of queer monarchs; the Cathedral convenience; erotic theatre; cross-dressers and find out what Henry VIII had to do with it all.,Blackfriars tube station (north side),51.51173,-0.10384,14:00:00,15:15:00,Yes,Yes
Fruit to Fashion: how a kitchen garden became a world famous piazza,https://programme.openhouse.org.uk/listings/11313,"This year marks the 50th anniversary when the wholesale market ceased trading and moved to Battersea/Vauxhall area . The tour charts the evolution of Covent Garden, incorporating the piazza, the wholesale produce market, social residential areas and supporting neighbourhoods, and highlighting the social and commercial highs, lows and challenges.
Contact tonyganio@gmail.com","20 Southampton Street, WC2E 7QH",51.51146319999999,-0.1224538,10:00:00,12:30:00,Yes,Yes
Furnishing Futures Open Studio: Meet the charity,https://programme.openhouse.org.uk/listings/12750,"Discover the work of innovative charity Furnishing Futures, which partners with the interiors industry to create trauma-informed healing homes for families given empty social housing after escaping domestic abuse. Enjoy a tour of our warehouse and studio, meet our team and learn about sustainability in interiors and the impact of trauma-informed design for recovery.","Unit 4, 11 Argall Avenue, E10 7QE",51.57017,-0.03906,10:00:00,16:00:00,No,
Future Heritage: Contemporary Architecture in Hackney,https://programme.openhouse.org.uk/listings/12712,"Discover Hackney’s exemplary contemporary residential projects on this inspiring walk through the Broadway Market and Graham Road & Mapledene conservation areas led by Hidden House Project. Explore how these projects' thoughtful design and development contribute positively to the public realm and the architectural diversity and richness of the area, shaping London Fields' future heritage.","London Fields Overground Station, E8 3PA",51.54104,-0.05772,10:00:00,12:00:00,Yes,Yes
Garden Court Chambers,https://programme.openhouse.org.uk/listings/3479,"Inigo Jones design 1640 at 59/60 Lincoln's Inn Fields, copied  by 57/58  with portico and elliptical staircase added by Soane.  Refurbished by current occupiers, a barristers' chambers. Retains many original features, staircases, fireplaces and mouldings","57-60 Lincoln's Inn Fields, WC2A 3LJ",51.51593,-0.11846,10:00:00,16:00:00,No,
Georgian Clerkenwell's speculative housing boom,https://programme.openhouse.org.uk/listings/12601,"The early 1800's saw the green fields of northern Clerkenwell spring up into grand squares and terraced houses. This walking tour will look at how the speculative housing developed, what remains today, and the unique stories and characters of the area.","Outside Sadler's Wells Theatre, Rosebery Avenue, EC1R 4TN",51.52956,-0.10605,13:00:00,15:00:00,Yes,Yes
Georgian Grafton Street: Sprüth Magers Gallery,https://programme.openhouse.org.uk/listings/12818,"Join SAVE Britain’s Heritage and Klaud Studio on a tour of the prestigious Sprüth Magers art gallery in Mayfair. Learn about the history of this seven-storey grade II listed townhouse designed by Sir Robert Taylor and witness Klaud's sensitive and sustainable restoration work. Damage from earlier renovations was corrected and a multi-use space created: a commercial gallery, a workshop and offices.","7A Grafton Street, W1S 4EJ",51.50994,-0.14383,16:00:00,17:00:00,Yes,Yes
Glassblowing open studio,https://programme.openhouse.org.uk/listings/12948,"Come visit us at Gather, a hot glass studio in Charlton / Woolwich for an open studio day. On Saturday 21st September, we are running a number of pre-book short, exciting classes where participants will 'blow their own bauble' for £55 each. At 3pm we will host a free studio tour with glass blowing demonstrations. Visit us see the process in action!","Unit 4, Submarine Cable Depot, Warspite Road, SE18 5NX",51.49487,0.04517,11:00:00,17:00:00,Yes,No
Glenkerry House,https://programme.openhouse.org.uk/listings/9437,"Glenkerry House is a 14-storey tower block designed by Hungarian architect Ernő Goldfinger. The block is managed by its residents, who collectively form the Glenkerry Co-operative Housing Association.","Glenkerry House, Poplar, E14 0SL",51.5141859,-0.0108145,14:30:00,15:45:00,Yes,Yes
"Grand Junction at St Mary Magdalene Church, Paddington",https://programme.openhouse.org.uk/listings/2527,"Grade I Victorian Gothic church by G E Street, architect of the Royal Courts of Justice. The recent conservation project reveals the majestic colours of Daniel Bell's painted ceiling, plus Dow Jones Architects' contemporary heritage wing.","Rowington Close, St Mary Magdalene's Church , W2 5TF",51.5222702,-0.1890094,10:00:00,16:00:00,Yes,No
Green House,https://programme.openhouse.org.uk/listings/10309,"RIBA House of the Year: A new exposed CLT-frame house, built on a site once occupied by market garden greenhouses, featuring a planted façade with sliding external screens and a riad-style central atrium, assisting in natural daylighting, ventilation and cooling.","25 Jansons Road, N15 4JU",51.58884699999999,-0.07741769999999999,14:00:00,16:50:00,Yes,Yes
Greenwich Yacht Club,https://programme.openhouse.org.uk/listings/522,"Contemporary timber and aluminium building using existing pier, offering unique views of the river, the O2 and the Thames Barrier.","1 Peartree Way, SE10 0BW",51.494727,0.0177407,11:00:00,17:00:00,No,
"Grow, Hackney",https://programme.openhouse.org.uk/listings/10743,"Repurposed out of a disused sausage factory, Grow was converted into a grassroots venue, community hub, bar and kitchen. This canalside venue celebrates it 10th anniversary this year, and is part of an ecosystem of artist studios & small independent businesses & working yard.","98c Wallis Road, Main Yard, Hackney Wick, E9 5LN",51.54371769999999,-0.0226673,11:00:00,15:00:00,No,
Guildhall,https://programme.openhouse.org.uk/listings/535,"The City's seat of municipal government since 12C. Grade I listed, rare example of medieval civic architecture.","71 Basinghall St, EC2V 7HH",51.51589,-0.0919,10:00:00,16:00:00,No,
Guildhall Art Gallery,https://programme.openhouse.org.uk/listings/1405,"Open daily 10am-5pm. 
Regular guided tours 12.15pm & 1.15pm on Tuesdays, Wednesdays, Thursdays, Fridays, Saturdays & Sundays, see below.
Home of the City of London's art collection, & remains of London's Roman Amphitheatre","Guildhall Yard, EC2V 5AE",51.51551,-0.09159,11:00:00,15:45:00,No,
Guildhall Library,https://programme.openhouse.org.uk/listings/6204,Purpose built over 5 floors to house printed books and manuscripts. Features include former pneumatic tube ticket delivery system and 56 listed translucent pyramid roof lights.,"Aldermanbury, EC2V 7HH",51.5161211,-0.09265029999999999,10:00:00,16:00:00,No,
Hackney Bridge,https://programme.openhouse.org.uk/listings/9596,"Hackney Bridge is a meanwhile project to provide incubator space for a range of people and organisations, combined with public facing elements such as an event space and food hall, across five buildings arranged around a central yard.","East Bay Lane, E15 2SJ",51.5466974,-0.0232169,10:30:00,17:30:00,No,
Hackney Empire,https://programme.openhouse.org.uk/listings/546,"Hackney Empire is a grade II* listed building. The theatre was built as a music hall in 1901, designed by the architect Frank Matcham. It is now an exceptional variety theatre for the 21st century, serving the local community and beyond.","291 Mare Street, E8 1EJ",51.5455128,-0.0556262,10:00:00,13:00:00,Yes,No
Hammersmith Quaker Meeting House,https://programme.openhouse.org.uk/listings/5929,"Recently designated as a Building of Cultural Interest by the Council, the Quaker Meeting House is designed to be highly a sustainable building to embody the Quaker values of simplicity and equality.  The award winning building promotes a sense of calm and tranquility.","30-32 Bradmore Park Rd, W6 0DT",51.49553,-0.23189,10:00:00,14:00:00,No,
Hampstead Garden Suburb Free Church,https://programme.openhouse.org.uk/listings/2297,"Grade I listed Non-conformist church, set in the suburb's integrally planned Central Square to balance St Jude's Church nearby, but with a low concrete dome. Distinctive interior with large Tuscan columns on high brick plinths.","Central Square, NW11 7AG",51.58152,-0.19112,10:00:00,15:00:00,No,
"Harrow School: Old Schools, Fourth Form Room",https://programme.openhouse.org.uk/listings/426,"Best preserved 17C schoolroom in the country. Wainscot panelling, benches, tables and chairs. Original fireplace replaced in 1730, oriel window inserted in 1820. Walls carved with names of every Harrow pupil until 1847.","Old Schools, Church Hill, Harrow-on-the-Hill, HA1 3HP",51.57324,-0.33737,15:30:00,17:00:00,No,
Harrow School: Old Speech Room Gallery,https://programme.openhouse.org.uk/listings/1273,Purpose built room intended for the teaching of public speaking which figured prominently in the classical curriculum. Converted 1976 by Alan Irvine into modern gallery with mezzanine floor.,"Church Hill, Harrow-on-the-Hill, HA1 3HP",51.57388,-0.33677,14:00:00,17:00:00,No,
Havant House 53,https://programme.openhouse.org.uk/listings/11119,"A victorian mid terrace house with a dark blue exterior and a zany tiled front garden. Full of original features without being dictated by the era, colour continues inside with a yellow rubber floor in the kitchen.","53 Havant road, Walthamstow, E17 3JE",51.58836729999999,-0.0069079,12:00:00,16:45:00,Yes,Yes
Healthy City - how healthcare shaped London's landscapes,https://programme.openhouse.org.uk/listings/11308,"This tour looks at how healthcare has had an impact on the buildings and landscapes between Westminster Abbey and the City. Exploring Healthcare related buildings, rebuilt, repurposed or removed and their influence on the landscape.","Westminster Tube Outside Exit 2., SW1A 2JR",51.50134,-0.12484,11:00:00,13:00:00,Yes,Yes
Heath Robinson Museum,https://programme.openhouse.org.uk/listings/8329,"This NLHF supported, accredited, purpose-built museum in Pinner Memorial Park displays a collection of Heath Robinson’s work. It includes permanent & temporary exhibition galleries, activity space & shop. It was designed by ZMMA.","Pinner Memorial Park, 50 West End Lane, Pinner, HA5 1AE",51.59264,-0.38685,11:00:00,16:00:00,Yes,No
Heroes and Villains in the City,https://programme.openhouse.org.uk/listings/12606,"City of London was founded by Romans nearly 2000 years ago.  During its existence there were many heroes, but also some villains.  Over the years many murders, hangings and executions took place here. During this tour you will visit some of these sites to learn about the good, the bad and the ugly. 
Sherlock Holmes, William Wallace. Bloody Mary  and more...","Guildhall Yard, EC2V 5AE",51.51543,-0.09204,10:45:00,16:00:00,No,
"Highgate School Chapel, Library, Museum",https://programme.openhouse.org.uk/listings/604,"Founded by Sir Roger Cholmeley, Lord Chief Justice of England, in 1565, Highgate School is governed as a single charitable foundation. Highgate School combines Victorian buildings (our Chapel, Central Hall classrooms and Sir Martin Gilbert Library) with modern facilities.","Highgate School, North Road, N6 4AY",51.5721393,-0.1492358,10:00:00,13:00:00,No,
Highpoint,https://programme.openhouse.org.uk/listings/3069,Grade I listed Modernist apartment blocks retaining many original features.,"Highpoint, North Hill, N6 4BA",51.57489469999999,-0.1506656,10:00:00,18:00:00,Yes,Yes
Historic BBC Studio Tours,https://programme.openhouse.org.uk/listings/12741,"We are offering people a rare glimpse of the birthplace of television with guided tours of Studios A & B. 
The BBC first arrived at the Palace in 1935, as the race to broadcast via the latest innovation in entertainment – television – gathered pace. The corporation leased the entire East Wing of the Palace, with former dining rooms transformed into Studios.","Alexandra Palace, Alexandra Palace Way, Wood Green, N22 7AY",51.59405,-0.12976,10:30:00,14:30:00,Yes,Yes
Hogarth's House,https://programme.openhouse.org.uk/listings/628,"Early 18th century red brick country home of artist William Hogarth, extended significantly c. 1749-1764. The 2020 extension, funded by the National Lottery Heritage Fund, added the new Weston Studio for learning and activities, and a curved glass wall in the shape of Hogarth's Line of Beauty. Delightful re-landscaped and reinterpreted walled garden containing famous ancient mulberry tree.","Hogarth Lane, Great West Road, W4 2QN",51.48725,-0.25509,12:00:00,17:00:00,Yes,No
"Holy Cross Church, Cromer Street",https://programme.openhouse.org.uk/listings/9100,"Grade ll listed Oxford Movement Anglican church built 1887-88. Historic England describe the exterior as ‘quirky and aggressive’ but the  interior is ‘very spare and elegant, the proportions subtly adjusted’. The building is also interesting for its 2019 conversion of a crypt area, partly now rented commercially to a drama school but also used for community groups.","Cromer Street, WC1H 8JU",51.5275753,-0.1235712,11:00:00,16:00:00,No,
Holy Trinity,https://programme.openhouse.org.uk/listings/12375,"The Florence Trust is working from Holy Trinity for 15 months, running its international artist in residence programme from the grade II listed Holy Trinity on Cloudesley square.  You are invited to the open studios and a look around the marvellous building.","Holy Trinity church, Cloudesley Square, N1 0HN",51.5374,-0.1082,11:00:00,18:00:00,No,
Hoxton Hall,https://programme.openhouse.org.uk/listings/11666,"Hoxton Hall was originally built in 1863 by James Mortimer, in the traditional music hall architecture style, with the intention to combine instruction with amusement.  It is a Grade 2 Listed Plus building and one of 5 Music Hall's left.","130 Hoxton Street, N1 6SH",51.5317655,-0.0800497,11:00:00,16:15:00,Yes,Yes
Huguenots' heritage in Spitalfields,https://programme.openhouse.org.uk/listings/11971,"Huguenots had a huge impact on London’s culture, commerce and industry from the 17th century onwards. But how much do we really know about them? During this walk we will discover and explore the  history of Spitalfields.","Outside hub by Premier Inn London Spitalfield, 86 Brick Lane, E1 6RL",51.51929,-0.07158,10:00:00,11:45:00,Yes,Yes
IFS Cloud Cable Car,https://programme.openhouse.org.uk/listings/5530,"An exclusive Behind-the-scenes Tour of the London Cable Car. You'll gain access to areas used in the daily operations of the cable car not typically open to the public. Led by our expert guide, you'll learn about the history, design, and construction of the cable care, while enjoying breath-taking views from high above with a return round trip. Tour lasts 60-minute. Limited to 15 people per tour.","Unit 1-4, Edmund Halley Way, SE10 0FR",51.49983,0.008,10:00:00,13:00:00,Yes,Yes
Ideas Aren’t Linear,https://programme.openhouse.org.uk/listings/12803,"An opportunity to explore our permanent “Home of Ideas” and to visit our current exhibition “Ideas Aren’t Linear” – a non-linear journey through the design processes of two recently completed projects: The Energy Hub and Aylesbury Health Centre, known affectionately as “The Elephant and The Castle” – exposing the twists, about-turns and serendipity that informed their unexpected relationship.","215 Mare Street, E8 3QE",51.54152,-0.05552,15:00:00,16:30:00,Yes,Yes
Intermission,https://programme.openhouse.org.uk/listings/12947,"Architectural showspace on the first floor of a duplex unit in the City’s Royal Exchange (the ground floor houses clothing boutique, GOFF COURTNEY, which also sells accessories, visual books & magazines. INTERMISSION is exhibiting three-dimensional artworks by architect Misha Stefan and RE:PLACE – proposing alternative, more inclusive destinations for three prominent gateway sites in the City.","Intermission / Goff Courtney, 29 Royal Exchange, Threadneedle Street",51.51361,-0.08757,12:00:00,18:00:00,No,
International Maritime Organization,https://programme.openhouse.org.uk/listings/7730,"The International Maritime Organization is a specialized agency of the UN, responsible for the safety and security of shipping and the prevention of marine pollution by ships. It is the only UN organization with headquarters in London.","4 Albert Embankment, SE1 7SR",51.4936018,-0.1210654,10:00:00,16:00:00,No,
Isleworth Public Hall,https://programme.openhouse.org.uk/listings/3004,Well-executed and colourfully detailed example of Victorian reading and vestry rooms (1863) with added public hall by S. Woodridge 1887. Beautiful details inside and out.,"South Street, Isleworth, TW7 7BG",51.46863,-0.3256,14:30:00,17:00:00,Yes,No
Islington Social Housing Cycle tour,https://programme.openhouse.org.uk/listings/12570,"A short cycle tour of Pollard Thomas Edwards' social housing projects in Islington - including RIBA Award winning Dover Court Estate. 

If you would like to book a ticket we ask you to consider donating £20 to Crisis - our charity partner as we celebrate our 50th Anniversary https://www.justgiving.com/page/pollardthomasedwards","Diespeker Wharf, N1 8JX",51.53234,-0.09928,10:00:00,15:30:00,Yes,Yes
Isokon Building (Lawn Road Flats),https://programme.openhouse.org.uk/listings/768,"Grade I listed 1934 residential block of flats in Hampstead, designed by the Canadian modernist architect Wells Coates for clients Jack and Molly Pritchard. English Heritage blue plaque for Bauhaus masters Gropius, Breuer and Moholy-Nagy.","Lawn Road, NW3 2XD",51.55196,-0.16216,11:00:00,16:00:00,No,
Jackson Lane Arts Centre,https://programme.openhouse.org.uk/listings/10874,"Jacksons Lane’s year-round programme of contemporary performance, arts participation and cultural education exists to empower, and ignite creativity within, diverse communities & work tirelessly to overcome traditional barriers through art.","Jacksons Lane, 269a Archway Road, N6 5AA",51.5765813,-0.1454343,10:00:00,22:00:00,No,
Kaymet Factory,https://programme.openhouse.org.uk/listings/6826,"The operational factory of Kaymet, a maker of trays and trolleys since 1947. A hidden 1950s building with a small yard, originally a printing works. It is brick built, with clear-storey glazing and tubular truss north-light main shed roof.","52 Ossory Road, SE1 5AN",51.48474239999999,-0.0710449,10:00:00,17:00:00,No,
King's College London: Museum of Life Sciences,https://programme.openhouse.org.uk/listings/7471,"This rarely opened space began as a medical school library in 1902 as part of Guy's Hospital Medical School. It then became a more general bioscience library, part of which in 2009 became the Museum of Life Sciences.  Building of red brick  with additional stonework and partially covered in creeper. Internally are carved oak cabinets and ornate columns.","Hodgkin Building, Great Maze Pond, SE1 1UL",51.50305,-0.08944,11:00:00,16:00:00,No,
King's Cross Masterplan,https://programme.openhouse.org.uk/listings/7788,The King’s Cross Masterplan established a framework for the incremental redevelopment of this industrial heritage site through a mix of uses and a network of public spaces structuring new urban blocks and knitting the site into its context.,"11 Stable Street, N1C 4AB",51.5366379,-0.12543,10:00:00,12:00:00,Yes,Yes
Kirkaldy's Testing Works,https://programme.openhouse.org.uk/listings/856,"Proudly carved over the door are the words ‘Facts not Opinions’. Inside, the authentic sight - and smell - of Kirkaldy’s Testing and Experimenting Works is a unique and direct link with an ingenious age of engineering.","99 Southwark Street, SE1 0JF",51.50606,-0.10146,10:30:00,14:30:00,No,
Kribi Coffee Roastery,https://programme.openhouse.org.uk/listings/12767,Join us for a special open day at Kribi Coffee UK! Owners Anne and Luca will guide you on a tour through the air roastery and share the rich story of Cameroonian coffee and their family’s connection to the farmers and the land. There will be live demonstrations of the coffee air roaster and some sample coffee to try!,"Unit C8, Argall Avenue, E10 7QP",51.57116,-0.04343,10:00:00,15:00:00,No,
La Sainte Union Catholic School,https://programme.openhouse.org.uk/listings/10598,"Founded in 1861 by a group of French nuns, La Sainte Union has a rich history. See the original Georgian site, chapel and its 142-year-old organ, plus modern stained glass windows by Patrick Pollen, LSU’s own orchard and the 60s extension.","Highgate Road, NW5 1RP",51.5599528,-0.1497769,11:30:00,16:30:00,No,
Lakeside Centre,https://programme.openhouse.org.uk/listings/4547,"Iconic brutalist building in the heart of Thamesmead, renovation led by Bow Arts Trust in partnership with Peabody, supported by the Mayor’s London Regeneration Fund (LEAP). The centre has opened as a cultural hub for Thamesmead.","Southmere Lake Complex, 2 Bazalgette Way (formerly Belvedere Road)",51.5009688,0.1242316,12:00:00,18:00:00,No,
Leathersellers' Hall,https://programme.openhouse.org.uk/listings/3489,"New Livery Hall behind a retained early 20th century façade. This is the seventh Hall in the Leathersellers' Company's history since its foundation in the Middle Ages, and is located on the site of its second Hall.","7 St Helen's Place, Bishopsgate, EC3A 6AB",51.51524,-0.08158,10:00:00,17:00:00,Yes,Yes
Lewisham Arthouse,https://programme.openhouse.org.uk/listings/12118,"Lewisham Arthouse (LAH) is a not-for-profit artist-led co-operative, based in the formerly Deptford Central Library, Grade II listed, 1910 -1914, Designed by A. Brumwell Thomas (1868 -1948)","Lewisham Arthouse, SE14 6PD",51.4715,-0.03076,10:00:00,18:00:00,No,
Lillington Gardens Estate,https://programme.openhouse.org.uk/listings/921,"Lillington Gardens in Pimlico, Westminster, was built from 1961 to 1971 by Darbourne & Darke. It set a new standard in high-density public housing with medium-rise structures and private gardens. Blending well with nearby Victorian surroundings, the modernist design won multiple awards and was praised by Nikolaus Pevsner as 'the most interesting recent housing in inner London'.","Vauxhall Bridge Road, SW1V 2LF",51.49149,-0.13626,10:00:00,16:15:00,Yes,Yes
London Fields extension,https://programme.openhouse.org.uk/listings/12813,"VATRAA's fibre-reinforced concrete extension to a Victorian house in London Fields is a project about materials, light and views. On the inside, the rough concrete floor, bench and worktop are balanced by oak and a jute fabric inspired by the client's art collection. On the outside, a fibre-reinforced external leaf reduced the concrete amount by 40% compared to a regular steel reinforcement.","6 Malvern Road, E8 3LT",51.54003,-0.06724,10:00:00,17:00:00,No,
London Fire Brigade Memorial Hall,https://programme.openhouse.org.uk/listings/11781,"Open Day: LFB's grade II listed Memorial Hall, part of the LFB's Art Deco Headquarters, opened in 1937. The hall is rarely seen by the public & contains stunning large memorials by Gilbert Bayes depicting episodes in the Fire Brigade's history and post-war memorials commemorating firefighters lost protecting London in the Second World War.","8 Albert Embankment, SE1 7SP",51.49253,-0.1215,11:00:00,16:00:00,No,
"London Museum, West Smithfield",https://programme.openhouse.org.uk/listings/8380,"Join us to find out more about our incredible journey to create a new museum for London. Enter the ballot for a special tour of the General Market and Poultry Market (currently in construction), or come along to take part in free family-friendly drop-in activities.","General Market and Poultry Market, West Smithfield, EC1A 9LH",51.51866,-0.10339,11:00:00,17:00:00,Yes,No
London Open Form Pavilion of Air,https://programme.openhouse.org.uk/listings/11855,"A floating acoustic architecture, playfully reframing public space as an essential community engagement through sound & site mapping. Accessed by smartphone, headphones & echoes.xyz app, the Pavilion is located outside the Serpentine Gallery,. Drawing on Oskar & Zofia Hansen’s Open Form architectural concept it is one of 15 in a series including Venice, Berlin, Dublin, Bergen and Arctic Norway.","Kensington Gardens, W2 3XA",51.50466,-0.17464,07:00:00,19:30:00,No,
London's Roman Amphitheatre,https://programme.openhouse.org.uk/listings/10902,"Regular combined guided tours of Amphitheatre and Guildhall Art Gallery at 12.15pm & 1.15pm on Tuesdays, Wednesdays, Thursdays, Fridays, Saturdays & Sundays. Additional Open House tours on 21 and 22 September, please book via Guildhall Art Gallery listing.
The capital’s only known Roman Amphitheatre","London’s Roman Amphitheatre at Guildhall Art Gallery, Guildhall Yard",51.5155471,-0.0914547,11:00:00,15:45:00,No,
London's skyscrapers walking tour,https://programme.openhouse.org.uk/listings/12604,"London's skyline is rapidly growing! But 'skyscrapers' have been with us for millennia.  Join Ben Eley on a walking tour of London's most iconic skyscraper cluster – the ancient commercial heart of the City of London.  This tour considers the many social and economic influences which have pushed buildings higher, reflects on campaigns which seek to curtail tall building aspirations, and focusses in on some of London's most famous skyscrapers.","Sundial at the Tower Hill, EC3N 2LY",51.50983,-0.07654,10:00:00,12:30:00,Yes,Yes
Maggie's Barts,https://programme.openhouse.org.uk/listings/6604,"Maggie's Barts opened in December 2017. Maggie's Centres are unique, welcoming and uplifting places with qualified staff on hand to provide free practical, emotional and social support for people with cancer, their families and friends.","St Bartholomew's Hospital, EC1A 7BE",51.51786,-0.10017,10:00:00,16:00:00,Yes,Yes
Mansion House,https://programme.openhouse.org.uk/listings/1033,"The official residence of the Lord Mayor of the City of London, retaining its 18C character, with superb plasterwork and wood carving.","Walbrook, EC4N 8BH",51.5128676,-0.0900498,11:00:00,15:45:00,Yes,Yes
Martello Street Artist Open Studios,https://programme.openhouse.org.uk/listings/12642,"Come and discover work by some of the UK’s top artists – from internationally acclaimed names to new and emerging talent. See behind the scenes of a working studio, meet artists, photographers, designers, illustrators and all sorts of creative people face to face and buy works of art directly from their studio.","10 Martello Street, E8 3PE",51.54105,-0.05867,12:00:00,17:00:00,No,
Mid-Autumn Festival Celebrations,https://programme.openhouse.org.uk/listings/12734,"Thousands of Hong Kongers have made Sutton their home in recent years. 

Join us on Saturday 21st September, 2024 as we celebrate Mooncake Festival with a community-led cultural programme:

- Enjoy traditional music and performances from Sutton Honger, Lion
Rock Kids Children's Choir, traditional Chinese music, pop
dances, and Acapella.
- Family activity
- A variety of drinks and snacks","London Borough Of Sutton, Sutton, SM1 1EA",51.36227,-0.19539,14:00:00,16:30:00,No,
Modern Architecture in Blackheath walk,https://programme.openhouse.org.uk/listings/10273,"Architect Ana Sutherland, author of a newly published book 'Modern Buildings in Blackheath and Greenwich', will lead a guided tour of the Cator Estate. Covering Eric Lyons' Span estates and unique modernist homes designed by architects Patrick Gwynne, Peter Moro and Walter Greaves.","1 Blackheath Park, Blackheath, SE3 9RN",51.4641667,0.0095829,10:00:00,12:00:00,Yes,Yes
Mornington Hall,https://programme.openhouse.org.uk/listings/12586,"A short film of the 100 year history of the building covering its time as a school, wartime ARP station and British Restaurant and school dinners centre. Display boards and volunteers available to answer any questions or show people around the space.  Teas and coffees and cakes, commemorative brochures and mugs will be available for purchase. Live music of songs from the last 100 years.","Mornington Hall, The Green Walk, Chingford, E4 7ER",51.63186,0.00115,10:30:00,12:30:00,No,
Muphoria Gallery,https://programme.openhouse.org.uk/listings/12928,"Muphoria Gallery based on Berwick Street, Soho, is London's first music art gallery, exhibiting pop art and musical instruments created by UK artists. We will be hosting a walking tour around the musically important buildings of Soho.","Muphoria ltd, W1F 0PQ",51.5131,-0.13441,12:00:00,17:00:00,Yes,Yes
Museum of Croydon Behind the Scenes Tour,https://programme.openhouse.org.uk/listings/12045,We propose to open the Museum of Croydon stores for an intimate guided tour of our stored collections. This activity will take approximately 1hr and can cater for a maximum of 8 people.,"Croydon Clocktower, Katharine St, CR9 1ET",51.37226,-0.09939,11:00:00,15:00:00,Yes,Yes
Museum of the Order of St John,https://programme.openhouse.org.uk/listings/5214,"St John's Gate and the Priory Church are the remaining buildings from the medieval priory of the Knights Hospitaller and are both Grade I listed. St John’s Gate dates from 1504 and features stunning Victorian and Edwardian interiors. The Priory Church was reconstructed by Seely & Paget after the Second World War, but its 11th-century crypt survives.","St John's Gate, St John's Lane, Clerkenwell, EC1M 4DA",51.5219889,-0.102746,13:00:00,18:00:00,No,
Music with Plants by the Glasshouse,https://programme.openhouse.org.uk/listings/12899,"Myddelton House Gardens were once home to Edward Augustus Bowles, one of Britain’s most famous self-taught gardeners, artists and expert botanists. The gardens are a treasure trove of hidden gems and the beautifully reconstructed Victorian Glasshouse is no exception.","Myddelton House Gardens, Bulls Cross, Enfield, EN2 9HG",51.67527,-0.06078,13:00:00,15:00:00,No,
Muslim Heritage of the City tour,https://programme.openhouse.org.uk/listings/12905,"Join a captivating journey through the City of London with our exclusive Muslim Heritage Tour. Discover the deep connections of Salahuddin Ayubi and marvel at the UK's oldest Muslim statues, dating back 1000 years. Uncover the legacy of England’s most famous Middle Eastern immigrant and delve into fascinating tales of crime and health in history.","Temple tube station entrance, WC2R 2PH",51.51102,-0.1143,11:30:00,14:00:00,Yes,Yes
Muswell Hill Baptist Church,https://programme.openhouse.org.uk/listings/11196,A notable example of George Baines' work from the heyday of London free church buildings. It combines Baptist simplicity with Edwardian decor and spaciousness and is broadly unaltered.  It was built to complement the surrounding townscape.,"Muswell Hill Baptist Church, Dukes Avenue, N10 2PT",51.5916775,-0.1411344,11:00:00,15:00:00,No,
Myddelton House Gardens,https://programme.openhouse.org.uk/listings/12651,"Visit the life long home of Edward Augustus Bowles, one of the 20th century's great gardeners, that was restored by  Heritage Lottery Fund in 2011 to tell the story of the famous botanist’s life and gardening style.","Myddelton House Gardens, Bulls Cross, Enfield, EN2 9HG",51.67527,-0.06078,10:00:00,16:00:00,No,
National Audit Office,https://programme.openhouse.org.uk/listings/119,"A Grade II listed building that is home to the NAO, the UK’s independent public spending watchdog. We support Parliament in holding government to account and help improve public services through our audits. Opened in 1939 by Imperial Airways, subsequently BOAC and then British Airways as an airport terminal. The NAO has occupied the building since 1986.","157-197 Buckingham Palace Road, SW1W 9SP",51.49161,-0.14872,11:00:00,16:00:00,Yes,No
National Liberal Club,https://programme.openhouse.org.uk/listings/1167,"An impressive Victorian neo-Classical building overlooking the Embankment of the river Thames. It is the second-largest clubhouse ever built, the first London building to incorporate a lift and to be entirely lit by electric lighting.","Whitehall Place, SW1A 2HE",51.5064534,-0.1236299,10:00:00,16:30:00,Yes,Yes
National Youth Theatre,https://programme.openhouse.org.uk/listings/12046,"Public Tours tours by Architect's DSDHA and the team at National Youth Theatre of the NYT's recently redeveloped RIBA-award-winning building, which created the UK's first theatre dedicated to staging work created by young people. This project is supported by the Mayor of London.","National Youth Theatre, 443-445 Holloway Road, N7 6LW",51.55948,-0.122,13:00:00,13:20:00,Yes,Yes
Neckstamper Brewery,https://programme.openhouse.org.uk/listings/12828,Every hour on the hour Neckstamper will give a brewery tour explaining our brewing process and equipment we use. The brewery taproom will also be open for the public to enjoy our beer or purchase cans to take away.,"Unit 3, Cromwell Industrial Estate, Staffa Road, E10 7QZ",51.56944,-0.03761,14:00:00,19:00:00,No,
New Cross and Deptford: a radical history through music,https://programme.openhouse.org.uk/listings/12577,"Deptford's history is mainly linked to the river, but it also has a rich musical and cultural heritage. This walking tour will explore the sounds of Deptford and New Cross, along the way telling the radical – and often tragic – history of this diverse area, from police clashes at the Moonshot Club to groundbreaking community arts projects at the Albany.",Meet: Meet at the front of Goldsmiths University of London  on Lewish,51.47478,-0.03499,11:00:00,13:00:00,Yes,Yes
Nirvana Brewery,https://programme.openhouse.org.uk/listings/12754,"Join us for an alcohol-free beer tasting and brewery tour! Our shutter will be open all afternoon for you to pop in and join us for a beer. Our brewer James will lead a brewery-tour session at 2pm giving the low-down on the magic behind alcohol-free brewing, followed by a guided tasting with a selection of four great Nirvana beers.","Unit T6, Leyton Industrial Village, Argall Avenue, E10 7QP",51.57054,-0.04372,13:00:00,18:00:00,Yes,No
Nonconformity in Highgate,https://programme.openhouse.org.uk/listings/12806,"Although Highgate is labelled a sleepy 'village for millionaires' frozen in time, during our two-hour walk with an integrated cardio effect, participants will see how this area has evolved under the influence of generations of nonconformists. Our route includes one of the most architecturally diverse street in London, experimental pink plaques and eccentric homes.","Outside Boogaloo pub, 312 Archway Rd, N6 5AT",51.57635,-0.14377,11:00:00,13:30:00,Yes,Yes
North Arch Art Space,https://programme.openhouse.org.uk/listings/12955,"The North Arch Arts Space invites you to explore its artists' work in a newly designed framework by A347, focused on fostering community-minded practices. With spaces centered around a communal core, the open layout encourages collaboration and interaction. Meet the artists, experience their work firsthand, and purchase directly from them, making artistic creation a tool for community building.","347 Arch, Beck Road, E8 4RE",51.53686,-0.058,12:00:00,19:00:00,No,
North London Buddhist Centre,https://programme.openhouse.org.uk/listings/11996,"The North London Buddhist Centre has been described as an 'oasis along the Holloway road'. It just celebrated its 20th anniversary in its current premises built in 1980 with some elements of Georgian style. The building houses two shrine rooms, a café area and  bodywork studio.","North London Buddhist Centre, 72 Holloway Road, N7 8GJ",51.54942,-0.10771,13:00:00,17:00:00,Yes,No
Norton Folgate,https://programme.openhouse.org.uk/listings/12578,"Join an architect-led tours of the newly completed Norton Folgate development. Explore the newly enhanced public spaces, see how historic buildings have been brought back into use, and take a look within the buildings which will be home to the burgeoning tech and creative industries in the Spitalfields and Shoreditch area.","Norton Folgate, E1 6PL",51.52141,-0.07768,09:00:00,18:00:00,Yes,No
Olden Community Garden,https://programme.openhouse.org.uk/listings/10727,"Olden Community Garden - a hidden 2.5 acre green oasis along a railway embankment in Islington. Sit beside the lawn; listen to birdsong; follow trails through the woodland, meadow and orchard; discover vegetable patches and a wildlife pond.","Whistler Street (opposite no 22), N5 1NJ",51.5523926,-0.1044575,11:00:00,15:00:00,No,
Oru Space,https://programme.openhouse.org.uk/listings/12768,"Oru Sutton is a landmark workspace, leisure, and destination space in the heart of Sutton High Street, creating a nurturing environment for people to connect and thrive in their work and personal lives.","7 Throwley Way, SM1 4AF",51.36393,-0.1933,12:00:00,15:00:00,Yes,No
Our Yard at Clitterhouse Farm,https://programme.openhouse.org.uk/listings/8339,Our Yard at Clitterhouse Farm is a community enterprise working to protect historic Victorian farm outbuildings and transform the site into a vibrant and sustainable community hub. Shortlisted for the Open City Stewardship Awards 2021.,"Clitterhouse Playing Fields, Claremont Rd, NW2 1AP",51.56693,-0.21653,10:00:00,16:00:00,No,
Painters' Hall,https://programme.openhouse.org.uk/listings/1311,"Acquired in 1532 and rebuilt in 1670 after the Great Fire, the Hall was partially destroyed in 1941 by enemy action and rebuilt in a Neo-Georgian style in 1960. The original charter, portraiture and stained glass are of particular interest.","9 Little Trinity Lane, EC4V 2AD",51.5116609,-0.09499049999999999,10:00:00,15:00:00,No,
Parish Church of St Andrew Enfield,https://programme.openhouse.org.uk/listings/2479,"Grade 2 Listed church, that has been much added to over the 800 years of its existence. We have  recently refurbished the organ which has a fine circa 1750s wooden organ case.  The Church has an eight-bell peal still in weekly use– the oldest bell dates from 1680.","The Market Place, Church Street, Enfield, EN2 6LL",51.65278,-0.08199,10:00:00,16:00:00,No,
Pavilion on The Green,https://programme.openhouse.org.uk/listings/12530,"The Green is an underutilized natural asset located at the heart of Edmonton Green Town Centre. The Pavilion, co-designed with the local community plays a crucial role in supporting the proactive use of the space and fosters a stronger connection to the area. This initiative informs The Green's long-term vision through ideas and feedback gathered from a programme of community led activities.","The Broadway- Edmonton  Green, N9 9DX",51.6242,-0.06071,14:00:00,18:00:00,No,
Paxton Locher House,https://programme.openhouse.org.uk/listings/1334,A unique modern courtyard house making brilliant use of a restricted site. A retractable glass roof gives wonderful natural light and opens the house to the sky in dry weather.,"8-9 Clerkenwell Green, EC1R 0DE",51.522989,-0.1045787,10:00:00,17:00:00,No,
Peckham House,https://programme.openhouse.org.uk/listings/12589,"Surman Weston has completed its first self-build project, Peckham House, in South London.  A resilient, characterful, and experiential family home, that reflects our personalities and architectural interests.","15 Cicely Road, SE15 5HW",51.47114,-0.06633,10:00:00,17:00:00,No,
People's Museum Somers Town,https://programme.openhouse.org.uk/listings/10952,"A great little museum set in the Grade 2 listed Ossulston Estate - a prime example of pre-war Social housing - based on Karl Marz Hof in Vienna.
Open Tuesday to Friday 9am-5pm, plus Saturday 14th, Saturday 21st and Sunday 22nd September 11am-4pm.","52 Phoenix Road, NW1 1ES",51.53106,-0.13095,11:00:00,16:00:00,Yes,No
Periscope,https://programme.openhouse.org.uk/listings/12552,"Periscope is a spatial design agency focused on regenerative design and public architecture.

We welcome visitors to join us through a day of workshops and talks around some of the practice's recent works, stimulating conversations on green and blue infrastructures, master planning and urbanism, public realm and landscape.","2-4 Tottenham Road, N1 4BZ",51.54519,-0.07635,10:30:00,16:30:00,Yes,Yes
Phoenix Gardens Community Building,https://programme.openhouse.org.uk/listings/6841,"The first purpose-built new-build community centre to be built in the heart of Soho for generations, located within the renowned Phoenix Gardens. Winner: RIBA London Award. Designed by RIBA London Architect of the Year Winner.","21 Stacey Street    , WC2H 8DG",51.5144001,-0.1285292,12:00:00,17:00:00,Yes,No
Pirouette House,https://programme.openhouse.org.uk/listings/12761,Overhaul of an ex-local authority home in Islington with a new timber cloister that encircles a hidden courtyard and a series of unexpected spaces that pirouette around a triangular column.  Access to 12 Davey Close via passage next to 48 Arundel Square,12 Davey Close,51.5457,-0.11281,11:00:00,16:00:00,No,
Pitzhanger Manor & Gallery,https://programme.openhouse.org.uk/listings/1369,"Designed by Sir John Soane as a family home and country residence. Following a three-year conservation project,  Pitzhanger has been returned to Soane’s innovative original design and re-opened to the public in March 2019.","Mattock Lane, Ealing, W5 5EQ",51.51093,-0.30702,10:00:00,17:00:00,Yes,No
Pollard Thomas Edwards - Diespeker Wharf,https://programme.openhouse.org.uk/listings/1375,"Conversion of a canalside Victorian warehouse, formerly a terrazzo factory, into spacious offices, garden and glazed extension with one of the best waterside views in London. Refurbished, 2022.","Diespeker Wharf, 38 Graham Street, N1 8JX",51.5324006,-0.0993428,10:00:00,16:00:00,No,
Postwar and post-welfare North London walking tour,https://programme.openhouse.org.uk/listings/12816,"This walking tour will draw comparisons between the progress and demise of the postwar welfare state. Focusing on housing and healthcare, the tour will present prominent examples from the era  and discuss ways these are being adapted to meet contemporary challenges, such as the housing crisis and ongoing maintenance. The ambition of the tour is to reassess the value of postwar architecture today.","Belsize Park Tube Station, Haverstock Hill, NW3 2AL",51.55033,-0.16452,11:00:00,13:30:00,Yes,Yes
Pushkin House,https://programme.openhouse.org.uk/listings/4108,The independent cultural centre Pushkin House will contribute to this year's Open House Festival through a programme of events and community initiatives at its Grade-II listed building in Bloomsbury Square.,"5a Bloomsbury Square, WC1A 2TA",51.5182912,-0.1230772,10:00:00,17:00:00,Yes,No
Quaker Meeting House - Brentford & Isleworth,https://programme.openhouse.org.uk/listings/2688,"The B&I Meeting House is a Grade II* listed late-Georgian Quaker Meeting House (1785), surrounded by peaceful and green gardens and a Quaker burial ground. Still in active use today, the architecture includes unique examples of old Quaker practices no longer found in more modern Meetings. Consistent renovations and updates have added new rooms, accessible ramps and toilets, and a full kitchen.","Quakers Lane, Isleworth, TW7 5AZ",51.4791863,-0.3260394,10:00:00,18:00:00,Yes,No
Quaker Meeting House - Wandsworth,https://programme.openhouse.org.uk/listings/1422,"Grade II listed, this is the oldest Quaker meeting house in London. Built in 1778, it has original panelling & a minister's gallery. See flagstones from the earlier 1674 buildings. Also a secluded burial ground & garden. Free refreshments.","59 Wandsworth High Street, Wandsworth, SW18 2PT",51.4565224,-0.1917397,12:00:00,16:30:00,No,
RIBA,https://programme.openhouse.org.uk/listings/1464,Fine example of Grade II* listed 1930s architecture with many original features and fittings and home to the world-class British Architectural Library collections.,"66 Portland Place, W1B 1AD",51.5211811,-0.1451121,11:00:00,16:00:00,No,
Rainham Parish Church of St Helen and St Giles,https://programme.openhouse.org.uk/listings/2507,"Grade I listed Norman church with notable chancel arch with chevron and nailhead ornament, built by Richard De Lucy.","The Broadway, Rainham, RM13 9YW",51.51843,0.19029,10:00:00,16:00:00,No,
Regent Place,https://programme.openhouse.org.uk/listings/12574,Built around a central green courtyard; the scheme completed for Gateway Housing Association consists of 32 shared ownership homes; including 3-bedroom maisonettes and 3-wheelchair units and features an under-5s play area. Arched entrances to individual dwellings introduce a human scale and echo other features in the street. The parapet detail is a nod to the Victorian heritage of the area.,"80 Rosebank Gardens, E3 5EF",51.53108,-0.03264,09:45:00,14:00:00,No,
Regent Street Cinema (The University of Westminster),https://programme.openhouse.org.uk/listings/2244,"The University of Westminster was one of the first polytechnics in the UK – established in 1838, to educate the working people of London, regardless of background and financial status. Housed in the building is the Regent Street Cinema, widely regarded as the ‘birthplace of British cinema’, with the first public premiere of film in the UK by the Lumière Brothers using the Cinématographe in 1896.","307 Regent Street, W1B 2HW",51.5168,-0.14285,10:00:00,14:00:00,No,
Rio Cinema,https://programme.openhouse.org.uk/listings/1478,"Grade II listed Art Deco cinema with stalls and circle created in 1937 within the shell of an Edwardian cinema, retaining many original features. In 2017  a new auditorium was created in the basement space.","107 Kingsland High Street, Dalston, E8 2PB",51.5496961,-0.07556439999999999,10:00:00,11:00:00,Yes,Yes
Roca London Gallery,https://programme.openhouse.org.uk/listings/5322,"Designed by the world renowned Zaha Hadid Architects, Roca London Gallery is a unique space where water acts as the architectural theme. Guests can also visit 'Bio-Spaces: Regenerative Resilient Futures', a major exhibition exploring biodiversity and biomimicry in design, as well as biomorphic design, bio-based materials and bioregenerative design.","Station Court, Townmead Road, SW6 2PY",51.47448,-0.18362,11:00:00,17:00:00,No,
Romanian Cultural Institute,https://programme.openhouse.org.uk/listings/5056,"Situated in one of the largest and grandest 19th century squares in London, 1 Belgrave Square was acquired by Romania in 1936 and is now home to the Romanian Cultural Institute.","1 Belgrave Square, SW1X 8PH",51.500248,-0.1539844,11:00:00,16:00:00,No,
Royal Charter to the hidden prison cell of Enfield,https://programme.openhouse.org.uk/listings/12872,"The Old Vestry Office is a Grade II listed building that was built in the early 19th century. It was originally created as a Beadle's office but later used as a police station, containing 2 cells. The Old Enfield Charitable Trust - an independent charity serving those living and working within the boundary of the Ancient Parish - run their services from the Old Vestry Office.","Old Enfield Charitable Trust, The Old Vestry Office, 22 The Town",51.65226,-0.08174,12:00:00,15:00:00,Yes,No
Royal College of Physicians,https://programme.openhouse.org.uk/listings/1527,"Striking, provocative and one of London’s few Grade I listed post-war buildings. As we celebrate 60 years since our unique building was opened we invite you to drop in, explore our archives, take a tour and more to discover this award-winning building from its modernist lines to dramatic interiors. 

See https://history.rcplondon.ac.uk/event/open-house-festival-2024 for more.","11 St Andrew's Place, Regent's Park, NW1 4LE",51.5258654,-0.1452812,10:00:00,16:00:00,Yes,No
Royal Courts of Justice,https://programme.openhouse.org.uk/listings/1531,Architect - G.E Street's masterpiece and one of Victorian London's great public buildings. 13th Century Gothic given a Victorian interpretation. Commissioned by Queen Victoria to build the home for Civil Justice for the United Kingdom.,"Strand, WC2A 2LL",51.513803,-0.1135807,10:00:00,16:00:00,No,
Royal Foundation of St Katharine,https://programme.openhouse.org.uk/listings/12441,"Founded by Queen Matilda in 1147 and with HM Queen Elizabeth II as our previous patron, The Royal Foundation of St Katharine has served as a centre for worship, hospitality and service over many centuries. With 45 bedrooms, 11 meeting rooms, and a community café, it is a unique, quiet sanctuary in the heart of London.","2 Butcher Row, E14 8DS",51.51196,-0.04142,10:30:00,11:30:00,No,
Royal Pharmaceutical Society Museum,https://programme.openhouse.org.uk/listings/7230,"Join us for a free guided tour of the RPS Museum and Library and find out what crocodiles have to do with pharmacy!
Over 180 years old, the RPS Museum and Library is a hidden gem in East London, full of the weird and wonderful world of pharmacy history.
Find out how best to use bear’s grease and explore a collection of poisons even Agatha Christie would swoon at!","66 East Smithfield, E1W 1AW",51.50899039999999,-0.06840589999999999,10:00:00,16:00:00,No,
Run The City,https://programme.openhouse.org.uk/listings/12605,"Feeling uninspired by your neighbourhood? Compete with others to explore and rethink your city.

