name,url,description,address,latitude,longitude,start_time,end_time,ticketed_events,fully_booked
1 Halliwick Road,https://programme.openhouse.org.uk/listings/8767,"A low energy refurbishment of an Edwardian house, with rear extension and loft conversion. Wood fibre insulation, MVHR, airtightness layer, triple glazing, timber structure and low embodied energy materials.","1 Halliwick Road, N10 1AA",51.601234,-0.1482044,10:00:00,17:00:00,No,
1 Quality Court,https://programme.openhouse.org.uk/listings/10593,"Entry to 1 Quality Court is an alley with Victorian tiles and is now built over by a modern building with Tudor accents.
The court was built up around 1700 .
1 Quality Court was originally the Patent Office .","1 Quality Court, , Chancery Lane, WC2A 1HR",51.5167278,-0.1123123,12:00:00,16:00:00,No,
130 Drayton Park,https://programme.openhouse.org.uk/listings/12763,"Upper maisonette remodelled to create a spacious top floor open-plan living space. Bespoke kitchen, dining and lounge furniture. Full height doors and a Dougls Fir stair screen","130 Drayton Park, N5 1LX",51.55634,-0.10561,10:00:00,14:00:00,No,
15 and a half Consort Road,https://programme.openhouse.org.uk/listings/3831,"As per Grand Designs, the opening roof, the retracting loo and sliding bed-bath typify this extraordinary response to constraints of a tight budget on a brownfield site. Shortlisted RIBA Awards 2006. One of nation's favourite TV houses.","15 and a half Consort Road, SE15 2PH",51.4720392,-0.0640998,10:00:00,16:30:00,No,
6 Moretown (Gensler London Studio),https://programme.openhouse.org.uk/listings/10591,"A contemporary adaptation of a 1980s office building, and home of global design firm Gensler. Each level of the building is connected by a structural timber facade and set of stairs, and the new 5th floor cantilevers from the roof.","6 Moretown, Tower Hamlets, E1W 1YW",51.5076148,-0.06714640000000001,10:00:00,16:00:00,No,
"8 Stoneleigh Terrace (Highgate New Town, Stage 1)",https://programme.openhouse.org.uk/listings/689,"Built during the golden era of Camden public housing under Borough Architect Sydney Cook. Peter Tábori  studied with Ernő Goldfinger and worked with Denys Lasdun, and met Ken Adie when both were students at the Regent Street Polytechnic.","8 Stoneleigh Terrace, N19 5TY",51.5644935,-0.1433845,14:00:00,17:30:00,Yes,No
81 Columbia Road,https://programme.openhouse.org.uk/listings/12567,Step into the historic charm of 81 Columbia Road Flower Market in East London.  This iconic Victorian terraced house functions as a live/work space for a local artist who has focussed on photographs of London architecture and life.,"81 Columbia Road, E2 7RG",51.5297,-0.0691,10:00:00,17:00:00,No,
A Ruskinian Walk Through Shared Heritage,https://programme.openhouse.org.uk/listings/4686,"Ruskinian walk from RIBA award-winning Chiswick Business Park, Gunnersbury Triangle Nature Reserve through South Acton Estate, birthplace of artist Patrick Caulfield; Woodlands Park Ice House; to home of William Willett, initiator of Daylight Saving Time","Building 3, Chiswick Business Park, 566 Chiswick High Road, W4 5YA",51.4930625,-0.2747704,12:00:00,14:00:00,Yes,No
A walk in Peckham's Aylesham Centre --- past and future,https://programme.openhouse.org.uk/listings/12597,"Find out more about Peckham's Aylesham Community Action group's work, get a sense of our neighbourhood's character on a walk with locals and discuss our campaigns against attempts for insensitive overdevelopments in our area.
We want to engage with built environment enthusiasts and together find some answers to London's critical questions : ‘What it takes to build or destroy a community?'","10 Rye Lane, SE15 5BT",51.47276,-0.07024,12:00:00,19:00:00,Yes,No
AH A Studio,https://programme.openhouse.org.uk/listings/11991,This is a newly built and fitted out architecture studio in London Fields. We designed it as a flexible working and event space with the opportunity to align personal wellbeing and professional endeavour in one supportive space.,"Unit 13, 39 Gransden Ave, E8 3QA",51.54066,-0.05639,11:00:00,17:00:00,No,
Acland Burghley School,https://programme.openhouse.org.uk/listings/2882,"An important example of 1960s comprehensive school design in the Brutalist style. Acland Burghley has recently received support from the National Lottery Heritage Fund for its ambitious ‘A Hall for All’ project and have welcomed in a resident orchestra, the Orchestra of the Age of Enlightenment in a collaborative partnership which is a UK-first.","93 Burghley Road, NW5 1UJ",51.5573971,-0.1396506,10:00:00,16:00:00,No,
Acme Propeller Factory,https://programme.openhouse.org.uk/listings/12565,"Acme Propeller Factory on Childers Street in Deptford is a 1920’s former ship propeller foundry. It has been home to artists since 1990. Currently, its 70,492 square feet of studio space is divided into 135 studio units, with 180 artists working in them over four floors.

The building is also home to The Acme Archive, the Acme Window Gallery and our public community and engagement space.","165 Childers Street, Deptford, SE8 5JR",51.4824,-0.03517,11:00:00,16:00:00,Yes,No
Alexandra Road Estate Flat 85B (Rowley Way),https://programme.openhouse.org.uk/listings/12110,"Visit a recently refurbished apartment of Neave Brown’s Alexandra Road Estate in Camden. This is a 3 bed maisonette flat, lower ground and ground floor levels on block B along the pedestrian Rowley Way.","85b Rowley Way, NW8 0SN",51.5404,-0.18237,14:00:00,17:00:00,Yes,No
Alice Billing House,https://programme.openhouse.org.uk/listings/12503,"Alice Billing House is one of Newham’s most historic buildings located on Stratford’s High Street. The building is made up of two blocks, one of which is a Grade II listed building, built in 1905-6 as firefighter’s accommodation for the West Ham Fire Brigade. Opening in January 2024, the South Block has now been converted into artist studios and is now home to over 25 artists.","Alice Billing House, 2-12 West Ham Lane, Stratford, E15 4SF",51.53997,0.00184,10:00:00,16:00:00,No,
All Saints Church,https://programme.openhouse.org.uk/listings/11192,"Historical connections
Vice Admiral Fitzroy /Charles Darwin/Crystal Palace Great Exhibition
(Grave within Church grounds),
Isambard Kingdom Brunel,
Felix Mendelssohn, Marie Tussauds to name but a few. 
Famous artist Camille Pissarro painted local scenes .","All Saints Church, Church Road, SE19 3EP",51.4111215,-0.08613599999999999,10:30:00,16:30:00,No,
All along the dock edge,https://programme.openhouse.org.uk/listings/11290,"A walking tour, enlivened by unique illustrations, along the northern edge of Royal Albert Dock. Historically a frontier of trade into and out of London, it has had a fascinating journey from busy port to a place for people to call home.",In front of the Hilton Double Tree hotel Royal Albert Dock,51.50727,0.03876,14:00:00,16:30:00,Yes,No
Allies and Morrison Open Studio,https://programme.openhouse.org.uk/listings/2223,"Three buildings - one concrete, one Victorian, one timber - have been designed, adapted, restored and extended by Allies and Morrison to create the compact, integrated campus of studio space that the practice calls home.","85 Southwark Street, SE1 0HX",51.5054937,-0.0998399,10:00:00,17:00:00,No,
Angel Yard,https://programme.openhouse.org.uk/listings/11846,"Enfield Council and Jan Kattein Architects have transformed a set of derelict garages 
in Angel Edmonton into warm, generous, affordable spaces for community and 
young enterprise.","34 Snells Park, N18 2FD",51.6101568,-0.0676401,11:00:00,16:00:00,No,
Architectural Walk in Brockley,https://programme.openhouse.org.uk/listings/12711,"Brockley Conservation Area's High Victorian enclave holds many interesting houses in a variety of styles and including Edwardian domestic architecture, historic trees and original lanes and mews. These have survived into the 21st century almost intact. Houses built in the 1950s and 1960s indicate WWII bomb damage and add to the area's variety and history.","War Memorial, Lewisham Way, SE4 1SX",51.47099,-0.03007,11:00:00,12:15:00,Yes,No
Arding & Hobbs,https://programme.openhouse.org.uk/listings/12386,"Built at the turn of the twentieth century, Arding & Hobbs is a department store whose civic presence had been eroded by unsympathetic additions and failing tenants. Our refurbishment returns it to its former place in the community, removing a 1970s canopy, restoring old features – clock tower, barrel vaults and stained-glass dome – and adding new, in the form of a CLT-framed roof pavilion.","10 St John's Road, SW11 1PN",51.46356,-0.16768,10:00:00,12:00:00,Yes,No
Armourers' Hall,https://programme.openhouse.org.uk/listings/12459,"Late Georgian Livery Hall rebuilt in 1839. Highlights include the main Hall, featuring a stunning 1870s lantern ceiling, and displays of historic arms and armour throughout the building.","Armourers' Hall, 81 Coleman Street, EC2R 5BJ",51.51719,-0.08936,10:30:00,17:15:00,Yes,No
Armstrong Audio,https://programme.openhouse.org.uk/listings/12718,"Take a tour of Armstrong Audio with engineers and owners, T & Shalma. Learn about its rich history dating back to 1932 when the company was established as 'Armstrong Wireless & Television Ltd.'. and began manufacturing public address systems, radios and televisions for public use in WWII.","Armstrong Audio, 32A Blackhorse Lane, E17 6HJ",51.588,-0.03993,09:00:00,15:00:00,No,
Art and architecture in Thamesmead,https://programme.openhouse.org.uk/listings/12774,"On the surface Thamesmead might seem concrete and grey, but on this tour we will take a look at the colour and life local artists that are breathing into the area. Examining the past and present, we'll explore the abbey ruins, exciting sculptures, concrete skywalks, and vivid murals that make this place the Town of Tomorrow.","Outside the upper concourse of Abbey Wood Station, 513 Abbey Wood Rd",51.49109,0.12134,14:00:00,16:00:00,Yes,No
Art in Perpetuity Trust,https://programme.openhouse.org.uk/listings/11049,"Open Studios, provides a unique glimpse to the architectural spaces and working studios of APT artists.  Over the weekend, there is also the opportunity to see our Group Show in the Gallery, curated by and featuring APT artist's work.","6 Creekdside, Harold Wharf, SE8 4SA",51.47652069999999,-0.0210711,12:00:00,17:00:00,No,
Bakers' Hall,https://programme.openhouse.org.uk/listings/12656,"There has been a Bakers' Hall on our current site since 1505.  The current incarnation dates from 1964, and is a unique collaboration of old and new.

The hall was originally designed by Trehearne and Norman, Preston and Partners in conjunction with Past Master William Newcome- Wright) and is the first of the post-war [World War II] livery halls in a Modernist idiom.","Bakers Hall, 9 Harp Lane, EC3R 6DP",51.50941,-0.08154,10:00:00,15:00:00,No,
Bank of England Museum,https://programme.openhouse.org.uk/listings/2027,The museum is part of the Bank of England rebuilding in the 1930's by Sir Herbert Baker. One room is a reconstruction of 1793 Bank of England Stock Office by Sir John Soane.,"Bartholomew Lane, EC2R 8AH",51.51426,-0.08752,11:00:00,15:30:00,No,
Bartholomew Fair,https://programme.openhouse.org.uk/listings/12884,It began with wool and ended in wildness. This tour with a City Guide will uncover 800 years of history and happenings associated with the incident-packed Bartholomew Fair.,"Smithfield Market, Outside Grand Avenue entrance on Long Lane",51.5194,-0.1014,11:00:00,15:15:00,Yes,No
Belsham Street studios,https://programme.openhouse.org.uk/listings/11998,"See behind the scenes of SPACE's studio buildings that are not usually open to the public. Discover work by some of the UK’s top artists, from internationally acclaimed names to new and emerging talent.","Belsham Street, E9 6NG",51.54551,-0.05185,12:00:00,17:00:00,No,
Billingsgate Roman House & Baths,https://programme.openhouse.org.uk/listings/5296,"Some of London's best Roman remains, comprising late 2C house with a 3C bath house built within its courtyard. First discovered in 1848.","101 Lower Thames Street, EC3R 6DL",51.5092887,-0.08305119999999999,11:00:00,13:45:00,Yes,No
Blackheath Quaker Meeting House,https://programme.openhouse.org.uk/listings/4022,"""A brutalist jewel"", the meeting house was designed to fit in with older buildings in the conservation area and make the most of its split-level site. 
It is a small 1970s concrete building with a raised lantern, designed by Trevor Dannatt, who worked on the Royal Festival Hall.   
Grade ll Listed for its original design, it is used for Quaker worship and by community groups.","Lawn Terrace, Blackheath, SE3 9LL",51.4650118,0.007056300000000001,10:00:00,16:00:00,No,
Blackhorse Workshop,https://programme.openhouse.org.uk/listings/6882,"A makerspace offering open access to a fully equipped wood and metal workshop with bench space, tools and machinery. Includes education space, community café and 40 studios for creative businesses. Blackhorse Workshop is celebrating its 10th birthday in 2024.","Blackhorse Workshop, 1-2 Sutherland Road Path, E17 6BX",51.59183840000001,-0.03902129999999999,10:00:00,17:00:00,No,
Blockmakers Arms,https://programme.openhouse.org.uk/listings/12707,"Transformation and additions to a Grade II listed former pub, forming two dwellings and a calm urban courtyard","133 Shepherdess Walk, N1 7QA",51.53329,-0.09386,11:00:00,18:00:00,No,
Boston Manor House,https://programme.openhouse.org.uk/listings/10142,"Boston Manor House is a Jacobean House built for Lady Mary Reade in 1623 and later owned by the Clitherow family from the 1670s until the 1920s. The House is now open to the public with free entry six days a week. Its beautifully restored historic interiors, including breath-taking ornate plasterwork, are joined by two community exhibition galleries, meeting rooms and an attractive modern café.","Boston Manor House, Boston Manor Road, Brentford, TW8 9JX",51.49191829999999,-0.3183739,15:00:00,16:00:00,Yes,No
Brady Arts and Community Centre,https://programme.openhouse.org.uk/listings/11669,"The Brady Arts & Community Centre is on Hanbury St, just off Brick Lane in the busy & creative part of East London. It opened in 1935 as the Brady Jewish Girls Club & 1960 the Boys Club joined The Brady.  We are holding our open day on Saturday 21st  September.  Come and find out about the Brady Centre's history and take part in drop in arts activities’.","192-196 Hanbury Street, Tower Hamlets, E1 5HU",51.5196189,-0.0654358,12:00:00,16:00:00,No,
Brent Museum,https://programme.openhouse.org.uk/listings/12231,"We have been collecting objects about the history of Brent for over 50 years. Visitors can find out about an Eiffel tower in Wembley, why you might make a pilgrimage to Willesden and what the Victorian streets of Brent were really like.","Brent Museum, The Library at Willesden Green – second floor",51.547,-0.22904,10:30:00,17:00:00,No,
Brentham Garden Suburb,https://programme.openhouse.org.uk/listings/2571,"Britain's first co-partnership garden suburb, first houses built 1901. Parker and Unwin's plan introduced 1907, mainly Arts and Crafts style; fascinating social history.","The Brentham Club, 38 Meadvale Road, W5 1NP",51.5287856,-0.309085,10:30:00,12:30:00,Yes,No
Broadwater Farm Estate - Murals and Mosaics Tour,https://programme.openhouse.org.uk/listings/12744,"Join us for a walking tour of the large-scale murals and Grade II listed mosaic mural  on Broadwater Farm Estate, commissioned in the 1980s in the wake of riots on the estate. Visit the mosaic restoration facility on the estate to hear from conservation professionals, get up close to local community art, see restoration techniques and learn about the history and future of the mosaic mural.","Broadwater Farm Community Centre, Adams Rd, N17 6HG",51.59564,-0.08439,14:00:00,15:15:00,Yes,No
Bromley Archives- Bromley Central Library,https://programme.openhouse.org.uk/listings/11775,"Join us for a guided tour of Bromley Archives. With access to the archive store, typically closed to the public, visitors will get a behind the scenes look at the collection and service.","Bromley Historic Collections, Bromley Central Library, High Street",51.4036023,0.0147679,10:00:00,16:45:00,Yes,No
Bromley Little Theatre,https://programme.openhouse.org.uk/listings/8913,Bromley Little Theatre (BLT) has an 113-seat auditorium that was originally a Victorian bakery and stables built in 1888. The  first production was in December 1937.,"Bromley Little Theatre , North St",51.4077287,0.0159893,10:00:00,16:00:00,No,
Bromley and Sheppard's College,https://programme.openhouse.org.uk/listings/555,"Founded to house the widows of clergymen, the original building consisted of 20 houses built around a classically-styled quadrangle. Captain Richard Ryder – one of Sir Christopher Wren's surveyors – was in charge of design and construction.","London Road (entrance via Wren Gates, no vehicle entry), Bromley",51.4078207,0.0151453,10:00:00,16:00:00,Yes,No
Bruce Castle Museum,https://programme.openhouse.org.uk/listings/2728,"Tudor Manor House built for Sir William Compton in 1514, substantially altered in 17C, 18C & 19C. A museum since 1906 housing local history and community collections, archives, art & exhibitions of Bruce Castle, and Haringey area.","Bruce Castle Museum,, Lordship Lane, Tottenham, N17 8NU",51.59914939999999,-0.0754686,12:00:00,16:30:00,No,
Bullers Wood School for Girls,https://programme.openhouse.org.uk/listings/2740,"Typical mid-Victorian stucco-fronted house built on a grassy hillside, extended in 1888 by Ernest Newton with William Morris redesigning the interiors. The library, formerly drawing room, has a unique William Morris hand-painted ceiling.
The school itself has a range of older and newer buildings, including Inglewood House. The grounds will be open during the Open House festival.","St Nicolas Lane, Chislehurst, BR7 5LJ",51.4082358,0.0449388,10:30:00,14:00:00,No,
Burlington House: Linnean Society of London,https://programme.openhouse.org.uk/listings/2074,"The world's oldest active biological society. Founded in 1788, the Society takes its name from the Swedish naturalist Carl Linnaeus whose botanical, zoological and library collections have been in its keeping since 1829.","Piccadilly, W1J 0BF",51.5082999,-0.139365,10:00:00,17:00:00,No,
Burlington House: Royal Academy of Arts,https://programme.openhouse.org.uk/listings/1513,"Visit hidden spaces not usually open to the public, including the newly restored Royal Academy Schools and the original residence of the RA's 'Keeper'.","Piccadilly, W1J 0BD",51.5067326,-0.1428696,10:00:00,18:00:00,Yes,No
Burlington House: Royal Astronomical Society,https://programme.openhouse.org.uk/listings/4496,"The Royal Astronomical Society (RAS) moved into Burlington House 150 years ago in 1874. Part of the extension to Burlington House to provide accommodation for learned societies, the building was refurbished in 2007. The RAS is the oldest astronomical society in the world and has been encouraging and promoting the study of astronomy and geophysics since 1820.","Piccadilly, W1J 0BQ",51.5082999,-0.139365,10:00:00,16:55:00,Yes,No
Burlington House: Royal Society of Chemistry,https://programme.openhouse.org.uk/listings/3091,"Experience the history, architecture and science of the East Wing of Burlington House, home to the Royal Society of Chemistry. Part of the quadrangle extension to Burlington House, it was purpose built for the learned society.","Piccadilly, W1J 0BA",51.50893,-0.1391903,10:00:00,16:40:00,Yes,No
Burlington House: Society of Antiquaries of London,https://programme.openhouse.org.uk/listings/1651,"The Society of Antiquaries of London has been exploring the material past since the early eighteenth century. This year we celebrate 150 years of residence in the purpose-built grade II* listed apartments in Burlington House, with its grand galleried library and varied collections. Today's membership of 3000 Fellows are leading experts in archaeology, history, art, architecture, and heritage.","Burlington House, Piccadilly, W1J 0BE",51.5092548,-0.1397032,10:00:00,16:00:00,Yes,No
Burlington House: The Geological Society of London,https://programme.openhouse.org.uk/listings/4938,"Home to the oldest geological society in the world, founded in 1807. The Society has been based at Burlington House since 1874, and now has over 12,000 members worldwide.","Piccadilly, W1J 0BG",51.50869,-0.13875,10:00:00,17:00:00,No,
Caledonian Park: Clock Tower Tours,https://programme.openhouse.org.uk/listings/2764,"The Caledonian Clock Tower was opened in 1855 as centrepiece of the Metropolitan Cattle Market. Standing at a height of 45 metres, the Clock Tower offers stunning panoramic views over London.  The clock's mechanism was made by John Moore of Clerkenwell and its bells by the Whitechapel Foundry. The Clock Tower has been renovated with help from the Heritage Lottery Fund.","Cally Clock Tower Centre, Market Road, N7 9HF",51.54577099999999,-0.1180571,11:00:00,16:00:00,Yes,No
Capisco Metal Patination Workshop,https://programme.openhouse.org.uk/listings/12827,Join us and learn more about the ancient art of patination. Celebrate 35 years of Capisco by delving into our sample archive and a gallery of our projects. Our master patination technicians will also be on hand to demonstrate some classic techniques.,"1 Period Works, 1 Lammas Road, E10 7QT",51.56584,-0.0363,12:00:00,18:00:00,No,
Carpenters' Hall,https://programme.openhouse.org.uk/listings/2808,"Livery Hall first built in 1429, much altered then demolished and rebuilt in 1880, destroyed in 1941 except for external walls (W W Pocock). Designed as a showpiece for the craft of carpentry, the third Hall on the site.","1 Throgmorton Avenue, EC2N 2JJ",51.516537,-0.0857655,10:00:00,16:00:00,No,
"Centre of the Cell and Neuron Pod, Queen Mary University of London",https://programme.openhouse.org.uk/listings/3216,"Neuron Pod is a striking 23-metre long and 10-metre high free-standing structure – designed as an extension to Centre of the Cell, an informal science learning centre at Queen Mary University of London’s Whitechapel campus.","4 Newark Street, E1 2AT",51.5167978,-0.06165479999999999,11:00:00,16:00:00,No,
Christ Church,https://programme.openhouse.org.uk/listings/2462,"Grade II* listed church with ragstone tower, spire, good stained glass by Kempe and recently restored William Hill organ. A characteristic work of Scott. It is Gothic Revival in the style of the 13C.","Wanstead Place, E11 2SW",51.5780156,0.0236308,10:30:00,16:00:00,No,
"Christ Church Community Centre, Highbury",https://programme.openhouse.org.uk/listings/12531,"The Community Centre at Christ Church Highbury, Islington N5, close to Highbury Fields, was designed by Matthew Lloyd Architects, and was completed in 2022. The centre was designed in close consultation with the church and local people and provides accessible, high quality, flexible spaces, church offices and a cafe, enabling the church to better meet and serve the local community.","Christ Church, 159 Highbury Grove, N5 1SA",51.55249,-0.09875,11:00:00,16:00:00,Yes,No
Christ Church Southgate and the Minchenden Oak Garden,https://programme.openhouse.org.uk/listings/5128,Grade II listed church with fine collection of Pre-Raphaelite stained glass windows by Morris & Co. including Burne Jones and Rossetti. Wall paintings. Mosaic reredos. Minchenden Oak  - ancient pollarded oak more than 800 years old.,"Waterfall Road , Southgate, N14 7EG",51.6212818,-0.1358408,10:00:00,16:30:00,No,
Church of St Andrew the Apostle,https://programme.openhouse.org.uk/listings/11908,St Andrew's is a Grade II* listed building by Philip Appleby Robson (1871–1951). It boasts a magnificent Arts and Crafts interior with rich wood carvings in the chancel and magnificent stained-glass windows by Martin Travers (1886–1948) and Lawrence Stanley Lee (1909–2011).,"Sandhurst Road, Catford, SE6 1XD",51.44193,-0.00156,09:00:00,17:00:00,No,
Church of the Annunciation,https://programme.openhouse.org.uk/listings/2469,"Fine Victorian church with large mosaic and painted reredos, screen and wall paintings and some unusual glass. Arts and crafts decoration by Nathaniel Westlake and Salviati Bros.","High Street, Chislehurst, BR7 5AQ",51.4188952,0.066874,10:00:00,16:00:00,No,
City Information Centre,https://programme.openhouse.org.uk/listings/4009,London's main tourist information centre is clad in a specially manufactured system of 220 pre-finished stainless steel panels. The subtly reflective surface provides a striking counterpoint to St Paul's.,"St Paul's Churchyard, EC4M 8BX",51.5132944,-0.0989526,09:30:00,17:30:00,No,
Climpson & Sons Coffee Roastery,https://programme.openhouse.org.uk/listings/12766,Step inside the Climpson & Son's Coffee Roastery and see the inner workings of where your favourite coffee gets sourced and roasted.,"Unit 2 & 3 Argall Works, 7-9 Argall Avenue, E10 7QE",51.5703,-0.0387,11:00:00,14:45:00,Yes,No
"Club Row, Former Nichol Street Infants School",https://programme.openhouse.org.uk/listings/55,"A rare example of the schools of E R Robson. Following extended community consultations, the Grade II listed building was carefully refurbished and amended, providing 8,500 sq.ft of new office and gallery space.","Arnold Circus, E2 7ES",51.5258288,-0.0741623,11:00:00,14:00:00,Yes,No
Cody Dock - Lea Way Celebration,https://programme.openhouse.org.uk/listings/11858,"Our event will focus on celebrating the rich heritage of Cody Dock, one of the last remaining brick-lined docks in London.  Our one-day festival will provide exciting opportunities to explore the lesser-known history of the Lower Lea Valley","11c South Crescent, E16 4TL",51.5198331,-0.004331,11:00:00,19:00:00,No,
Cooper House,https://programme.openhouse.org.uk/listings/12499,"In response to the evolving needs of sustainable living, especially in the wake of the pandemic, the project challenges conventional spatial dynamics. A two-storey wooden structure with a pitched roof redefines the interplay between ground and upper levels, resulting in an expansive, airy ambience that promotes creativity and versatility.","2A King's Road, N17 8NP",51.60142,-0.0696,10:00:00,16:00:00,Yes,No
Coopers' Hall,https://programme.openhouse.org.uk/listings/8446,"Coopers' Hall is a late 17th century, timber-framed merchant's house with a Georgian frontage. A Livery Hall since 1957, it features a fine Courtoom, dining room and an impressive staircase spiralling up the entire height of the building. The building displays artefacts of the coopers' trade (the making of wooden casks such as barrels) and is the home of the Worshipful Company of Coopers","13 Devonshire Square, EC2M 4TH",51.5168,-0.07922,10:00:00,16:00:00,No,
Costa's Barbers,https://programme.openhouse.org.uk/listings/12545,"A high street shop, recently converted into a home with a continued, strengthened and adaptable relationship to its street - allowing the former shop floor to be used for commercial or public purposes when desired. Currently occupied as both home and architecture studio, the project was collaboratively self-built by its designers.","165 Battersea High Street, SW11 3JS",51.47061,-0.17206,10:00:00,15:00:00,Yes,No
Creative Connections at The Art Workers’ Guild,https://programme.openhouse.org.uk/listings/2003,1713 terraced house with 1914 hall at rear. Notable renovated Arts and Crafts interior. Newly refurbished glass vaulted courtyard. Portraits of Guild Masters since 1884.,"6 Queen Square, WC1N 3AT",51.5214982,-0.1227227,11:00:00,17:00:00,Yes,No
Creative Works,https://programme.openhouse.org.uk/listings/12716,"Creative Works is a coworking space for local creatives, freelancers and SMEs. Based in Gnome House, which was built on the site of a WW1 Gnome Rotary Engines factory. The current building was built in the 1930s and remained an operating factory until the 1990s. This architectural legacy inspired their creative community to ask themselves what an ‘open factory’ might mean in the space today.","Creative Works, 7 Blackhorse Lane, E17 6DS",51.58873,-0.03985,14:00:00,19:00:00,No,
Crofton Roman Villa,https://programme.openhouse.org.uk/listings/2969,Remains of ten rooms of a masonry Roman villa-house with evidence of opus signinum and tessellated floors. Details of channelled and pillared hypocaust systems. The Villa was the centre of a farming estate of about 500 acres.,"Crofton Road, Orpington, BR6 8AF",51.3726172,0.0850865,10:00:00,16:00:00,No,
Croydon Minster,https://programme.openhouse.org.uk/listings/8724,Medieval style church rebuilt by Sir George Gilbert Scott after 1867 fire. Tower & south porch are 15C. Large nave with open timber-work roof leads to chancel dominated by superb stained glass window & rich alabaster reredos.,"Church Street, Croydon, CR0 1RN",51.3738597,-0.1051579,11:00:00,14:30:00,Yes,No
Crystal Palace Park Dinosaurs  – a tour with a London Blue Badge Tourist Guide,https://programme.openhouse.org.uk/listings/9374,"Explore the world's first dinosaur models hidden in a south London park. The 30 Grade I listed, life-size statues of dinosaurs and other extinct animals at Crystal Palace Park have thrilled
visitors for 166 years. Tour is kids friendly.","Crystal Palace Overground station, Crystal Palace Overground station",51.41811000000001,-0.07257999999999999,11:00:00,13:00:00,Yes,No
DEEP SPACE,https://programme.openhouse.org.uk/listings/11665,"New build live/ work unit, unique architecture in a quiet mews in Brockley.","DEEP SPACE, 4 Ashby Mews, SE4 1TB",51.46807,-0.0323,12:00:00,17:00:00,No,
Dalston Eastern Curve Garden,https://programme.openhouse.org.uk/listings/5006,A vital community garden offering a model for maximum good for communities and for the environment on a small urban plot. It is now a site of Local Importance for Nature Conservation. Winner of an Open City Stewardship Award 2021.,"13 Dalston Lane, E8 3DF",51.5469316,-0.0733723,12:30:00,17:00:00,No,
Deborah House studios,https://programme.openhouse.org.uk/listings/11999,"See behind the scenes of working studios that are not usually open to the public. Discover work by some of the UK’s top artists, from internationally acclaimed names to new and emerging talent.","Retreat Place, E9 6RJ",51.54527,-0.04971,12:00:00,17:00:00,No,
Devil’s Botany Distillery,https://programme.openhouse.org.uk/listings/12755,Enter the world of the curious with a special meet the maker open day at the UK's first ever Absinthe Distillery. Learn about the origins and rituals of this once illicit liquor from distiller and co-founder Rhys Everett.,"16a Heybridge Way, Leyton, E10 7NQ",51.56937,-0.03101,12:00:00,15:00:00,No,
Dinosaur Swing Bridge in Crystal Palace Park,https://programme.openhouse.org.uk/listings/12877,"The team that brought the Dinosaur Swing Bridge to life will describe the process of the bridge’s inception, evolution, and construction, how the design emerged and improved, and how a community deepened their relationship with this pivotal structure that bridges heritage old and new.","Lower Lake, Thicket Rd, SE20 8DS",51.41778,-0.0654,10:00:00,11:00:00,Yes,No
Distinctly Mayfair walking tour,https://programme.openhouse.org.uk/listings/12789,"Explore twenty first century architecture in one of London's most luxurious and historic neighbourhoods. This walking tour covers Mayfair's new contemporary developments, discovering architectural treasures, hidden gems and buildings that are designed for our changing climate. Largely shaped by aristocratic landowners in the eighteenth century, the neighbourhood has undergone constant evolution ever since. Georgian originals blend with thoroughly modern additions where architects have responded to Mayfair's unique character with creativity and ingenuity. 

Tour stops include the inventive reuse of existing buildings, re-shaped green spaces, a completely transformed London square and luxurious designs to delight. You will see how the architects of today have integrated modern architecture into an historic neighbourhood, showcasing the balance between preservation and modernisation. These all combine to create Mayfair's distinct architectural character which reflects it sumptuous beginnings, bold ambitions and future visions.","Outside 94 Piccadilly, W1J 7BP",51.50596,-0.14542,10:30:00,12:30:00,Yes,No
"Don't Move, Improve! - Flitch Cottage",https://programme.openhouse.org.uk/listings/12576,"A low-key, light-infused, beautiful transformation of a dark Victorian terrace in Walthamstow. 

Whittaker Parsons architecture studio has remodelled and extended the cottage, creating a bright contemporary home overlooking Ian Turkington's prairie garden.

The project was shortlisted for this year's Don't Move Improve Awards.","96 Beulah Road, E17 9LE",51.58028,-0.00996,09:30:00,17:00:00,No,
"Don't Move, Improve! - Triangle House",https://programme.openhouse.org.uk/listings/12670,"Winner of the 2024 'Don't Move Improve' award for best project under £100k A self build 38m2 triangular micro home converted from a former mechanic's garage,  creating a flexible and multifunctional home fit for living and working in.  Come and see sliding beds, triangular sofas and a pocket garden.","1a Glastonbury Street, NW6 1QJ",51.55031,-0.19943,14:00:00,16:30:00,Yes,No
"Don't Move, Improve! - Two-up Two-down House",https://programme.openhouse.org.uk/listings/11034,"The Two-Up Two-Down house is architectural practice Khan Bonshek's self build home, and winner of the Don't Move Improve 2024 Transformation Award. The house is a reworking of a mid terrace, using imaginative spatial devices to maximise the limited floor area. Double height volumes, exposed structure and the blurring of rooms combine to introduce light and create the illusion of space.","5 Maryland Park, Stratford, E15 1HB",51.54699840000001,0.0073969,10:00:00,17:00:00,No,
Dorich House Museum,https://programme.openhouse.org.uk/listings/271,"The former studio home of the sculptor Dora Gordine and her husband the Hon. Richard Hare, a scholar of Russian art and literature. 1930s house over four floors including a flat roof terrace and views of Richmond Park.","Dorich House Museum, 67 Kingston Vale, SW15 3RN",51.4333564,-0.2630588,11:00:00,17:00:00,No,
Dr Johnson's House,https://programme.openhouse.org.uk/listings/275,"Fine example of an early 5-floor Queen Anne town house with original panelling, open staircase and unique 'swinging panels' on the open-plan first floor. Johnson compiled his famous 'Dictionary of the English Language' (1755)  here.","17 Gough Square, EC4A 3DE",51.5150637,-0.1081791,11:00:00,17:00:00,No,
Drama Studio London - Grange Court,https://programme.openhouse.org.uk/listings/12759,"This world-renowned actor training school took up residence in Grange Court in 1969.
Grange Court is the heart of DSL (Drama Studio London). It's a large Victorian house and home to acting studios, a theatre, a sound studio, a library, costume wardrobe, prop store and a small secluded garden.","1 Grange Road, W5 5QN",51.50942,-0.30497,10:00:00,14:00:00,No,
Drapers' Hall,https://programme.openhouse.org.uk/listings/276,"Livery hall first built in the 1530s, twice destroyed by fire and rebuilt (1666 & 1772). Late 19C facade and opulent Victorian interior.","Throgmorton Street, EC2N 2AN",51.5149007,-0.0861821,11:00:00,16:00:00,No,
Eames Fine Art,https://programme.openhouse.org.uk/listings/12193,"A great example of the rich evolution of London’s buildings; from noxious leather treatment warehouse complete with sloping floors, winch poles and loading platforms to a stylish hidden Art Collector’s Studio in the space of 150 years.","54-58 Tanner Street, SE1 3PH",51.49991,-0.07823,11:00:00,17:30:00,Yes,No
East London Chapels & Churches Walk,https://programme.openhouse.org.uk/listings/12785,"A walk visiting 5 historic chapels and churches in Tower Hamlets 
Saturday 21 Sept meeting at 9.55am","Outside the Yurt Cafe, St Katherine's Precinct, 2 Butcher Row",51.51212,-0.04109,09:55:00,12:00:00,Yes,No
Eastbury Manor House,https://programme.openhouse.org.uk/listings/304,"Architecturally distinguished and well-preserved, brick-built, Elizabethan Grade I listed manor house. Contains 17C wall-paintings, wood panelling, a charming walled garden and a fine Tudor turret. Many original features have been restored.","Eastbury Manor House, Eastbury Square, Barking, IG11 9SN",51.5343105,0.0995563,10:00:00,17:00:00,No,
Eastcote Walking Tour,https://programme.openhouse.org.uk/listings/11816,"Discover the fascinating history of Eastcote and its surroundings, focused on how the landscape has changed, from the exclusively agricultural area to the today's modern suburb, revealing some of the oldest local buildings and their stories","Eastcote Station, Field End Road, Pinner, HA5 1QZ",51.5765526,-0.3971429,11:00:00,13:00:00,Yes,No
Edith Neville Primary School and Children's Centre,https://programme.openhouse.org.uk/listings/12162,"Come inside Hayhurst & Co’s intricate, light-filled building, bursting with architectural ideas and extraordinary spatial events to hear how it’s rooted in a coherent educational ethos – and empathy with young children.","174 Ossulston Street, NW1 1DN",51.5328,-0.13117,10:00:00,13:00:00,No,
Empire City,https://programme.openhouse.org.uk/listings/12616,A walk through the City of London from the Thames (at the pool of London) up to Lloyds of London (site of the former HQ of the East India Company) looking at buildings and architecture built during the time of British Empire.,"Old Billingsgate Walk, EC3R 6DX",51.50891,-0.08358,14:00:00,15:30:00,Yes,No
English National Ballet,https://programme.openhouse.org.uk/listings/8261,"English National Ballet brings world-class dance to the widest possible audience, and invites you into their home, the Mulryan Centre for Dance. There will be tours taking you behind the scenes of this award-winning building, and more to be announced in due course.","English National Ballet, 41 Hopewell Square, E14 0SY",51.5129037,0.0061236,10:00:00,17:00:00,Yes,No
Estorick Collection of Modern Italian Art,https://programme.openhouse.org.uk/listings/7787,"The Estorick Collection is housed in a beautiful Georgian building previously known as Northampton Lodge. Today, the museum comprises six galleries over three floors, as well as a library, offices, a café and bookshop.","39a Canonbury Square, N1 2AN",51.5439433,-0.1003491,11:00:00,17:30:00,Yes,No
Exploring Spring Grove Isleworth,https://programme.openhouse.org.uk/listings/9032,"Centred on Spring Grove House, once Sir Joseph Banks home the 1850s vision was for John Taylor Jnr designed grand villas.  Today's  wider architecture includes a former college by John Norton & P Massey plus quirky arts & crafts properties.","Forecourt, Isleworth Railway Station, London Road, Isleworth, TW7 4BX",51.47476,-0.33689,14:30:00,16:00:00,Yes,No
Farmers and Fletchers' Hall,https://programme.openhouse.org.uk/listings/12679,"Farmers and Fletchers' Hall is one of the 44 Livery Halls in the City of London.  The Hall is the home to both the Worshipful Company of Fletchers, an ancient Livery Company and the Farmers, a modern Livery Company.  The  Worshipful Company of Fletchers will open it's doors to show members of the public some of the modern work of the Fletchers Livery, it's traditions and heritage.","3 Cloth St, London, EC1A 7LD",51.51981,-0.09798,10:00:00,15:30:00,Yes,No
Fleet Street Heritage Wall and Sundial,https://programme.openhouse.org.uk/listings/10644,"This new sundial faces East so gets only morning sun. It is 10 m. square and was opened in 2021, and is publicly accessible 24/7","61 Fleet Street, EC4Y 1JU",51.51412879999999,-0.1080343,09:00:00,17:30:00,No,
Former Church of St Saviour,https://programme.openhouse.org.uk/listings/10594,"High church, Arts & Craft, Grade I listed for its painted walls and beautiful mosaics. 

Designed and built by William White.

The childhood church of John Betjeman. Commemorated in his poem “St Saviours”.

Golden mosaic works by Venetian artist Antonio Salviati.

There will be a show of contemporary art works by London artist Ben Amponsah.","aberdeen park, highbury, N5 2AR",51.5525192,-0.0935583,11:00:00,18:00:00,No,
Found(ation),https://programme.openhouse.org.uk/listings/12247,"A “pretty” foundation is displayed within a future, fictional archaeological site that reveals the condition of London’s soil. 

The Antepavillion 2024 brings you into the ground to look at our building culture through the eyes of future archaeologists, and adds a sculpture to a collection of found artefacts to question how much design care we put into what is hidden below the ground.","105 Page’s Walk, SE1 4HD",51.49298,-0.08269,11:00:00,17:00:00,No,
Founders' Hall,https://programme.openhouse.org.uk/listings/8396,"Founders' Hall boasts a unique blend of neo-Vernacular, Arts and Crafts, and Post-Modern styles. Its exterior features distinctive gabled bays, terracotta panels, and metal grilles, while the interior showcases a ceremonial staircase, ornate parlour, and a livery hall illuminated by impressive œil de bœuf windows, creating an exceptional fusion of architectural elements.","Founders' Hall, 1 Cloth Fair, EC1A 7JQ",51.5192561,-0.0990206,10:00:00,16:00:00,No,
Four Corners,https://programme.openhouse.org.uk/listings/4215,"Refurbished extended building, a centre for film and photography. Central courtyard integrated 'hub' allows light and air to filter through. Loft conversion to create studio and work space. Sustainable features include sedum roof.","121 Roman Road, E2 0QN",51.52875179999999,-0.0488433,10:30:00,17:30:00,No,
Frederick W Paine Funeral Directors,https://programme.openhouse.org.uk/listings/6971,The town's oldest firm of funeral directors has conducted funerals from these premises since 1908. The original interior is Grade II listed. The building also contains the Frederick W Paine Museum and the firm's archive.,"24 Old London Road, Kingston upon Thames, KT2 6QG",51.4106864,-0.3000781,10:00:00,16:00:00,No,
From Forest to Morris: A walk around Walthamstow,https://programme.openhouse.org.uk/listings/11296,"A walk around historic Walthamstow showing how this unique area grew from a village into a thriving suburb, its social history and the variety of buildings that can be found where Epping Forest meets William Morris.",Outside Costa Coffee at Walthamstow Central Station 5 Station Approac,51.5828202,-0.0194102,11:00:00,13:00:00,Yes,No
From Prejudice to Pride,https://programme.openhouse.org.uk/listings/12883,Join a City Guide to explore the stories of queer monarchs; the Cathedral convenience; erotic theatre; cross-dressers and find out what Henry VIII had to do with it all.,Blackfriars tube station (north side),51.53154,-0.12457,14:00:00,15:15:00,Yes,No
Fruit to Fashion: how a kitchen garden became a world famous piazza,https://programme.openhouse.org.uk/listings/11313,"This year marks the 50th anniversary when the wholesale market ceased trading and moved to Battersea/Vauxhall area . The tour charts the evolution of Covent Garden, incorporating the piazza, the wholesale produce market, social residential areas and supporting neighbourhoods, and highlighting the social and commercial highs, lows and challenges.
Contact tonyganio@gmail.com","20 Southampton Street, WC2E 7QH",51.51146319999999,-0.1224538,10:00:00,12:30:00,Yes,No
Furnishing Futures Open Studio: Meet the charity,https://programme.openhouse.org.uk/listings/12750,"Discover the work of innovative charity Furnishing Futures, which partners with the interiors industry to create trauma-informed healing homes for families given empty social housing after escaping domestic abuse. Enjoy a tour of our warehouse and studio, meet our team and learn about sustainability in interiors and the impact of trauma-informed design for recovery.","Unit 4, 11 Argall Avenue, E10 7QE",51.57017,-0.03906,10:00:00,16:00:00,No,
Future Heritage: Contemporary Architecture in Hackney,https://programme.openhouse.org.uk/listings/12712,"Discover Hackney’s exemplary contemporary residential projects on this inspiring walk through the Broadway Market and Graham Road & Mapledene conservation areas led by Hidden House Project. Explore how these projects' thoughtful design and development contribute positively to the public realm and the architectural diversity and richness of the area, shaping London Fields' future heritage.","London Fields Overground Station, E8 3PA",51.54104,-0.05772,10:00:00,12:00:00,Yes,No
Garden Court Chambers,https://programme.openhouse.org.uk/listings/3479,"Inigo Jones design 1640 at 59/60 LIF, copied  by 57/58  with portico and elliptical staircase added by Soane.  Refurbished by current occupiers, a barristers' chambers. Retains many original features, staircases, fireplaces and mouldings","57-60 Lincoln's Inn Fields, WC2A 3LJ",51.5157532,-0.1184708,10:00:00,16:00:00,No,
Georgian Clerkenwell's speculative housing boom,https://programme.openhouse.org.uk/listings/12601,"The early 1800's saw the green fields of northern Clerkenwell spring up into grand squares and terraced houses. This walking tour will look at how the speculative housing developed, what remains today, and the unique stories and characters of the area.","Outside Sadler's Wells Theatre, Rosebery Avenue, EC1R 4TN",51.52956,-0.10605,13:00:00,15:00:00,Yes,No
"Grand Junction at St Mary Magdalene Church, Paddington",https://programme.openhouse.org.uk/listings/2527,"Grade I Victorian Gothic church by G E Street, architect of the Royal Courts of Justice. The recent conservation project reveals the majestic colours of Daniel Bell's painted ceiling, plus Dow Jones Architects' contemporary heritage wing.","Rowington Close, St Mary Magdalene's Church , W2 5TF",51.5222702,-0.1890094,10:00:00,16:00:00,Yes,No
Greenwich Yacht Club,https://programme.openhouse.org.uk/listings/522,"Contemporary timber and aluminium building using existing pier, offering unique views of the river, the O2 and the Thames Barrier.","1 Peartree Way, SE10 0BW",51.494727,0.0177407,11:00:00,17:00:00,No,
"Grow, Hackney",https://programme.openhouse.org.uk/listings/10743,"Repurposed out of a disused sausage factory, Grow was converted into a grassroots venue, community hub, bar and kitchen. This canalside venue celebrates it 10th anniversary this year, and is part of an ecosystem of artist studios & small independent businesses & working yard.","98c Wallis Road, Main Yard, Hackney Wick, E9 5LN",51.54371769999999,-0.0226673,10:00:00,16:00:00,No,
Guildhall,https://programme.openhouse.org.uk/listings/535,"The City's seat of municipal government since 12C. Grade I listed, rare example of medieval civic architecture.","71 Basinghall St, EC2V 7HH",51.51583,-0.09131,10:00:00,16:00:00,No,
Guildhall Art Gallery,https://programme.openhouse.org.uk/listings/1405,"Open daily 10am-5pm. 
Regular guided tours 12.15pm & 1.15pm on Tuesdays, Wednesdays, Thursdays, Fridays, Saturdays & Sundays, see below.
Home of the City of London's art collection, & remains of London's Roman Amphitheatre","Guildhall Yard, EC2V 5AE",51.5152512,-0.0921379,11:00:00,15:45:00,No,
Guildhall Library,https://programme.openhouse.org.uk/listings/6204,Purpose built over 5 floors to house printed books and manuscripts. Features include former pneumatic tube ticket delivery system and 56 listed translucent pyramid roof lights.,"Aldermanbury, EC2V 7HH",51.5161211,-0.09265029999999999,10:00:00,16:00:00,No,
Hackney Bridge,https://programme.openhouse.org.uk/listings/9596,"Hackney Bridge is a meanwhile project to provide incubator space for a range of people and organisations, combined with public facing elements such as an event space and food hall, across five buildings arranged around a central yard.","East Bay Lane, E15 2SJ",51.5466974,-0.0232169,10:30:00,17:30:00,No,
Hackney Empire,https://programme.openhouse.org.uk/listings/546,"Hackney Empire is a grade II* listed building. The theatre was built as a music hall in 1901, designed by the architect Frank Matcham. It is now an exceptional variety theatre for the 21st century, serving the local community and beyond.","291 Mare Street, E8 1EJ",51.5455128,-0.0556262,10:00:00,13:00:00,Yes,No
Hammersmith Quaker Meeting House,https://programme.openhouse.org.uk/listings/5929,"Recently designated as a Building of Cultural Interest by the Council, the Quaker Meeting House is designed to be highly a sustainable building to embody the Quaker values of simplicity and equality.  The award winning building promotes a sense of calm and tranquility.","30-32 Bradmore Park Rd, W6 0DT",51.49553,-0.23189,10:00:00,14:00:00,No,
Hampstead Garden Suburb Free Church,https://programme.openhouse.org.uk/listings/2297,"Grade I listed Non-conformist church, set in the suburb's integrally planned Central Square to balance St Jude's Church nearby, but with a low concrete dome. Distinctive interior with large Tuscan columns on high brick plinths.","Central Square, hampstead Garden Suburb, NW11 7AG",51.5807555,-0.190889,10:00:00,15:00:00,No,
"Harrow School: Old Schools, Fourth Form Room",https://programme.openhouse.org.uk/listings/426,"Best preserved 17C schoolroom in the country. Wainscot panelling, benches, tables and chairs. Original fireplace replaced in 1730, oriel window inserted in 1820. Walls carved with names of every Harrow pupil until 1847.","Old Schools, Church Hill, Harrow-on-the-Hill, HA1 3HP",51.5735536,-0.3371024,15:30:00,17:00:00,No,
Harrow School: Old Speech Room Gallery,https://programme.openhouse.org.uk/listings/1273,Purpose built room intended for the teaching of public speaking which figured prominently in the classical curriculum. Converted 1976 by Alan Irvine into modern gallery with mezzanine floor.,"Church Hill, Harrow-on-the-Hill, HA1 3HP",51.5735536,-0.3371024,14:00:00,17:00:00,No,
Havant House 53,https://programme.openhouse.org.uk/listings/11119,"A victorian mid terrace house with a dark blue exterior and a zany tiled front garden. Full of original features without being dictated by the era, colour continues inside with a yellow rubber floor in the kitchen.","53 Havant road, Walthamstow, E17 3JE",51.58836729999999,-0.0069079,12:00:00,16:45:00,Yes,No
Heath Robinson Museum,https://programme.openhouse.org.uk/listings/8329,"This NLHF supported, accredited, purpose-built museum in Pinner Memorial Park displays a collection of Heath Robinson’s work. It includes permanent & temporary exhibition galleries, activity space & shop. It was designed by ZMMA.","Pinner Memorial Park, 50 West End Lane, Pinner, HA5 1AE",51.59263559999999,-0.3851867,11:00:00,16:00:00,Yes,No
Heritage on the High Road (High Street HAZ),https://programme.openhouse.org.uk/listings/10928,"Hear about some of the initiatives under way in the Tottenham High Street Heritage Action Zone (High Street HAZ). LB Haringey and the Tottenham Civic Society host a tour uncovering the rich heritage of this bustling, multicultural area.","Bruce Grove Public Conveniences, Bruce Grove, N17 6UR",51.59624,-0.07235,12:00:00,13:00:00,Yes,No
Heroes and Villains in the City,https://programme.openhouse.org.uk/listings/12606,"City of London was founded by Romans nearly 2000 years ago.  During its existence there were many heroes, but also some villains.  Over the years many murders, hangings and executions took place here. During this tour you will visit some of these sites to learn about the good, the bad and the ugly. 
Sherlock Holmes, William Wallace. Bloody Mary  and more...","Guildhall Yard, EC2V 5AE",51.51543,-0.09204,10:45:00,16:00:00,No,
"Highgate School Chapel, Library, Museum",https://programme.openhouse.org.uk/listings/604,"Founded by Sir Roger Cholmeley, Lord Chief Justice of England, in 1565, Highgate School is governed as a single charitable foundation. Highgate School combines Victorian buildings (our Chapel, Central Hall classrooms and Sir Martin Gilbert Library) with modern facilities.","Highgate School, North Road, N6 4AY",51.5721393,-0.1492358,10:00:00,13:00:00,No,
Highpoint,https://programme.openhouse.org.uk/listings/3069,Grade I listed Modernist apartment blocks retaining many original features.,"Highpoint, North Hill, Highgate, N6 4BA",51.57489469999999,-0.1506656,10:00:00,18:00:00,Yes,No
Historic BBC Studio Tours,https://programme.openhouse.org.uk/listings/12741,"We are offering people a rare glimpse of the birthplace of television with guided tours of Studios A & B. 
The BBC first arrived at the Palace in 1935, as the race to broadcast via the latest innovation in entertainment – television – gathered pace. The corporation leased the entire East Wing of the Palace, with former dining rooms transformed into Studios.","Alexandra Palace, Alexandra Palace Way, Wood Green, N22 7AY",51.59405,-0.12976,10:30:00,14:30:00,Yes,No
"Holy Cross Church, Cromer Street",https://programme.openhouse.org.uk/listings/9100,"Grade ll listed Oxford Movement Anglican church built 1887-88. Historic England describe the exterior as ‘quirky and aggressive’ but the  interior is ‘very spare and elegant, the proportions subtly adjusted’. The building is also interesting for its 2019 conversion of a crypt area, partly now rented commercially to a drama school but also used for community groups.","Cromer Street, WC1H 8JU",51.5275753,-0.1235712,11:00:00,16:00:00,No,
Holy Trinity,https://programme.openhouse.org.uk/listings/12375,"The Florence Trust is working from Holy Trinity for 15 months, running its international artist in residence programme from the grade II listed Holy Trinity on Cloudesley square.  You are invited to the open studios and a look around the marvellous building.","Holy Trinity church, Cloudesley Square, N1 0HN",51.5374,-0.1082,10:00:00,18:00:00,No,
Hoxton Hall,https://programme.openhouse.org.uk/listings/11666,"Hoxton Hall was originally built in 1863 by James Mortimer, in the traditional music hall architecture style, with the intention to combine instruction with amusement.  It is a Grade 2 Listed Plus building and one of 5 Music Hall's left.","130 Hoxton Street, N1 6SH",51.5317655,-0.0800497,11:00:00,16:15:00,Yes,No
Ideas Aren’t Linear,https://programme.openhouse.org.uk/listings/12803,"An opportunity to explore our permanent “Home of Ideas” and to visit our current exhibition “Ideas Aren’t Linear” – a non-linear journey through the design processes of two recently completed projects: The Energy Hub and Aylesbury Health Centre, known affectionately as “The Elephant and The Castle” – exposing the twists, about-turns and serendipity that informed their unexpected relationship.","215 Mare Street, E8 3QE",51.54152,-0.05552,15:00:00,16:30:00,Yes,No
International Maritime Organization,https://programme.openhouse.org.uk/listings/7730,"The International Maritime Organization is a specialized agency of the UN, responsible for the safety and security of shipping and the prevention of marine pollution by ships. It is the only UN organization with headquarters in London.","4 Albert Embankment, SE1 7SR",51.4936018,-0.1210654,10:00:00,16:00:00,No,
Isleworth Public Hall,https://programme.openhouse.org.uk/listings/3004,Well-executed and colourfully detailed example of Victorian reading and vestry rooms (1863) with added public hall by S. Woodridge 1887. Beautiful details inside and out.,"South Street, Isleworth, TW7 7BG",51.4686072,-0.32524,15:30:00,18:00:00,Yes,No
Islington Social Housing Cycle tour,https://programme.openhouse.org.uk/listings/12570,"A short cycle tour of Pollard Thomas Edwards' social housing projects in Islington - including RIBA Award winning Dover Court Estate. 

If you would like to book a ticket we ask you to consider donating £20 to Crisis - our charity partner as we celebrate our 50th Anniversary https://www.justgiving.com/page/pollardthomasedwards","Diespeker Wharf, N1 8JX",51.53234,-0.09928,10:00:00,15:30:00,Yes,No
Isokon Building (Lawn Road Flats),https://programme.openhouse.org.uk/listings/768,"Grade I listed 1934 residential block of flats in Hampstead, designed by the Canadian modernist architect Wells Coates for clients Jack and Molly Pritchard. English Heritage blue plaque for Bauhaus masters Gropius, Breuer and Moholy-Nagy.","Lawn Road, NW3 2XD",51.5522126,-0.1618582,11:00:00,16:00:00,No,
"JTP Studios, Pennington Street Warehouse",https://programme.openhouse.org.uk/listings/8726,"Pennington Street Warehouse is a Grade II Listed Warehouse, sensitively adapted in 2019 into a vibrant and creative home for architects & masterplanners, JTP.","JTP Studios, Unit 5, The Rum Warehouse, Pennington Street, E1W 2AP",51.50867419999999,-0.0630976,10:00:00,16:00:00,No,
Jackson Lane Arts Centre,https://programme.openhouse.org.uk/listings/10874,"Jacksons Lane’s year-round programme of contemporary performance, arts participation and cultural education exists to empower, and ignite creativity within, diverse communities & work tirelessly to overcome traditional barriers through art.","Jacksons Lane, 269a Archway Road, N6 5AA",51.5765813,-0.1454343,10:00:00,22:00:00,No,
Kaymet Factory,https://programme.openhouse.org.uk/listings/6826,"The operational factory of Kaymet, a maker of trays and trolleys since 1947. A hidden 1950s building with a small yard, originally a printing works. It is brick built, with clear-storey glazing and tubular truss north-light main shed roof.","52 Ossory Road, SE1 5AN",51.48474239999999,-0.0710449,10:00:00,17:00:00,No,
King's College London: Museum of Life Sciences,https://programme.openhouse.org.uk/listings/7471,"This rarely opened space began as a medical school library in 1902 as part of Guy's Hospital Medical School. It then became a more general bioscience library, part of which iin 2009 the Museum of Life Sciences.  Building of red brick  with additional stonework and partially covered in creeper. Internally are carved oak cabinets and ornate columns.","Hodgkin Building, Guy' Campus, King's College London, SE1 1UL",51.5030513,-0.089449,11:00:00,16:00:00,No,
King's Cross Masterplan,https://programme.openhouse.org.uk/listings/7788,The King’s Cross Masterplan established a framework for the incremental redevelopment of this industrial heritage site through a mix of uses and a network of public spaces structuring new urban blocks and knitting the site into its context.,"11 Stable Street, N1C 4AB",51.5366379,-0.12543,10:00:00,12:00:00,Yes,No
Kirkaldy's Testing Works,https://programme.openhouse.org.uk/listings/856,"Proudly carved over the door are the words ‘Facts not Opinions’. Inside, the authentic sight - and smell - of Kirkaldy’s Testing and Experimenting Works is a unique and direct link with an ingenious age of engineering.","99 Southwark Street, SE1 0JF",51.5058942,-0.1014711,10:30:00,14:30:00,No,
Kribi Coffee Roastery,https://programme.openhouse.org.uk/listings/12767,Join us for a special open day at Kribi Coffee UK! Owners Anne and Luca will guide you on a tour through the air roastery and share the rich story of Cameroonian coffee and their family’s connection to the farmers and the land. There will be live demonstrations of the coffee air roaster and some sample coffee to try!,"Unit C8, Argall Avenue, E10 7QP",51.57116,-0.04343,10:00:00,15:00:00,No,
La Sainte Union Catholic School,https://programme.openhouse.org.uk/listings/10598,"Founded in 1861 by a group of French nuns, La Sainte Union has a rich history. See the original Georgian site, chapel and its 142-year-old organ, plus modern stained glass windows by Patrick Pollen, LSU’s own orchard and the 60s extension.","Highgate Road, NW5 1RP",51.5599528,-0.1497769,11:30:00,16:30:00,No,
Lakeside Centre,https://programme.openhouse.org.uk/listings/4547,"Iconic brutalist building in the heart of Thamesmead, renovation led by Bow Arts Trust in partnership with Peabody, supported by the Mayor’s London Regeneration Fund (LEAP). The centre has opened as a cultural hub for Thamesmead.","Southmere Lake Complex, 2 Bazalgette Way (formerly Belvedere Road)",51.5009688,0.1242316,10:00:00,16:00:00,No,
Lansbury Lawrence Primary School,https://programme.openhouse.org.uk/listings/9135,Lansbury Lawrence (formally Susan Lawrence and Elizabeth Lansbury) opened in the 1951 Festival of Britain as a showpiece of the Live Architecture exhibition in the Lansbury Estate. An interesting mid-century design with original features.,"Cordelia Street, Poplar, E14 6DZ",51.5137062,-0.0192065,10:00:00,11:00:00,Yes,No
Lavender Road: A home designed with vistas,https://programme.openhouse.org.uk/listings/12566,"With historic Lavender Pond at the doorstep of the house and the river Thames around the corner, this house has been designed around the urban realms it sits in. With vistas created for light and tranquility, it sits surrounded by nature, but bang in the middle of London. The house is designed with clean scandi lines, as an ode to minimalism and functionality. Petite & Gorgeous...","28 Lavender Road, SE16 5DZ",51.5063,-0.03899,11:00:00,16:30:00,No,
Leathersellers' Hall,https://programme.openhouse.org.uk/listings/3489,"New Livery Hall behind a retained early 20th century façade. This is the seventh Hall in the Leathersellers' Company's history since its foundation in the Middle Ages, and is located on the site of its second Hall.","7 St Helen's Place, Bishopsgate, EC3A 6AB",51.5152593,-0.0822059,10:00:00,17:00:00,Yes,No
Lewisham Arthouse,https://programme.openhouse.org.uk/listings/12118,"Lewisham Arthouse (LAH) is a not-for-profit artist-led co-operative, based in the formerly Deptford Central Library, Grade II listed, 1910 -1914, Designed by A. Brumwell Thomas (1868 -1948)","Lewisham Arthouse, SE14 6PD",51.4715,-0.03076,10:00:00,18:00:00,No,
Lillington Gardens Estate,https://programme.openhouse.org.uk/listings/921,"Lillington Gardens in Pimlico, Westminster, was built from 1961 to 1971 by Darbourne & Darke. It set a new standard in high-density public housing with medium-rise structures and private gardens. Blending well with nearby Victorian surroundings, the modernist design won multiple awards and was praised by Nikolaus Pevsner as ""the most interesting recent housing in inner London.","Vauxhall Bridge Road, SW1V 2LF",51.49149,-0.13626,10:00:00,16:15:00,Yes,No
London Fields extension,https://programme.openhouse.org.uk/listings/12813,"VATRAA's fibre-reinforced concrete extension to a Victorian house in London Fields is a project about materials, light and views. On the inside, the rough concrete floor, bench and worktop are balanced by oak and a jute fabric inspired by the client's art collection. On the outside, a fibre-reinforced external leaf reduced the concrete amount by 40% compared to a regular steel reinforcement.","6 Malvern Road, E8 3LT",51.53995,-0.0672,10:00:00,17:00:00,No,
London Fire Brigade Memorial Hall,https://programme.openhouse.org.uk/listings/11781,"Open Day: LFB's grade II listed Memorial Hall, part of the LFB's Art Deco Headquarters, opened in 1937. The hall is rarely seen by the public & contains stunning large memorials by Gilbert Bayes depicting episodes in the Fire Brigade's history and post-war memorials commemorating firefighters lost protecting London in the Second World War.","8 Albert Embankment, SE1 7SP",51.49253,-0.1215,11:00:00,16:00:00,No,
London National Park City Visitors Centre,https://programme.openhouse.org.uk/listings/12692,"London is the world's first National Park City, and our visitors centre at 109 Fleet Street is the entry point to hundreds of places to visit and things to do across a greener, healthier and wilder London.","109 Fleet Street, EC4A 2AB",51.51427,-0.10482,10:00:00,18:00:00,No,
London Open Form Pavilion of Air,https://programme.openhouse.org.uk/listings/11855,"A floating acoustic architecture, playfully reframing public space as an essential community engagement through sound & site mapping. Accessed by smartphone, headphones & echoes.xyz app, the Pavilion is located outside the Serpentine Gallery,. Drawing on Oskar & Zofia Hansen’s Open Form architectural concept it is one of 15 in a series including Venice, Berlin, Dublin, Bergen and Arctic Norway.","Kensington Gardens, W2 3XA",51.50478,-0.175,07:00:00,19:30:00,No,
London's Roman Amphitheatre,https://programme.openhouse.org.uk/listings/10902,"Regular combined guided tours of Amphitheatre and Guildhall Art Gallery at 12.15pm & 1.15pm on Tuesdays, Wednesdays, Thursdays, Fridays, Saturdays & Sundays. Additional Open House tours on 21 and 22 September, please book via Guildhall Art Gallery listing.
The capital’s only known Roman Amphitheatre","London’s Roman Amphitheatre at Guildhall Art Gallery, Guildhall Yard",51.5155471,-0.0914547,11:00:00,15:45:00,No,
London's skyscrapers walking tour,https://programme.openhouse.org.uk/listings/12604,"London's skyline is rapidly growing! But 'skyscrapers' have been with us for millennia.  Join Ben Eley on a walking tour of London's most iconic skyscraper cluster – the ancient commercial heart of the City of London.  This tour considers the many social and economic influences which have pushed buildings higher, reflects on campaigns which seek to curtail tall building aspirations, and focusses in on some of London's most famous skyscrapers.","Tower Hill Underground Station, Sundial at Tower Hill, EC3N 2LY",51.51008,-0.07503,10:00:00,12:30:00,Yes,No
Maggie's Barts,https://programme.openhouse.org.uk/listings/6604,"Maggie's Barts opened in December 2017. Maggie's Centres are unique, welcoming and uplifting places with qualified staff on hand to provide free practical, emotional and social support for people with cancer, their families and friends.","St Bartholomew's Hospital, EC1A 7BE",51.51786,-0.10017,10:00:00,16:00:00,Yes,No
Manbey Pod,https://programme.openhouse.org.uk/listings/12664,"Manbey Pod is a charming and functional garden studio located in East London, designed by Studio Bark to provide a family amenity space, storage area, and textile studio. It was self-built by the home-owners, Peter and Joan, using Studio Bark's revolutionary U-Build construction system; manufactured off-site as a kit of parts and built by Peter and Joan in their garden.","44 Manbey Grove, E15 1EX",51.54502,0.00723,10:00:00,16:00:00,No,
Mansion House,https://programme.openhouse.org.uk/listings/1033,"The official residence of the Lord Mayor of the City of London, retaining its 18C character, with superb plasterwork and wood carving.","Walbrook, EC4N 8BH",51.5128676,-0.0900498,11:00:00,15:45:00,Yes,No
Martello Street Artist Open Studios,https://programme.openhouse.org.uk/listings/12642,"Come and discover work by some of the UK’s top artists – from internationally acclaimed names to new and emerging talent. See behind the scenes of a working studio, meet artists, photographers, designers, illustrators and all sorts of creative people face to face and buy works of art directly from their studio.","10 Martello Street, E8 3PE",51.54105,-0.05867,12:00:00,17:00:00,No,
Modern Architecture in Blackheath walk,https://programme.openhouse.org.uk/listings/10273,"Architect Ana Sutherland and author of a newly published book 'Modern Buildings in Blackheath and Greenwich' will lead a guided tour of the Cator Estate. Covering Eric Lyons' Span estates and unique modernist homes designed by architects Patrick Gwynne, Peter Moro and Walter Greaves.","1 Blackheath Park, Blackheath, SE3 9RN",51.4641667,0.0095829,10:00:00,12:00:00,Yes,No
Mornington Hall,https://programme.openhouse.org.uk/listings/12586,"A short film of the 100 year history of the building covering its time as a school, wartime ARP station and British Restaurant and school dinners centre. Display boards and volunteers available to answer any questions or show people around the space.  Teas and coffees and cakes, commemorative brochures and mugs will be available for purchase. Live music of songs from the last 100 years.","Mornington Hall, The Green Walk, Chingford, E4 7ER",51.63186,0.00115,10:30:00,12:30:00,No,
Museum of Croydon Behind the Scenes Tour,https://programme.openhouse.org.uk/listings/12045,We propose to open the Museum of Croydon stores for an intimate guided tour of our stored collections. This activity will take approximately 1hr and can cater for a maximum of 8 people.,"Croydon Clocktower, Katharine St, CR9 1ET",51.37226,-0.09939,11:00:00,15:00:00,Yes,No
Museum of the Order of St John,https://programme.openhouse.org.uk/listings/5214,"St John's Gate and the Priory Church are the remaining buildings from the medieval priory of the Knights Hospitaller and are both Grade I listed. St John’s Gate dates from 1504 and features stunning Victorian and Edwardian interiors. The Priory Church was reconstructed by Seely & Paget after the Second World War, but its 11th-century crypt survives.","St John's Gate, St John's Lane, Clerkenwell, EC1M 4DA",51.5219889,-0.102746,13:00:00,18:00:00,No,
Muswell Hill Baptist Church,https://programme.openhouse.org.uk/listings/11196,A notable example of George Baines' work from the heyday of London free church buildings. It combines Baptist simplicity with Edwardian decor and spaciousness and is broadly unaltered.  It was built to complement the surrounding townscape.,"Muswell Hill Baptist Church, Dukes Avenue, N10 2PT",51.5916775,-0.1411344,11:00:00,15:00:00,No,
Myddelton House Gardens,https://programme.openhouse.org.uk/listings/12651,"Visit the life long home of Edward Augustus Bowles, one of the 20th century's great gardeners, that was restored by  Heritage Lottery Fund in 2011 to tell the story of the famous botanist’s life and gardening style.","Myddelton House Gardens, Bulls Cross, Enfield, EN2 9HG",51.67527,-0.06078,10:00:00,16:00:00,No,
National Audit Office,https://programme.openhouse.org.uk/listings/119,"A Grade II listed building that is home to the NAO, the UK’s independent public spending watchdog. We support Parliament in holding government to account and help improve public services through our audits. Opened in 1939 by Imperial Airways, subsequently BOAC and then British Airways as an airport terminal. The NAO has occupied the building since 1986.","157-197 Buckingham Palace Road, SW1W 9SP",51.4917984,-0.1480592,11:00:00,16:00:00,Yes,No
National Liberal Club,https://programme.openhouse.org.uk/listings/1167,"An impressive Victorian neo-Classical building overlooking the Embankment of the river Thames. It is the second-largest clubhouse ever built, the first London building to incorporate a lift and to be entirely lit by electric lighting.","Whitehall Place, SW1A 2HE",51.5064534,-0.1236299,10:00:00,12:45:00,Yes,No
National Youth Theatre,https://programme.openhouse.org.uk/listings/12046,"Public Tours tours by Architect's DSDHA and the team at National Youth Theatre of the NYT's recently redeveloped RIBA-award-winning building, which created the UK's first theatre dedicated to staging work created by young people. This project is supported by the Mayor of London.","National Youth Theatre, 443-445 Holloway Road, N7 6LW",51.55927,-0.12248,13:00:00,13:20:00,Yes,No
Neckstamper Brewery,https://programme.openhouse.org.uk/listings/12828,Every hour on the hour Neckstamper will give a brewery tour explaining our brewing process and equipment we use. The brewery taproom will also be open for the public to enjoy our beer or purchase cans to take away.,"Unit 3, Cromwell Industrial Estate, Staffa Road, E10 7QZ",51.57032,-0.04076,14:00:00,19:00:00,No,
New Cross and Deptford: a radical history through music,https://programme.openhouse.org.uk/listings/12577,"Deptford's history is mainly linked to the river, but it also has a rich musical and cultural heritage. This walking tour will explore the sounds of Deptford and New Cross, along the way telling the radical – and often tragic – history of this diverse area, from police clashes at the Moonshot Club to groundbreaking community arts projects at the Albany.","Goldsmiths University of London, 8 Lewisham Way, SE14 6NW",51.47427,-0.03541,11:00:00,12:30:00,Yes,No
Nirvana Brewery,https://programme.openhouse.org.uk/listings/12754,"Join us for an alcohol-free beer tasting and brewery tour! Our shutter will be open all afternoon for you to pop in and join us for a beer. Our brewer James will lead a brewery-tour session at 2pm giving the low-down on the magic behind alcohol-free brewing, followed by a guided tasting with a selection of four great Nirvana beers.","Unit T6, Leyton Industrial Village, Argall Avenue, E10 7QP",51.57054,-0.04372,13:00:00,18:00:00,Yes,No
North London Buddhist Centre,https://programme.openhouse.org.uk/listings/11996,"The North London Buddhist Centre has been described as an 'oasis along the Holloway road'. It just celebrated its 20th anniversary in its current premises built in 1980 with some elements of Georgian style. The building houses two shrine rooms, a café area and  bodywork studio.","North London Buddhist Centre, 72 Holloway Road, N7 8GJ",51.54942,-0.10771,13:00:00,17:00:00,Yes,No
Norton Folgate,https://programme.openhouse.org.uk/listings/12578,"Join an architect-led tours of the newly completed Norton Folgate development. Explore the newly enhanced public spaces, see how historic buildings have been brought back into use, and take a look within the buildings which will be home to the burgeoning tech and creative industries in the Spitalfields and Shoreditch area.","Norton Folgate, E1 6PL",51.52103,-0.07868,09:00:00,18:00:00,Yes,No
Olden Community Garden,https://programme.openhouse.org.uk/listings/10727,"Olden Community Garden - a hidden 2.5 acre green oasis along a railway embankment in Islington. Sit beside the lawn; listen to birdsong; follow trails through the woodland, meadow and orchard; discover vegetable patches and a wildlife pond.","Whistler Street (opposite no 22), N5 1NJ",51.5523926,-0.1044575,11:00:00,15:00:00,No,
Our Yard at Clitterhouse Farm,https://programme.openhouse.org.uk/listings/8339,Our Yard at Clitterhouse Farm is a community enterprise working to protect historic Victorian farm outbuildings and transform the site into a vibrant and sustainable community hub. Shortlisted for the Open City Stewardship Awards 2021.,"Clitterhouse Playing Fields, Claremont Rd, NW2 1AP",51.5688198,-0.2158112,13:00:00,16:00:00,No,
Painters' Hall,https://programme.openhouse.org.uk/listings/1311,"Acquired in 1532 and rebuilt in 1670 after the Great Fire, the Hall was partially destroyed in 1941 by enemy action and rebuilt in a Neo-Georgian style in 1960. The original charter, portraiture and stained glass are of particular interest.","9 Little Trinity Lane, EC4V 2AD",51.5116609,-0.09499049999999999,10:00:00,15:00:00,No,
Parish Church of St Andrew Enfield,https://programme.openhouse.org.uk/listings/2479,"Grade 2 Listed church, that has been much added to over the 800 years of its existence. We have  recently refurbished the organ which has a fine circa 1750s wooden organ case.  The Church has an eight-bell peal still in weekly use– the oldest bell dates from 1680.","The Market Place, Church Street, Enfield, EN2 6LL",51.65278,-0.08199,10:00:00,16:00:00,No,
Pavilion on The Green,https://programme.openhouse.org.uk/listings/12530,"The Green is an underutilized natural asset located at the heart of Edmonton Green Town Centre. The Pavilion, co-designed with the local community plays a crucial role in supporting the proactive use of the space and fosters a stronger connection to the area. This initiative informs The Green's long-term vision through ideas and feedback gathered from a programme of community led activities.","The Broadway- Edmonton  Green, N9 9DX",51.6242,-0.06071,14:00:00,18:00:00,No,
Paxton Locher House,https://programme.openhouse.org.uk/listings/1334,A unique modern courtyard house making brilliant use of a restricted site. A retractable glass roof gives wonderful natural light and opens the house to the sky in dry weather.,"8-9 Clerkenwell Green, EC1R 0DE",51.522989,-0.1045787,10:00:00,17:00:00,No,
Peckham House,https://programme.openhouse.org.uk/listings/12589,"Surman Weston has completed its first self-build project, Peckham House, in South London.  A resilient, characterful, and experiential family home, that reflects our personalities and architectural interests.","15 Cicely Road, SE15 5HW",51.47114,-0.06633,10:00:00,17:00:00,No,
People's Museum Somers Town,https://programme.openhouse.org.uk/listings/10952,"A great little museum set in the Grade 2 listed Ossulston Estate - a prime example of pre-war Social housing - based on Karl Marz Hof in Vienna.
Open Tuesday to Friday 9am-5pm, plus Saturday 14th, Saturday 21st and Sunday 22nd September 11am-4pm.","52 Phoenix Road, NW1 1ES",51.5310613,-0.1309568,11:00:00,16:00:00,Yes,No
Periscope Open House,https://programme.openhouse.org.uk/listings/12552,"Periscope is a spatial design agency focused on regenerative design and public architecture.

We welcome visitors to join us through a day of workshops and talks around some of the practice's recent works, stimulating conversations on green and blue infrastructures, master planning and urbanism, public realm and landscape.","2-4 Tottenham Road, N1 4BZ",51.54519,-0.07635,10:30:00,16:30:00,Yes,No
Pirouette House,https://programme.openhouse.org.uk/listings/12761,Overhaul of an ex-local authority home in Islington with a new timber cloister that encircles a hidden courtyard and a series of unexpected spaces that pirouette around a triangular column.,"12 Davey Close, N7 8BB",51.5457,-0.11281,11:00:00,16:00:00,No,
Pitzhanger Manor & Gallery,https://programme.openhouse.org.uk/listings/1369,"Designed by Sir John Soane as a family home and country residence. Following a three-year conservation project,  Pitzhanger has been returned to Soane’s innovative original design and re-opened to the public in March 2019.","Mattock Lane, Ealing, W5 5EQ",51.51144919999999,-0.3073139,10:00:00,17:00:00,Yes,No
Pollard Thomas Edwards - Diespeker Wharf,https://programme.openhouse.org.uk/listings/1375,"Conversion of a canalside Victorian warehouse, formerly a terrazzo factory, into spacious offices, garden and glazed extension with one of the best waterside views in London. Refurbished, 2022.","Diespeker Wharf, 38 Graham Street, N1 8JX",51.5324006,-0.0993428,10:00:00,16:00:00,No,
Postwar and post-welfare North London walking tour,https://programme.openhouse.org.uk/listings/12816,"This walking tour will draw comparisons between the progress and demise of the postwar welfare state. Focusing on housing and healthcare, the tour will present prominent examples from the era  and discuss ways these are being adapted to meet contemporary challenges, such as the housing crisis and ongoing maintenance. The ambition of the tour is to reassess the value of postwar architecture today.","Outside Belsize Park Tube Station, Haverstock Hill, NW3 2AL",51.55046,-0.16429,11:00:00,13:30:00,Yes,No
Quaker Meeting House - Brentford & Isleworth,https://programme.openhouse.org.uk/listings/2688,"The B&I Meeting House is a Grade II* listed late-Georgian Quaker Meeting House (1785), surrounded by peaceful and green gardens and a Quaker burial ground. Still in active use today, the architecture includes unique examples of old Quaker practices no longer found in more modern Meetings. Consistent renovations and updates have added new rooms, accessible ramps and toilets, and a full kitchen.","Quakers Lane, Isleworth, TW7 5AZ",51.4791863,-0.3260394,10:00:00,18:00:00,No,
Quaker Meeting House - Wandsworth,https://programme.openhouse.org.uk/listings/1422,"Grade II listed, this is the oldest Quaker meeting house in London. Built in 1778, it has original panelling & a minister's gallery. See flagstones from the earlier 1674 buildings. Also a secluded burial ground & garden. Free refreshments.","59 Wandsworth High Street, Wandsworth, SW18 2PT",51.4565224,-0.1917397,12:00:00,16:30:00,No,
RIBA,https://programme.openhouse.org.uk/listings/1464,Fine example of Grade II* listed 1930s architecture with many original features and fittings and home to the world-class British Architectural Library collections.,"66 Portland Place, W1B 1AD",51.5211811,-0.1451121,11:00:00,16:00:00,No,
Rainham Parish Church of St Helen and St Giles,https://programme.openhouse.org.uk/listings/2507,"Grade I listed Norman church with notable chancel arch with chevron and nailhead ornament, built by Richard De Lucy.","The Broadway, Rainham, RM13 9YW",51.5497309,0.1994119,10:00:00,16:00:00,No,
Redbridge Institute of Adult Education,https://programme.openhouse.org.uk/listings/12409,"Redbridge Institute of Adult Education, is opening its doors, for visitors to access 120 years of lifelong learning  history.
Visitors will benefit from workshops in employability skills such as; interview skills, digital skills and CV writing, whilst accessing an exhibition, displaying the rich history of  adult education in Redbridge over the last 120 years.","Gaysham Avenue, Illford, IG2 6TD",51.57955,0.07159,10:00:00,15:00:00,No,
Regent Place,https://programme.openhouse.org.uk/listings/12574,Built around a central green courtyard; the scheme completed for Gateway Housing Association consists of 32 shared ownership homes; including 3-bedroom maisonettes and 3-wheelchair units and features an under-5s play area. Arched entrances to individual dwellings introduce a human scale and echo other features in the street. The parapet detail is a nod to the Victorian heritage of the area.,"80 Rosebank Gardens, E3 5EF",51.53108,-0.03264,09:45:00,14:00:00,No,
Regent Street Cinema (The University of Westminster),https://programme.openhouse.org.uk/listings/2244,"The University of Westminster was one of the first polytechnics in the UK – established in 1838, to educate the working people of London, regardless of background and financial status. Housed in the building is the Regent Street Cinema, widely regarded as the ‘birthplace of British cinema’, with the first public premiere of film in the UK by the Lumière Brothers using the Cinématographe in 1896.","307 Regent Street, W1B 2HW",51.5168,-0.14285,10:00:00,14:00:00,No,
Rio Cinema,https://programme.openhouse.org.uk/listings/1478,"Grade II listed Art Deco cinema with stalls and circle created in 1937 within the shell of an Edwardian cinema, retaining many original features.
2017 new auditorium created in basement space.","107 Kingsland High Street, Dalston, E8 2PB",51.5496961,-0.07556439999999999,10:00:00,11:00:00,Yes,No
Roca London Gallery,https://programme.openhouse.org.uk/listings/5322,"Designed by the world renowned Zaha Hadid Architects, Roca London Gallery is a unique space where water acts as the architectural theme. Guests can also visit 'Bio-Spaces: Regenerative Resilient Futures', a major exhibition exploring biodiversity and biomimicry in design, as well as biomorphic design, bio-based materials and bioregenerative design.","Station Court, Townmead Road, SW6 2PY",51.47448,-0.18362,11:00:00,17:00:00,No,
Romanian Cultural Institute,https://programme.openhouse.org.uk/listings/5056,"Situated in one of the largest and grandest 19th century squares in London, 1 Belgrave Square was acquired by Romania in 1936 and is now home to the Romanian Cultural Institute.","1 Belgrave Square, SW1X 8PH",51.500248,-0.1539844,11:00:00,17:00:00,Yes,No
Royal College of Physicians,https://programme.openhouse.org.uk/listings/1527,"Striking, provocative and one of London’s few Grade I listed post-war buildings. As we celebrate 60 years since our unique building was opened we invite you to drop in, explore our archives, take a tour and more to discover this award-winning building from its modernist lines to dramatic interiors. 

See https://history.rcplondon.ac.uk/event/open-house-festival-2024 for more.","11 St Andrew's Place, Regent's Park, NW1 4LE",51.5258654,-0.1452812,10:00:00,16:00:00,Yes,No
Royal Courts of Justice,https://programme.openhouse.org.uk/listings/1531,Architect - G.E Street's masterpiece and one of Victorian London's great public buildings. 13 Century Gothic given a Victorian interpretation. Commissioned by Queen Victoria to build the home for Civil Justice for the United Kingdom.,"Strand, WC2A 2LL",51.513803,-0.1135807,10:00:00,16:00:00,No,
Royal Pharmaceutical Society Museum,https://programme.openhouse.org.uk/listings/7230,"Join us for a free guided tour of the RPS Museum and Library and find out what crocodiles have to do with pharmacy!
Over 180 years old, the RPS Museum and Library is a hidden gem in East London, full of the weird and wonderful world of pharmacy history.
Find out how best to use bear’s grease and explore a collection of poisons even Agatha Christie would swoon at!","66 East Smithfield, E1W 1AW",51.50899039999999,-0.06840589999999999,10:00:00,16:00:00,No,
Run The City,https://programme.openhouse.org.uk/listings/12605,"Feeling uninspired by your neighbourhood? Compete with others to explore and rethink your city.

To play Run The City you just need Instagram and energy! Respond to live challenges by being the first to post. Race against wit, intellect and sheer curiosity to better understand your surroundings.

Investigate how much of the city is open for the public. Be curious and uncover more of London!","Anywhere in London, E9 7PJ",51.54228,-0.05299,10:00:00,22:00:00,No,
Saturday School: Quakers' Hall,https://programme.openhouse.org.uk/listings/12243,"Opening the doors of Croydon Quakers' Adult School Hall, built in an Arts & Crafts style in the 1900's as an educational community facility in the then rural borough centre. Archive materials on the history and design of the building will be present alongside a drop-in mixed media mapping and zine making workshop.","The Adult School Hall, 60 Park Lane, CR0 1ER",51.37037,-0.09722,11:00:00,16:00:00,No,
Senate House,https://programme.openhouse.org.uk/listings/1617,"London’s tallest secular building when it opened as the HQ of the University of London and home to the Ministry of Information during WWII, this Grade II* listed landmark features Classicism and Art Deco elements.","University of London, Malet Street, WC1E 7HU",51.5229378,-0.1308206,11:00:00,17:00:00,No,
Shaftesbury Hall,https://programme.openhouse.org.uk/listings/12442,"Shaftesbury Hall is a Tin Tabernacle  rebuilt by North London Samaritans in 2018 to replicate the original Hall built in the 1890s.
It has been owned by North London Samaritans for 50 years and since the rebuild is used as a Community Hub, with our branch of Samaritans at the rear.","Shaftesbury Hall, Herbert Road, N11 2QN",51.60712,-0.12107,13:00:00,17:00:00,No,
Sheppard Robson 77 Parkway,https://programme.openhouse.org.uk/listings/11127,"Nestled off a busy street in Camden, the former industrial building has been home to architectural firm Sheppard Robson for over 40 years. A series of additions have allowed more amenity, social spaces, and diversity in work settings.","77 Parkway , Camden Town, NW1 7PU",51.5373399,-0.14534,10:00:00,13:40:00,Yes,No
Shoreditch: Street Art & Graffiti,https://programme.openhouse.org.uk/listings/12432,"A guided walk of Shoreditch's street art and graffiti - an overview of the culture and significance of the local scene, led by a street art and graffiti expert, accompanied by Ballymore & Hammerson, developers of Bishopsgate Goodsyard.","68 Sclater Street, E1 6HR",51.5235,-0.07309,11:00:00,15:30:00,Yes,No
Shrewsbury House,https://programme.openhouse.org.uk/listings/7175,"Built in 1923, to replace its 18thC namesake, Grade ll listed Shrewsbury House is the focus of the Shrewsbury Park Estate conservation area, built 1934-1936 by John Laing and Sons. Two 20th Century Civil Defence buildings are situated within the grounds as well as listed garden features including a recently restored summer house.","Shrewsbury House, Bushmoor Crescent, SE18 3EG",51.4736553,0.0722406,10:00:00,16:30:00,Yes,No
Site-tours of Britain's first Migration Museum,https://programme.openhouse.org.uk/listings/12890,"Join us for a hard-hat visit exploring the literal foundations of Britain's first permanent Migration Museum, opening in the City of London in 2027/8. Find out about our 12-year journey to build Britain’s missing museum, our exciting plans for our permanent home, and discover some of the rich migration histories that surround the site.","65 Crutched Friars, EC3N 2ES",51.51231,-0.07735,11:00:00,13:30:00,Yes,No
Sitopia Farm,https://programme.openhouse.org.uk/listings/12266,"Sitopia Farm is a 2-acre organic and regenerative farm in the London Borough of Greenwich. We are on a mission to improve the food system. We grow vegetables and flowers and sell direct to our local community, to chefs, and to florists. Through our farming and events, courses and community volunteering, we reconnect people to the soil, the joy of good food and flowers, and to each other.","331 Shooters Hill, DA16 3RP",51.46739,0.07925,10:00:00,14:00:00,No,
Soho Photography Quarter,https://programme.openhouse.org.uk/listings/10735,"Tour of the new Soho Photography Quarter and The Photographers’ Gallery's refurbished ground floor, which has been redesigned to connect to this new public space that features a 45m ‘Artfrieze’ at the core of a curated public art programme.","16-18 Ramillies Street, W1F 7LW",51.51496789999999,-0.1390767,11:00:00,15:00:00,Yes,No
South East London Community Energy - Walking Tour,https://programme.openhouse.org.uk/listings/12591,Join South East London Community Energy for a walking tour of three community energy sites and a workshop on how community energy can help future-proof our city.,"Greenwich station, Greenwich High Road, SE10 8JQ",51.47804,-0.01336,11:00:00,16:00:00,Yes,No
Southwark Heritage Centre and Walworth Library,https://programme.openhouse.org.uk/listings/9722,This multi-use community space provides a combined library and heritage service. Visitors will enjoy unique access to the borough’s historic collections alongside a state-of-the-art library with a range of meeting and study spaces.,"145 Walworth Road, SE17 1RW",51.4917167,-0.0972493,13:00:00,17:00:00,No,
"St Alphege Church, Edmonton",https://programme.openhouse.org.uk/listings/7618,"The Church of St Alphege is Grade II listed, combining modernist Scandinavian and traditional ecclesiastical forms with good-quality sculptural enrichment; graceful, lofty interiors, with subtle detailing applied consistently throughout.","Rossdale Drive/Hertford Road, Lower Edmonton, N9 7LG",51.63884,-0.04892,12:00:00,15:00:00,No,
"St Anne's Church, Limehouse",https://programme.openhouse.org.uk/listings/6270,"St Anne's Limehouse has been described as 'the finest parish church in England.' Designed by Nicholas Hawksmoor, it is Grade I listed and one of the Major Churches in the Church of England. It is home to a thriving Christian congregation.","Three Colt Street, E14 8HH",51.5107426,-0.0303782,10:00:00,16:00:00,No,
St Barnabas Church,https://programme.openhouse.org.uk/listings/2491,"Early English style, full of Pre-Raphaelite decoration. Important works by Bodley, Comper and Cundy and windows by Kempe and Tower. First Oxford Movement church. Recently restored 10 bell peal","St Barnabas Street, SW1W 8PF",51.4900687,-0.1519005,10:00:00,17:00:00,No,
St Bartholomew's Hospital,https://programme.openhouse.org.uk/listings/12400,"The Grade I listed North Wing at St Bartholomew’s Hospital in the City of London houses two of England’s most important interiors, the Great Hall, and the Hogarth Stair with its large paintings by William Hogarth. The hospital was designed by architect James Gibbs and construction of the North Wing was completed in 1734.","St Bartholomew's Hospital, West Smithfield, EC1A 7BE",51.51749,-0.10004,11:00:00,17:00:00,Yes,No
St Bonifatius RC German Church,https://programme.openhouse.org.uk/listings/6768,Centre of German religious and cultural life for more than 200 years. Impressive 20th century church building with contributions from various German artists. Exhibition of German émigré artist Hans Feibusch „Five Stories from the Old Testament“ (courtesy of Ben Uri Gallery). Demonstration of the organ by resident organist Paul Dichtl.,"47 Adler Street, E1 1EE",51.5157818,-0.0672591,10:00:00,16:00:00,No,
"St Bride's Church, Fleet Street",https://programme.openhouse.org.uk/listings/10035,"Wren designed building of 1675, interior lost in blitz of 1940, reopened 1957 with 'Wren inspired' interior","St Bride's Church, St Bride's Avenue, EC4Y 8AU",51.5137695,-0.105544,10:00:00,15:00:00,No,
St James's Piccadilly,https://programme.openhouse.org.uk/listings/12659,"St James's Piccadilly is a Grade I listed Christopher Wren church in the heart of the West End. Completed in 1684, and known as the Artists' Church, its interiors include historic works of art by Grinling Gibbons (reredos, organ case and font), postwar Classical interiors by Albert Richardson, and contemporary art by Che Lovelace honouring the 18th-century abolitionist Quobna Ottobah Cugoano.","197 Piccadilly, W1J 9LL",51.50889,-0.13665,10:00:00,16:00:00,No,
St Lawrence Jewry,https://programme.openhouse.org.uk/listings/3866,"First built in 1136, St. Lawrence Jewry was destroyed in the Great Fire of 1666. The present church was designed by Sir Christopher Wren in 1671. The interiors were destroyed in December 1940 during the World War Two and restored in 1957, faithful to Wren’s original design. Extensive conservation works were completed in 2023.
The official church to the City of London Corporation.","Guildhall Yard, EC2V 5AA",51.51554640000001,-0.0923729,10:00:00,16:00:00,No,
St Luke Woodside,https://programme.openhouse.org.uk/listings/12547,"St Luke Woodside is a large, airy late Victorian church.
The fittings and art added over the 20th and into the 21st century tell the history of the Church of England in this part of London.","St. Lukes Church, Portland Road, SE25 4RB",51.38935,-0.06533,10:00:00,16:00:00,No,
"St Margaret's Church, Lee",https://programme.openhouse.org.uk/listings/8327,"The Church was built in 1839/41 as a white 'Hall-Church'. 
The 1870s Gothic Revivalism was overseen to a very high standard, by James Brooks and helped by 10 top craftsmen of the day. We also have a WWI Memorial by Violet Pinwill.","St Margarets Church,  Lee Terrace, SE13 5DN",51.4629384,0.0008993,10:00:00,16:00:00,Yes,No
"St Mark's Church, Biggin Hill",https://programme.openhouse.org.uk/listings/12514,"The Moving Church.
On his appointment to Biggin Hill in 1951, Rev Vivian Symons had the vision to bring the materials for a new church building from the disused All Saints, North Peckham. But first, he had to deconstruct a huge Victorian church, and bring it by himself to its new site.
However, St Mark's is Grade 2 listed, not because of its origin, but due to its style.","St Mark's Church, 10 Church Road, Biggin Hill, TN16 3LB",51.31178,0.03515,10:30:00,16:00:00,No,
St Mary Aldermary,https://programme.openhouse.org.uk/listings/1824,"The church was first mentioned c1080 and is the oldest of the City churches dedicated to St Mary. It became a Guild Church by virtue of the  City of London (Guild Churches) Act, 1952.  It is the only Wren church built in the Late Gothic style after the Great Fire of London, 1666, thanks to a bequest.","Watling Street, EC4M 9BW",51.51272,-0.09319,09:30:00,15:30:00,No,
St Mary Magdalene Church,https://programme.openhouse.org.uk/listings/945,Fine Victorian Gothic church with impressive windows and painted chancel. Paintings by Buckeridge and Westlake 1897. Restoration of chancel paintings was to celebrate the Diamond Jubilee of Queen Elizabeth II. (2012),"Windmill Hill, Enfield, EN2 7AJ",51.65378,-0.09637,10:00:00,17:00:00,No,
St Mary Magdalene Church & Nature Reserve,https://programme.openhouse.org.uk/listings/2526,"Grade I listed 12C church, with London's largest churchyard and one of the best-preserved Norman archways in the country, as well as other interesting features, including an anchorite's cell and 750-year-old wall paintings.","St Mary Magdalene Church, East Ham, High Street South/ Norman Road",51.5222513,0.05883790000000001,10:00:00,16:00:00,No,
St Mary The Virgin Wanstead,https://programme.openhouse.org.uk/listings/7051,"One of the finest examples of Georgian architecture. It has been hardly altered since built. The church is a rectangular building of Portland stone, with a projecting chancel. Two external walls were restored in 2019. Grade I listed","St Mary The Virgin Church , Overton Drive, E11 2LW",51.571268,0.0325268,12:00:00,16:00:00,No,
St Mary the Virgin Church,https://programme.openhouse.org.uk/listings/12444,"A church with 850 years of history to explore. Records show that the church's first Rector arrived in around 1175. By about 1200, a nave, a short chancel, and the lower two-thirds of the west tower had been built.; the top third of the tower was in place by 1400.  The building was enlarged to designs by George Gilbert Scott (north aisle, 1856) and John Oldrid Scott (south aisle, 1879).","Hayes Street, Hayes, Kent, BR2 7LH",51.37859,0.01767,10:00:00,16:00:00,Yes,No
St Mary's Church Bromley,https://programme.openhouse.org.uk/listings/11317,"A Victorian Church set in a wooded Churchyard, with a vibrant and striking set of Murals around the altar and the Choir.  Beautiful Stained Glass. 
Has indoor toilet facilities. 
A good quality well used organ in good condition, and excellent acoustics.","St Mary's Church, College Road, Bromley, BR1 3QG",51.4130778,0.015066,09:35:00,12:30:00,No,
"St Mary's Church, Battersea",https://programme.openhouse.org.uk/listings/2533,"Grade I listed Georgian church on the Thames. St Marys has outstanding interior and monuments; commemorating those associated with the church: Painter Turner, poet William Blake, botanist William Curtis and Benedict Arnold. 
St Marys is hosting an Open House Week Floral Festival with arrangements and installations by local and international florists, as well as displays of historical documents.","Battersea Church Road, SW11 3NA",51.4765358,-0.1747989,10:00:00,16:00:00,No,
St Mary's Convent,https://programme.openhouse.org.uk/listings/1831,"Convent in 18C Grade II listed house, c1764-1792, with original features including fine decorative plasterwork. Various additions including west wing (1913-15), and harmonious care home facilities and chapel by PRP Architects (1998-2001).","10 The Butts, Brentford, TW8 8BQ",51.4848522,-0.3081177,10:00:00,16:30:00,Yes,No
St Michael Cornhill,https://programme.openhouse.org.uk/listings/7713,"A church building has occupied this site for at least a thousand years.  Destroyed in the Great Fire of 1666, but rebuilt in the 1670s. Known as a Wren church, the architect was Nicholas Young.","St. Michael's Cornhill, St. Michael's Alley, EC3V 9DS",51.5132746,-0.08559929999999999,11:00:00,15:20:00,No,
St Michael and All Angels Church,https://programme.openhouse.org.uk/listings/7801,"James Maltby Bignall (1827-1885) worked in the practice of Sir George Gilbert Scott, the architect of St Pancras Station. The style of St Michael's is late Gothic Revival, in its size and height reminiscent of Northern European churches.","Northcote Road, Walthamstow, E17 6PQ",51.5855149,-0.0294614,11:00:00,17:00:00,No,
St Nicholas Church,https://programme.openhouse.org.uk/listings/6916,"Built in the Gothic style with dressed flint and stone dressings. There are monuments to Joseph Glover (1628), Lady Dorothy Brownlow (1699), William Earl Talbot (1782) and Isaac Littlebury (1740). The churchyard has 5 Grade II tombs.","St Nicholas Way, Sutton, SM1 1ST",51.3624214,-0.1948925,10:00:00,16:00:00,No,
