name,url,description,address,latitude,longitude,start_time,end_time,ticketed_events,fully_booked
1 Halliwick Road,https://openhouselondon.open-city.org.uk/listings/8767,"A low energy refurbishment of an Edwardian house, with rear extension and loft conversion. Wood fibre insulation, MVHR, airtightness layer, triple glazing, timber structure and low embodied energy materials.","1 Halliwick Road, N10 1AA",51.601234,-0.1482044,09:30:00,18:00:00,No,
186A Uxbridge Road,https://openhouselondon.open-city.org.uk/listings/10257,"Semi-detached residential 2-bed house totally refurbished by the owner-architect.
The main works included demolition of str. walls to achieve open plan living, new bathrooms, kitchen, porch, windows, green roof, UFH and insulation.","186A Uxbridge Road, W7 3TB",51.5082289,-0.3412144,10:00:00,19:00:00,No,
33,https://openhouselondon.open-city.org.uk/listings/10392,"A three-storey decorative folly, drawing sightlines through the central park towards the Victorian terraces beyond. The structure is timber studwork, with the design featuring a galvanized steel, powder coated staircase in vibrant yellow.","East Parkside, SE10 0FR",51.4983379,0.0085919,11:00:00,16:00:00,No,
38 Grosvenor Square,https://openhouselondon.open-city.org.uk/listings/10266,"A beautiful Mayfair town house c 1727 original to the Square. Transformed 1776 by John Johnson for Duke of Dorset; magnificent staircase, lavish ‘Adamesque’ entertaining suite. Mid-C19 Italianate front by Thomas Cundy.","38 Grosvenor Square, Mayfair, W1K 4AG",51.5105161,-0.1515592,10:00:00,16:00:00,No,
6 Orsman Road,https://openhouselondon.open-city.org.uk/listings/9039,"Designed with the whole life carbon footprint of the development in mind, this 5,000 sqm office building explores the principles of reduce, reuse and recycle using low carbon, low impact materials in both its structure and fit out.","6 Orsman Road, N1 5RA",51.5361487,-0.0787612,10:00:00,14:30:00,No,
"8 Stoneleigh Terrace (Highgate New Town, Stage 1)",https://openhouselondon.open-city.org.uk/listings/689,"Built during the golden era of Camden public housing under Borough Architect Sydney Cook. Peter Tábori  studied with Ernő Goldfinger and worked with Denys Lasdun, and met Ken Adie when both were students at the Regent Street Polytechnic.","8 Stoneleigh Terrace, N19 5TY",51.5644935,-0.1433845,14:00:00,17:00:00,No,
A Ruskinian Walk Through Shared Heritage,https://openhouselondon.open-city.org.uk/listings/4686,"Ruskinian walk from RIBA award-winning Chiswick Business Park, Gunnersbury Triangle Nature Reserve through South Acton Estate, birthplace of artist Patrick Caulfield; Woodlands Park Ice House; to home of Wm Willett, of Daylight Saving Time","Chiswick Business Park, 566, Chiswick High Road , W4 5YA",51.4930625,-0.2747704,12:00:00,14:00:00,No,
AHMM Mini-City Home Inventors,https://openhouselondon.open-city.org.uk/listings/10224,Join AHMM and shrink to the size of a mouse to enter the miniature world of ‘Home Inventors’. Decorate and model a tiny fun place to live and add it to a miniature city – watch it grow and change as homes are added to its streetscape!,"Crossrail Place, E14 5AB",51.5049381,-0.0194961,11:00:00,16:00:00,No,
Acland Burghley School,https://openhouselondon.open-city.org.uk/listings/2882,An important example of 1960s comprehensive school design in the Brutalist style. Acland Burghley has recently celebrated its 50th anniversary and a Grade II listing.,"93 Burghley Road, NW5 1UJ",51.5573971,-0.1396506,10:00:00,16:00:00,No,
Aga Khan Centre,https://openhouselondon.open-city.org.uk/listings/7273,"The Aga Khan Centre, designed by Pritzker prize winning architect Fumihiko Maki, houses the UK institutions of the Aga Khan Development Network. A unique feature are its six gardens inspired by different regions of the Muslim world.","Aga Khan Centre, 10 Handyside Street, N1C 4DN",51.5375703,-0.1248016,10:00:00,17:00:00,Yes,Unknown
Alderman Jones House,https://openhouselondon.open-city.org.uk/listings/8952,Becontree Estate two storey cottage house with garden located on a banjo.,"322 Parsloes Avenue , Dagenham, RM9 5QL",51.5499898,0.1326619,11:00:00,16:00:00,No,
All Hallows Twickenham,https://openhouselondon.open-city.org.uk/listings/8725,"All Hallows is a Grade I Listed building with an interesting history. Built by Sir Christopher Wren in Lombard Street, London. The tower, bells, cloister and many furnishings were moved to Twickenham in 1939 as the building had subsidence.","Erncroft Way, Twickenham , TW1 1DA",51.4536937,-0.3350975,10:00:00,16:00:00,No,
Amott Road,https://openhouselondon.open-city.org.uk/listings/9829,"Modest single storey side extension, internal kitchen refurbishment and external landscaping works.","19 Amott Road, Peckham, SE15 4HU",51.4639715,-0.0698211,10:00:00,16:00:00,No,
Anise Gallery / AVR London ,https://openhouselondon.open-city.org.uk/listings/6446,An 1870s Zion Chapel on the Malham Road industrial Estate recently renovated into a family home. Guided tours of the Old Chapel will be available throughout the day.,"27-33 Malham Road, SE23 1AH",51.4431677,-0.0483133,12:00:00,16:00:00,No,
Argentine Ambassador's Residence ,https://openhouselondon.open-city.org.uk/listings/2060,Known as the 'Independent North Mansion' and christened by Sydney Herbert as 'Belgrave Villa' and then simply 'The Villa' by his successor the 6th Duke of Richmond. Owned by Argentina since 1936 and with sumptuous interiors still intact.,"49 Belgrave Square, SW1X 8QZ",51.5005504,-0.1531897,12:00:00,17:00:00,No,
Ashbourne Grove,https://openhouselondon.open-city.org.uk/listings/10393,Single storey rear and side extension and full internal refurbishment of a ground floor flat.,"57 Ashbourne Grove, East Dulwich, SE22 8RN",51.4580591,-0.0784913,10:00:00,16:00:00,No,
Ashraya,https://openhouselondon.open-city.org.uk/listings/10310,"'Ashraya' is a contemporary low carbon 'Paragraph 79' house located in the heart of the Chiltern Hills, Hertfordshire. The house was designed by British architects Kirkland Fraser Moor (KFM) and completed in 2021.","Ashraya (Next to The Walled Garden), Stocks Road, Aldbury, HP23 5RZ",51.8182003,-0.6087733,11:00:00,16:00:00,No,
Barking Town Centre Tour,https://openhouselondon.open-city.org.uk/listings/5980,Barking town centre has seen significant development over recent years with substantial growth in housing and infrastructure. These guided tours will visit existing award winning schemes and set out the vision for the future of the town.,"1 Town Square, Barking, IG11 7LU",51.5360164,0.0787521,10:00:00,16:30:00,Yes,Unknown
Battersea's Hidden Parks,https://openhouselondon.open-city.org.uk/listings/10145,"Walking tour introducing nine smaller local parks and public gardens, and revealing their history. Led by Clare Graham, Chair of the Society's Open Spaces Committee and author of 'Discovering Battersea's Open Spaces: a walking guide'.","Battersea Park Road, Battersea, SW11 4LR",51.4727231,-0.1629321,14:00:00,15:30:00,Yes,Unknown
Beating the Bounds 2022,https://openhouselondon.open-city.org.uk/listings/9208,Setting off from the Festival of Britain site we cover icons of the South Bank before heading into the back streets to see different types of social housing. We travel over to Bankside to see an overview of the historic and contemporary.,"By Information Boards, Just North (upstream) of the London Eye, Jubilee gardens, SE1 7PB",51.5032973,-0.1195537,11:00:00,13:00:00,Yes,Unknown
Becontree Estate Walking Tours with Bill Jennings,https://openhouselondon.open-city.org.uk/listings/10448,"Tours with Bill Jennings, former Becontree Estate Housing Manager. Tours will highlight the heritage and history of the estate, including Valence House museum and library, Kingsley Hall and the unique architectural features of the estate","Becontree Ave, RM8 3HT",51.5589773,0.1338659,11:45:00,13:30:00,Yes,Unknown
Becontree Estate: Archive,https://openhouselondon.open-city.org.uk/listings/10325,"The archive and local studies centre at Valence House is a modern building housing the Borough of Barking and Dagenham's archive. It sits on the same site as Valence House Museum, a medieval moated manor house.","Valence House, Becontree Avenue, Dagenham, RM8 3HT",51.5583333,0.1341667,11:00:00,12:30:00,No,
BedZED,https://openhouselondon.open-city.org.uk/listings/1594,"The UK's first large-scale, mixed-use eco-village. Completed in 2002, BedZED is an inspiration for low carbon neighbourhoods promoting One Planet Living. Developed in partnership with Peabody, ZEDfactory and Bioregional.","BedZED, 24 Helios Road, SM6 7BZ",51.3821638,-0.1564912,10:00:00,13:45:00,No,
Blackheath Quaker Meeting House,https://openhouselondon.open-city.org.uk/listings/4022,"Small 1970s concrete building with a raised lantern. Designed to fit in with older buildings in the conservation area , and make the most of the split-level site. Architect Trevor Dannatt. Grade ll Listed.","Lawn Terrace, Blackheath, SE3 9LL",51.4650118,0.0070563,12:00:00,16:00:00,No,
Blackhorse Workshop,https://openhouselondon.open-city.org.uk/listings/6882,"A makerspace offering open access to a fully equipped wood and metal workshop with bench space, tools and machinery. Includes education space, community café and 40 studios for creative businesses.","Blackhorse Workshop, 1-2 Sutherland Road Path, E17 6BX",51.5918384,-0.0390213,12:00:00,17:00:00,No,
Bookend House,https://openhouselondon.open-city.org.uk/listings/9851,"A modest modern timber extension and refurbishment rationalizing internal spaces and adding an external staircase to connect outdoor spaces, located within the Stroud Green Conservation Area.","2a Ossian Road, N4 4EA",51.5744437,-0.114482,10:00:00,16:00:00,No,
Boston Manor House and Park Walks,https://openhouselondon.open-city.org.uk/listings/10142,"Visitors will be shown around Boston Manor Park on short walks led by volunteers, focusing on the History of Boston Manor House and area.
The House is closed as part of a 5 year redevelopment project, re-opening in Autumn/Winter 2022.","Boston Manor House, Boston Manor Road, Brentford, TW8 9JX",51.4919183,-0.3183739,09:00:00,17:00:00,No,
"Bridges, Towers and Domes",https://openhouselondon.open-city.org.uk/listings/10226,"Join NNBJ to experiment with a variety of building materials to create spectacular yet sustainable bridges, towers and domes to add to the impressive skyline of Canary Wharf.","Wood Wharf Harbour Quay Gardens, E14 9QG",51.5022866,-0.0131992,11:00:00,16:00:00,No,
Bridging AKTion,https://openhouselondon.open-city.org.uk/listings/10230,"Come and try out AKTII’s replica of Da Vinci’s bridge, conceived by Leonardo Da Vinci in the 16th century. Have a go at making your own mini self- supporting and sustainable version with a colourful lollipop sticks - no glue or tape needed!","Bank Street, E14 5JP",51.5034549,-0.0207634,11:00:00,16:00:00,No,
Brixton Windmill,https://openhouselondon.open-city.org.uk/listings/1971,One of very few windmills in London. Built 1816 when Brixton Hill was open fields and a working mill until 1934. Restored to working order 2011.,"Windmill Gardens,  west end of Blenheim Gardens, SW2 5DA",51.4542157,-0.1231536,13:00:00,17:00:00,Yes,Unknown
Bugs in the City,https://openhouselondon.open-city.org.uk/listings/10228,Design a Bug Hotel inspired by the incredible architecture of the Canary Wharf Estate that will encourage and support biodiversity.,"Wood Wharf Harbour Square Park, E14 9PZ",51.5028937,-0.0097578,11:00:00,16:00:00,No,
Build A Birdbox!,https://openhouselondon.open-city.org.uk/listings/10221,Encourage new ecosystems to flourish in Canary Wharf by creating your very own birdhouse complete with a teeny tiny paper canary!,"Westferry Circus , E14 4HD",51.5063356,-0.0261074,11:00:00,16:00:00,No,
C1,https://openhouselondon.open-city.org.uk/listings/10383,"An open and welcoming building, intent on fostering community. A rooftop basketball court crowns three storeys of studio space, all accessible via open-air staircases doubling as communal spaces.","c1, The Gateway Pavilions, Peninsula Square, SE10 0QE",51.5003067,0.0049082,11:00:00,16:00:00,No,
C3 - Bureau,https://openhouselondon.open-city.org.uk/listings/10391,"C3 is home to Bureau, a members club at the heart of Design District. Its undulating white facade creates informal pockets of space on the interior, ideal for flexible working models.","C3, Design District, Peninsula Square, SE10 0SQ",51.5000051,0.0057882,11:00:00,16:00:00,No,
Canada House ,https://openhouselondon.open-city.org.uk/listings/2783,"Canada's diplomatic home in the United Kingdom, the revitalised Canada House serves as a showcase for the very best of Canadian art and design in the 21C.","Trafalgar Square, SW1Y 5BJ",51.5076923,-0.1287592,11:00:00,17:45:00,No,
Canal Crafts,https://openhouselondon.open-city.org.uk/listings/10232,"Looking at London’s waterway heritage children will be given examples of traditional canal folk art and encouraged to design their own artwork.
The event will be situated on the east side of the basin on the grass.","East India Dock Basin, E14 9QS",51.5101252,0.0002131,11:00:00,16:00:00,No,
Canary Crooners,https://openhouselondon.open-city.org.uk/listings/10229,Celebrate the nature of Canary Wharf by chirping like the birds in Jubilee Park and bring the buildings to life through musical storytelling.,"Jubilee Park, E14 5JP",51.5029369,-0.0208077,11:00:00,16:00:00,No,
Carl Ludwig Franck and the Greening of Finsbury,https://openhouselondon.open-city.org.uk/listings/9087,"A walk around housing estates designed by Lubetkin and Tecton, Joseph Emberton, and Carl Ludwig Frank 1945-1965, for the Metroplitan Borough of Finsbury, all illustrating the principle of the 'Green City'.","Myddleton Square, , Islington, EC1R 1YB",51.5300014,-0.1075454,14:00:00,16:30:00,No,
Chiswick House,https://openhouselondon.open-city.org.uk/listings/2862,"One of the earliest and finest examples of Neo-Palladian design in the UK, Chiswick House is an 18C villa in west London. The 65 acres of Grade I listed gardens are the birthplace of the English Landscape Movement.","The Estate Office, Chiswick House, W4 2QN",51.4838077,-0.258696,10:00:00,16:00:00,Yes,Unknown
Christ Church,https://openhouselondon.open-city.org.uk/listings/9134,"The church is designed in the Gothic style, with a semicircular barrel-vaulted ceiling, a highly carved chancel screen and magnificent stained glass windows, notably the large West window, depicting Christ the King enthroned in heaven.","Christchurch Park , Sutton , SM2 5TN",51.3547581,-0.1890652,10:00:00,17:00:00,No,
Church of the Annunciation,https://openhouselondon.open-city.org.uk/listings/2469,"Fine Victorian church with large mosaic and painted reredos, screen and wall paintings and some unusual glass. Arts and crafts decoration by Nathaniel Westlake and Salviati Bros.","High Street, CHISLEHURST, BR7 5AQ",51.4188952,0.066874,10:00:00,16:00:00,No,
City Information Centre,https://openhouselondon.open-city.org.uk/listings/4009,London's main tourist information centre is clad in a specially manufactured system of 220 pre-finished stainless steel panels. This subtly reflective surface provides a striking counterpoint to St Paul's. RIBA Award Winner 2009.,"St Paul's Churchyard, EC4M 8BX",51.5132944,-0.0989526,10:00:00,16:00:00,No,
Colet House,https://openhouselondon.open-city.org.uk/listings/2929,"Unique building for artists with three large studios, all with north light through expansive windows. Originally called Barons Court Studio, Colet House was built 1885 on market garden land in what was a leafy backwater called Red Cow Lane.","151 Talgarth Road, W14 9DA",51.4905467,-0.2144088,10:00:00,16:00:00,No,
Coopers' Hall,https://openhouselondon.open-city.org.uk/listings/8446,"Coopers' Hall is a late 17th century, timber-framed merchant's house with a Georgian frontage. A Livery Hall since 1957, it features a fine Courtoom, dining room and an impressive staircase spiralling up the entire height of the building.","13 Devonshire Square, City of London, EC2M 4TH",51.5168085,-0.0792252,10:00:00,15:30:00,No,
Core Kensington,https://openhouselondon.open-city.org.uk/listings/10037,"A Pilates studio like no other. The design combines functionality with creative and beautiful solutions. Influenced by the Norwegian-Mexican background of the owners, full of bespoke elements and details. The result is warm and minimal.","Bridgeman House, 375 Kensington High Street, W14 8AZ",51.4956947,-0.2061257,15:00:00,18:00:00,No,
Cranford Stable Block & St Dunstan's Church,https://openhouselondon.open-city.org.uk/listings/2965,"18th century stables of former Cranford House, seat of the Earls of Berkeley. Ha-ha and enclosed courtyard (the Secret Garden). St. Dunstan's Church with 17th century funeral monuments; 20th century work by Martin Travers.","Cranford Country Park, The Parkway, Cranford, TW5 9RZ",51.4886645,-0.4161005,10:30:00,16:30:00,No,
Cressingham Gardens,https://openhouselondon.open-city.org.uk/listings/6047,Low-rise high density estate located next to Brockwell Park. Innovative design with pioneering architectural elements & echoing natural topography. Under threat of demolition by Lambeth council. Tours provided of estate and rotunda.,"Cressingham Gardens Rotunda, Tulse Hill , SW2 2QG",51.4470837,-0.1118877,10:00:00,16:00:00,No,
Crystal Palace Park – a tour with a London Blue Badge Tourist Guide,https://openhouselondon.open-city.org.uk/listings/9374,"Explore the world's first dinosaur models hidden in a south London park. The 30 Grade I listed, life-size statues of dinosaurs and other extinct animals at Crystal Palace Park have thrilled
visitors for 166 years. Tour is kids friendly.","Crystal Palace Park, Meeting point is Crystal Palace Overground/National Rail station, SE19 2AZ",51.4221083,-0.0709457,10:30:00,12:30:00,No,
"Cut Glass Studio Ltd, Tottenham Hale",https://openhouselondon.open-city.org.uk/listings/8330,Unit used as an art studio in a small industrial estate.,"15-16 The High Cross Centre, Fountayne Road, N15 4QN",51.5850051,-0.0614091,10:00:00,18:00:00,No,
DLR Underline Discovery Sessions,https://openhouselondon.open-city.org.uk/listings/10326,"DLR Underline Discovery Sessions covers a series of events for all ages focused on exploring the spaces under the DLR on the Isle of Dogs, with activities exploring the area's architecture, heritage and the public realm.","DLR Underline - Isle of Dogs, From Crossharbour DLR Station to South Dock, E14 3BQ",51.4958465,-0.0145118,11:00:00,18:00:00,No,
Darbishire Place (Peabody Whitechapel Estate),https://openhouselondon.open-city.org.uk/listings/5724,New block of 13 homes which completes an ensemble of six housing blocks surrounding an internal courtyard.The façade complements the existing Victorian buildings by Henry Astley Darbishire. RIBA Award Winner & Stirling Prize shortlist 2015,"John Fisher Street, E1 8HA",51.5102363,-0.0691349,00:00:00,23:59:00,No,
Dorich House Museum ,https://openhouselondon.open-city.org.uk/listings/271,"The former studio home of the sculptor Dora Gordine and her husband the Hon. Richard Hare, a scholar of Russian art and literature. 1930s house over four floors including a flat roof terrace and views of Richmond Park.","Dorich House Museum, 67 Kingston Vale, SW15 3RN",51.4333564,-0.2630588,09:30:00,17:00:00,Yes,Unknown
East India Dock Basin Explorer,https://openhouselondon.open-city.org.uk/listings/10417,"The walk will take in East India Dock Basin, Bow Creek and Trinity Buoy Wharf looking at the history of the area. Wildlife is also a key subject on East India Dock Basin and birdwatchers can bring binoculars.","East India Dock Basin, E14 0JU",51.5092587,0.0027487,11:00:00,14:00:00,No,
Eco Show Home,https://openhouselondon.open-city.org.uk/listings/10424,Waltham Forest Council has transformed a Victorian terrace into an Eco Home to showcase best practice retrofitting to be more carbon friendly. Features home improvements that reduce carbon footprint and help tackle the climate emergency.,"47 Green Leaf Road, Walthamstow, E17 6QN",51.5879489,-0.0235711,10:00:00,15:30:00,No,
Elephant Park,https://openhouselondon.open-city.org.uk/listings/7978,"Elephant Park is a unique, new two-acre park in Elephant & Castle that boasts Elephant Springs - a spectacular new natural stone and water landscape. Meet the design team and get a guided tour of this new green oasis in the heart of London.","16a Ash Avenue, SE17 1GQ",51.4935192,-0.0960275,11:00:00,16:00:00,No,
Embassy of the Republic of Estonia,https://openhouselondon.open-city.org.uk/listings/5487,"Representing Neo-Classicist style characteristic of the mid-19C, many of the details of the house have been restored to their original splendour. The interior design is inspired by Estonian nature: swamps, lakes and forests.","44 Queen's Gate Terrace, SW7 5PJ",51.4988551,-0.1830868,11:00:00,16:00:00,Yes,Unknown
Enfield To Fork - Pymmes Park,https://openhouselondon.open-city.org.uk/listings/10237,"The Museum of Enfield is this year bringing its temporary exhibition to you! “From Enfield to Fork” explores the borough’s history and relationship with food, from Roman Enfield to Market Gardening.","Victoria Road, N18 2UG",51.617144,-0.0666917,10:00:00,16:00:00,No,
Escape The Future,https://openhouselondon.open-city.org.uk/listings/10222,Join PRP architects in an immersive adventure through a series of games and puzzles. Can you save the world before time runs out? Can you become the superhero that the planet needs?,"Westferry Circus, E14 4HD",51.5063356,-0.0261074,11:00:00,16:00:00,No,
Estorick Collection of Modern Italian Art ,https://openhouselondon.open-city.org.uk/listings/7787,"The Estorick Collection is housed in a beautiful Georgian building previously known as Northampton Lodge. Today, the museum comprises six galleries over three floors, as well as a library, offices, a café and bookshop.","39a Canonbury Square, N1 2AN",51.5439931,-0.0998909,14:00:00,16:45:00,No,
"Ethelburga Tower, Battersea",https://openhouselondon.open-city.org.uk/listings/10119,Ethelburga Tower is a 17-storey block of flats near Battersea Park.  The building was designed by the LCC  Architects Dept with Ove Arup & Partners as consulting engineers.  It was built by Tersons of Finchley and completed in 1966.,"Ethelburga Tower, Rosenau Road, SW11 4AB",51.4769274,-0.1661012,12:00:00,18:00:00,No,
Exploring Spring Grove Isleworth,https://openhouselondon.open-city.org.uk/listings/9032,"Centred on Spring Grove House, once Sir Joseph Banks home the 1850s vision was for John Taylor Jnr designed grand villas.  Today's  wider architecture includes a former college by John Norton & P Massey plus quirky arts & crafts properties.","Forecourt, Isleworth Railway Station, London Road, Isleworth, TW7 4BX",51.47476,-0.33689,14:30:00,16:00:00,No,
Fitzroy Park Allotments,https://openhouselondon.open-city.org.uk/listings/9014,"open allotment site, no buildings","Fitzroy Park, Highgate, N6 6HU",51.5685811,-0.1572856,14:00:00,17:00:00,No,
Flow Gallery,https://openhouselondon.open-city.org.uk/listings/9595,"The interior of the building was redesigned in 2014 by John Pardey  to combine a craft gallery with a live work space for the gallery owner. Inspired by Kettle's Yard Flow space exhibits ceramics, glass, wood, textiles and jewellery.","1-5 Needham Rd, W11 2RP",51.5150985,-0.197374,11:00:00,17:00:00,No,
Friends of Feltham Green,https://openhouselondon.open-city.org.uk/listings/10263,Friends of Feltham Green would like to invite you to a walking history tour of Feltham's ponds which includes connections to Freddie Mercury and Brian May who once lived in Feltham.  Plus showcase our new eco cabin if completed.,"Feltham Green, High Street, Feltham, TW13 4AF",51.4441881,-0.4103428,11:30:00,15:30:00,No,
Garden Suburb Community Library,https://openhouselondon.open-city.org.uk/listings/9009,The library is located in a shop with flats above. The shop front has not been altered since the 1950s.,"15 The Market Place , NW11 6LB",51.5860913,-0.1834105,10:00:00,17:00:00,No,
Gareth Gardner Gallery,https://openhouselondon.open-city.org.uk/listings/10318,"Gareth Gardner Gallery is a small gallery space in Deptford, showing photography of architecture and the built environment. The fit-out was designed by architect Studio C102 and its industrial style was inspired by art gallery warehouses.","Enclave 10  , 50 Resolution Way, SE8 4AL",51.4784669,-0.0246217,13:00:00,18:00:00,No,
German Historical Institute,https://openhouselondon.open-city.org.uk/listings/6371,"This Grade II* listed building includes an Adam-style ceiling (first floor) and two beautiful staircases with wrought-iron balustrades. Once home to the Pharmaceutical Society of Great Britain, it now houses a historical research institute.","17 Bloomsbury Square, WC1A 2NJ",51.5190283,-0.1238095,00:00:00,23:59:00,No,
Giant Sandpit,https://openhouselondon.open-city.org.uk/listings/10450,Come and play in the giant sandpit by our lake at Republic – buckets and spades all here for you!  And have a peek at how we have transformed a once tired office block into a cool place to work and study - with a sustainable timber refurb!,"Clove Crescent, E14 9LZ",51.5097907,-0.004916,11:00:00,16:00:00,No,
"Goldfinger, Trellick Tower",https://openhouselondon.open-city.org.uk/listings/6881,"Goldfinger is a social enterprise situated at the foot of the Grade II listed Trellick Tower. We craft bespoke furniture from reclaimed and sustainable materials, with a teaching academy for the local community.","13-15 Golborne Road, W10 5NY",51.5236274,-0.2062042,11:00:00,17:00:00,No,
Green House,https://openhouselondon.open-city.org.uk/listings/10309,"A new exposed CLT-frame house, built on a site once occupied by market garden greenhouses, featuring a planted façade with sliding external screens and a riad-style central atrium, assisting in natural daylighting, ventilation and cooling.","25 Jansons Road, N15 4JU",51.588847,-0.0774177,15:00:00,18:00:00,Yes,Unknown
Guildhall Art Gallery,https://openhouselondon.open-city.org.uk/listings/1405,"Houses the City of London's art collection, built over remains of London's Roman amphitheatre. Façade uses Portland stone and Collyweston stone slates. Interior uses finishes of marble, American elm, damask and painted wall coverings.","Guildhall Yard, EC2V 5AE",51.5152512,-0.0921379,10:30:00,16:00:00,Yes,Unknown
Hedge Lane,https://openhouselondon.open-city.org.uk/listings/9902,Remodelling and extension of rear of house to make a kitchen/diner/lounge with ancillary wc and utility spaces.,"24 Hedge Lane, N13 5SH",51.622786,-0.1018627,13:00:00,16:00:00,No,
Hemingford Road,https://openhouselondon.open-city.org.uk/listings/10123,A stone extension and complete refurbishment of a Grade II listed Georgian home providing a new dining room and a reflective space which opens to the sky.,"130 Hemingford Road, N1 1DE",51.5415827,-0.1132301,10:00:00,17:00:00,No,
High-rise LEGO Challenge!,https://openhouselondon.open-city.org.uk/listings/10225,Get the whole family involved to build the tallest LEGO structure in the city! Can you construct a tower as high as Canary Wharf and more importantly can you think how your tower would be environmentally friendly?,"Wood Wharf Harbour Quay Gardens, E14 9QG",51.5022866,-0.0131992,11:00:00,16:00:00,No,
"Holy Cross Church, Cromer Street",https://openhouselondon.open-city.org.uk/listings/9100,"Grade ll listed Oxford Movement Anglican church built 1887-88. Historic England describe the exterior as ‘quirky and aggressive’ but the  interior is ‘very spare and elegant, the proportions subtly adjusted’. Elevated choir and sanctuary.","Cromer Street, WC1H 8JU",51.5275753,-0.1235712,11:00:00,16:00:00,No,
Honeywood Museum,https://openhouselondon.open-city.org.uk/listings/3939,Chalk and flint house dating to 17C with additions including extensions of 1896 and 1903 when owned by John Pattinson Kirk. Rich in period detail and the interior restored and stairs opened up with funding from the Heritage Lottery Fund.,"Honeywood Walk, Carshalton, SM5 3NX",51.3660834,-0.1655658,10:00:00,17:00:00,Yes,Unknown
House for a Cellist,https://openhouselondon.open-city.org.uk/listings/10285,"Ground floor rear extension, roof terrace and general refurbishment of a Victorian terraced house within a Conservation Area. A reflection on space continuity, compression and expansion. How a square a triangle and a circle interact.","10 Studd Street, , N1 0QJ",51.5380965,-0.1036024,10:00:00,17:00:00,No,
Hoxton Docks,https://openhouselondon.open-city.org.uk/listings/9395,"Antepavilion Commission offers emerging architects and makers opportunities to create new work through hands-on construction. Works are put on temporary display in Columbia/ Brunswick Wharf, situated on the Regents Canal in Haggerston.","Hoxton Docks, 55 Laburnum street, E2 8BD",51.5357001,-0.0706187,14:00:00,18:00:00,No,
Hyde Park Chapel,https://openhouselondon.open-city.org.uk/listings/9987,The four-story Church façade and prominent seven-story tower is covered in Portland stone and highlighted by a golden steeple. The interior features the Christus statue and a large mural of the resurrected Jesus Christ.,"64-68 Princes Gate, Exhibition Road, SW7 2PA",51.497811,-0.1734449,10:00:00,18:00:00,No,
Institut français du Royaume-Uni,https://openhouselondon.open-city.org.uk/listings/708,"1939 Art Deco Grade II listed building refurbished in 1950, then restructured and modernised in 2014. Contains an authentically classic cinema, private salons and multimedia library.","17 Queensberry Place, South Kensington, SW7 2DT",51.4946504,-0.1771684,13:00:00,17:00:00,No,
"JTP Studios, Pennington Street Warehouse",https://openhouselondon.open-city.org.uk/listings/8726,"Pennington Street Warehouse is a Grade II Listed Warehouse, sensitively adapted in 2019 into a vibrant and creative home for architects & masterplanners, JTP.","JTP Studios, Unit 5, The Rum Warehouse, Pennington Street, E1W 2AP",51.5085943,-0.0628586,10:00:00,16:00:00,No,
Ken Artspace,https://openhouselondon.open-city.org.uk/listings/10200,"Liminal Landscapes; An exhibition of photographs in KENartspace gallery from around Europe. They look primarily thro' windows of varying descriptions revealing the between places of the urban landscape, by architect Ken Taylor.","Ken Artspace Gallery : 16 Windmill Row, Kennington Road, SE11 5DW",51.4871988,-0.1118182,11:00:00,18:00:00,No,
Kenwood ,https://openhouselondon.open-city.org.uk/listings/835,"A striking Neoclassical villa in tranquil gardens on Hampstead Heath, Kenwood boasts breath-taking interiors by Robert Adam and a world-class art collection. For guaranteed entry, book your free ticket via the English Heritage website.","English Heritage, Hampstead Lane, NW3 7JR",51.5713284,-0.1675998,12:00:00,16:00:00,No,
King's Cross Masterplan,https://openhouselondon.open-city.org.uk/listings/7788,The King’s Cross Masterplan established a framework for the incremental redevelopment of this industrial heritage site through a mix of uses and a network of public spaces structuring new urban blocks and knitting the site into its context.,"11 Stable Street, N1C 4AB",51.5366379,-0.12543,14:00:00,15:30:00,No,
Kingston Guildhall and History Centre ,https://openhouselondon.open-city.org.uk/listings/6960,"Built in the Georgian style, the Guildhall brought together Kingston's administrative functions. Purpose-built Magistrates Courts were included in the building, part of which are now home to Kingston History Centre.","High Street , Kingston upon Thames, KT1 1EU",51.4065434,-0.3080235,10:15:00,17:00:00,Yes,Unknown
"Kingston Library, Museum and Art Gallery ",https://openhouselondon.open-city.org.uk/listings/781,"Adjoining Grade II listed Carnegie-funded library, museum and art gallery. Museum holdings range from ceramics to topographical drawings, including the collection left by Eadweard Muybridge, a native of Kingston and photographic pioneer.","Wheatfield Way, Kingston upon Thames, KT1 2PS",51.4094037,-0.3007265,10:00:00,16:00:00,Yes,Unknown
Koestler Arts Centre – Former Governor's House of HM Prison Wormwood Scrubs,https://openhouselondon.open-city.org.uk/listings/6846,"The home of the UK's leading prison arts charity, Koestler Arts. Based in the former governor's house of HMP Wormwood Scrubs, paintings, drawings & sculptures from the Koestler Awards, all for sale, cover the walls of the 3-storey building.","168a Du Cane Road, W12 0TX",51.5157343,-0.2416622,11:00:00,16:00:00,No,
"Lanterna, Fish Island Village",https://openhouselondon.open-city.org.uk/listings/9431,"Designed by Lyndon Goode Architects, Lanterna acts as a gateway to our Fish Island Village development with Hill and was shortlisted for a prestigious Royal Institute of British Architects (RIBA) London Award for architectural excellence.","Lanterna Building, Fish Island Village, E3 2LX",51.5408206,-0.0224146,00:00:00,23:59:00,No,
"Latin Village: Pueblito Paisa,  Wards Corner",https://openhouselondon.open-city.org.uk/listings/8370,"The locally listed, Edwardian corner site and remodelled residential terraces opened as Wards Department Store in 1901, closing in 1972. It was disused until 1985, when a market serving migrant communities opened on the ground floor.","231-243 High Road, Tottenham, N15 5BT",51.5830889,-0.0727727,15:00:00,16:45:00,No,
Leathersellers' Hall,https://openhouselondon.open-city.org.uk/listings/3489,"New Livery Hall behind a retained early 20th century façade. This is the seventh Hall in the Leathersellers' Company's history since its foundation in the Middle Ages, and is located on the site of its second Hall.","7 St Helen's Place, Bishopsgate, EC3A 6AB",51.5152593,-0.0822059,10:00:00,16:45:00,No,
Leverton Street,https://openhouselondon.open-city.org.uk/listings/9726,"This Victorian terraced house was converted into two self-contained, split level dwellings. Each flat expresses its own identity through the use of colour, materials and bespoke joinery, capturing the personality of each of the clients.","90 Leverton Street, NW5 2NY",51.553784,-0.139022,10:00:00,15:00:00,Yes,Unknown
London City Island,https://openhouselondon.open-city.org.uk/listings/7659,From Canning Town Station our walk begins by crossing the Red Bridge over the River Lea.  Following the river path the walk opens out into the gardens of London City Island.  The walk can then continue into neighbouring Goodluck Hope,"Kent Building, 45 Hope St, Leamouth Peninsula, E14 0QG",51.5121304,0.0056416,11:00:00,12:00:00,Yes,Unknown
London Living Streets and Footways London,https://openhouselondon.open-city.org.uk/listings/10415,"A walk from St Pancras station to highlight the amazing new traffic-free piazza being created in the Strand. The walk will follow a Footways route https://footways.london/ along attractive,low pollution streets, and end at St Mary le Strand","Euston Road, NW1 2AR - near junction with Midland Road, NW1 2AR",51.5297325,-0.1259119,11:00:00,13:00:00,No,
London Museum of Water & Steam,https://openhouselondon.open-city.org.uk/listings/838,"The Museum is housed within in a unique collection of Grade I and II listed buildings. Even though they were purpose-built and purely functional buildings, the architect took great care to make the buildings aesthetically pleasing.","Green Dragon Lane, Brentford, TW8 0EN",51.4895259,-0.2899079,13:00:00,15:30:00,No,
Low Line - Walking Tour ,https://openhouselondon.open-city.org.uk/listings/7559,"Guided walking tour of the Low Line - an emerging world-class walking destination, linking a network of creative and cultural nodes along the base of the Victorian rail viaducts between Bankside and Bermondsey in south London.","Cycle docking station behind Southwark Tube station , Blackfriars Road, SE1 8JZ",51.503518,-0.1049619,13:00:00,15:30:00,No,
Marylebone Village: Home to The Howard de Walden Estate,https://openhouselondon.open-city.org.uk/listings/10426,"This fun and engaging walking tour led by expert guide Mike Althorpe - an urban historian, architectural researcher, educator and story teller - will explore the architecture and history of this urban village.","17 Marylebone Road, NW1 5LT",51.5228009,-0.1524292,10:30:00,12:30:00,No,
Mayfair Walk,https://openhouselondon.open-city.org.uk/listings/10312,"Walk through the heart of Mayfair.  See Churchill’s first apartment, fascinating architecture, London's oldest plane trees, and a Banksy; and walk along (or rather above) the River Tyburn.","Gilbert Street, W1K 5HH",51.5137612,-0.1499577,14:30:00,16:30:00,No,
Meridian Water Masterplan Tour ,https://openhouselondon.open-city.org.uk/listings/4904,"A unique site in the borough of Enfield. Meridian Water will be a distinctive neighbourhood designed to nurture economic, environmental and social sustainability. The tour provides an insight to the soon to be bold and unique development.","Meridian Water Station, Angel Edmonton Road , N18 3HF",51.6099225,-0.0501193,11:00:00,16:00:00,No,
Modern Architecture in Blackheath walk,https://openhouselondon.open-city.org.uk/listings/10273,"Architect Ana Sutherland will lead a guided tour of the Cator Estate, covering Eric Lyons' Span estates and unique modernist homes designed by architects Patrick Gwynne, Peter Moro and Walter Greaves.","1 Blackheath Park, Blackheath, SE3 9RN",51.4641909,0.0096046,10:00:00,12:00:00,No,
Monastic London,https://openhouselondon.open-city.org.uk/listings/10316,"London was once encircled by a ring of powerful religious institutions swept away by the Dissolution, the Great Fire and the Blitz, and yet miraculously some traces remain. This walk will look for evidence of London’s monastic past.","Charterhouse Square, EC1M 6AN",51.5204546,-0.099006,11:00:00,17:00:00,No,
Monier Road ,https://openhouselondon.open-city.org.uk/listings/7718,"A new-build development for Peabody in partnership with Hill of 71 homes, with ground floor commercial workspace. 
Each of the 3 blocks has its own identity and palette of materials, arranged around a shared central courtyard.","Meet: On the corner of Monier Road and Roach Road, Hackney Wick , E3 2PS",51.5399119,-0.0227363,14:00:00,16:00:00,No,
Morley College Waterloo,https://openhouselondon.open-city.org.uk/listings/4768,"The Waterloo Centre, damaged in WWII and rebuilt in 1958 by Cowles Voysey and Brandon-Jones.","61 Westminster Bridge Road, SE1 7HT",51.4980267,-0.109553,10:00:00,14:00:00,No,
Museum of London Docklands,https://openhouselondon.open-city.org.uk/listings/1148,"Grade I listed, late Georgian sugar warehouse now housing the Museum of London Docklands. Sensitively restored, the new multimedia displays coexist with the massive timber and brick structures of the original building.","No. 1 Warehouse, West India Quay (off Hertsmere Road), E14 4AL",51.5078237,-0.0233988,11:45:00,15:30:00,No,
Museum of Neoliberalism,https://openhouselondon.open-city.org.uk/listings/8739,"The museum is situated in a shopfront in Leegate Shopping Centre, which has been described by the Evening Standard as ""the worst shopping precinct in the country.""","16 Eltham Road, SE12 8TF",51.4560516,0.0122701,11:00:00,19:00:00,Yes,Unknown
NOW Gallery and The Gateway Pavilions,https://openhouselondon.open-city.org.uk/listings/6449,"The NOW Gallery is an art space - contained within two curved glass pavilions linked by a patinated brass-edged canopy - which defines the southern edge of Peninsula Square and acts as a gateway to the south, the cable car and Central Park.","The Gateway Pavilions, Peninsula Square, Greenwich Peninsula, SE10 0SQ",51.5003067,0.0049082,10:00:00,17:00:00,No,
National Youth Theatre,https://openhouselondon.open-city.org.uk/listings/9812,"Completed in Summer 2021, the National Youth Theatre has been redeveloped to double its capacity for studio space and was designed with young people, for young people. Recipient of the Mayor of London's Good Growth Fund.","443-445 Holloway Road, N7 6LW",51.5591865,-0.1224646,10:00:00,16:00:00,No,
New River Head - Quentin Blake Centre for Illustration,https://openhouselondon.open-city.org.uk/listings/10280,"An intriguing industrial heritage site hiding in plain sight. A fascinating complex of Grade II listed buildings, unseen since the 1950s. Set to be renovated into the Quentin Blake Centre for Illustration by Tim Ronalds Architects.","Amwell Street (to the rear of 28), Clerkenwell, EC1R 1XU",51.5285674,-0.1097028,11:00:00,15:30:00,No,
Newfoundland ,https://openhouselondon.open-city.org.uk/listings/8515,"Newfoundland – Rent an apartment, own the skyline!
Canary Wharf's prestigious and highly anticipated Residential Building. Comprising 636 apartments arranged over 58-storeys, full-height windows wrap around each apartment's living space.","Meet at Reception: Newfoundland, Canary Wharf, E14 4JB",51.5045389,-0.0250371,10:00:00,17:00:00,Yes,Unknown
Nourish Hub,https://openhouselondon.open-city.org.uk/listings/10282,"The Nourish Hub turned a vacant post-office into community space where learning about healthy eating and cooking food is used to connect diverse cultures, teach meaningful skills and bring people together.","1 Swanscombe House, W11 4SS",51.5080699,-0.2157201,11:00:00,16:00:00,No,
Nunnery Gallery,https://openhouselondon.open-city.org.uk/listings/10254,"In 1868 the Dominican sisters established a convent in the heart of the East End. Today, the Nunnery Gallery maintains some of its original neo-gothic features, and original hardwood floor and hosts a programme of site-responsive art.","Nunnery Gallery, 181 Bow Road, Tower Hamlets, E3 2SJ",51.5291891,-0.0166699,10:00:00,16:00:00,No,
Olympic Legacy Masterplan,https://openhouselondon.open-city.org.uk/listings/7789,"London’s 2012 Games provided a catalyst for regeneration in the Lower Lea Valley. Guided by the Legacy Masterplan, thousands of new homes and jobs are now being created, stitching together existing communities across the former floodplain.","Endeavour Square, E15 2DU",51.5414752,-0.0097731,14:00:00,15:00:00,No,
"One Canada Square, Canary Wharf Group (CWG) Marketing Suite and Level39",https://openhouselondon.open-city.org.uk/listings/1171,"One of the most iconic structures dominating London’s skyline, One Canada Square is the third tallest building in the UK. It is Canary Wharf Group's landmark tower which houses Europe’s most influential FinTech scaler, Level39.","Meet: South Lobby, One Canada Square, Canary Wharf, E14 5AB",51.5049489,-0.0195006,10:00:00,17:00:00,Yes,Unknown
Order and Disorder: Guildhall to Smithfield,https://openhouselondon.open-city.org.uk/listings/10188,"Head for the dark side of the City and discover tales of crime and punishment, heroes and villains, the great monastic houses, notorious Newgate Prison, body snatchers, Smithfield Market, Bartholomew Fair and the road to the gallows.","Gresham Street, City of London, EC2V",51.515629,-0.0917305,14:00:00,15:30:00,No,
Our Yard at Clitterhouse Farm,https://openhouselondon.open-city.org.uk/listings/8339,Our Yard at Clitterhouse Farm is a community enterprise working to protect historic Victorian farm outbuildings and transform the site into a vibrant and sustainable community hub. Shortlisted for the Open City Stewardship Awards 2021.,"Clitterhouse Playing Fields, Claremont Rd, NW2 1AP",51.5688198,-0.2158112,11:00:00,15:00:00,No,
PEER ,https://openhouselondon.open-city.org.uk/listings/8360,"PEER is a gallery with a 10-metre wide glass façade, bringing art straight onto the street. With its community garden, and Chris Ofili's 'Black Hands' outdoor clock, PEER is also a welcoming and open public space.","Peer UK, 97-99 Hoxton Street, N1 6QL",51.5297245,-0.0804329,12:00:00,18:00:00,No,
Pinter/Wesker Memories Walk,https://openhouselondon.open-city.org.uk/listings/9362,"Hackney was home to two of Britain’s greatest-ever dramatists – Harold Pinter (1930-2008) and Arnold Wesker (1932-2016). Both working-class, both Jewish, both world-famous. Led by Hackney experts, Laurie Elks and Julia Lafferty.","Mare Street , Hackney, E8 1HR",51.5481288,-0.0550424,11:00:00,12:30:00,No,
Pitched Black,https://openhouselondon.open-city.org.uk/listings/8315,"Gruff Architects' founder's new home, Pitched Black, responds to a challenging site within a conservation area: this black-clad new-build house leans at 10 degrees towards a tree-lined railway cutting, and away from neighbouring gardens.","8a Tyrwhitt Road, SE4 1QG",51.4669766,-0.0237147,10:00:00,17:00:00,No,
Pitzhanger Manor & Gallery,https://openhouselondon.open-city.org.uk/listings/1369,"Designed by Sir John Soane as a family home and country residence. Following a three-year conservation project,  Pitzhanger has been returned to Soane’s innovative original design and re-opened to the public in March 2019.","Mattock Lane, Ealing, W5 5EQ",51.5114492,-0.3073139,10:00:00,17:00:00,Yes,Unknown
Polish Social and Cultural Association,https://openhouselondon.open-city.org.uk/listings/7272,"Built 1971-74 in brutalist style. The largest Polish centre in Western Europe, it contains a theatre, the Polish Library, the Polish University Abroad, a Joseph Conrad collection, Jazz Café, art gallery and art collection on public display.","238-246 King Street, Hammersmith, W6 0RF",51.4935842,-0.237489,10:00:00,17:00:00,No,
Pope's Grotto,https://openhouselondon.open-city.org.uk/listings/1379,Grotto with mineral decoration is last remaining part of Alexander Pope's villa built 1720. The villa was demolished 1808 and replaced and redeveloped many times in following years but Pope's Grotto remains.,"Radnor House School, Pope's Villa, Cross Deep, Twickenham, TW1 4QG",51.4419712,-0.3314995,10:00:00,12:30:00,Yes,Unknown
Pushkin House,https://openhouselondon.open-city.org.uk/listings/4108,The independent cultural centre Pushkin House will contribute to this year's Open House Festival through a programme of events and community initiatives at its Grade-II listed building in Bloomsbury Square.,"5a Bloomsbury Square, WC1A 2TA",51.5182912,-0.1230772,11:00:00,17:00:00,Yes,Unknown
Quaker Meeting House Uxbridge ,https://openhouselondon.open-city.org.uk/listings/4371,"Early 19C, original meeting room, mature garden,  wooden wall panelling, large Georgian windows,  set of working full-height interior shutters, historic elders’ gallery. Site of Quaker worship from 1690s. Newly rebuilt washroom section.","150 York Road (corner of Belmont Road) , Uxbridge, UB8 1QW",51.5481524,-0.4772315,10:00:00,16:00:00,No,
Regent High School,https://openhouselondon.open-city.org.uk/listings/3428,"Five-time award-winning new build and refurbishment. The new building features a triple-storey 'arcade' that links to the existing Victorian building, simplifies movement around the school and provides passive supervision.","Chalton Street, entrance opposite Cranleigh Street, NW1 1RX",51.5330569,-0.1334227,10:00:00,14:00:00,No,
Reliance Arcade,https://openhouselondon.open-city.org.uk/listings/9043,"Reliance Arcade is a Grade II Listed covered market in Brixton, London.  The Arcade was constructed in the 1920s and is home to 40 small retail units catering largely to local African-Caribbean communities.","455 Brixton Rd, SW9 8JP",51.462185,-0.1131814,09:00:00,19:00:00,No,
Republic London,https://openhouselondon.open-city.org.uk/listings/10451,"A campus development bringing universities, businesses, community groups and affordable co-working spaces together – with stunning views across the river and East London.","Import Building, 2 Clove Crescent, E14 2BE",51.5102206,-0.0048249,11:00:00,16:00:00,No,
Rio Cinema,https://openhouselondon.open-city.org.uk/listings/1478,"Grade II listed Art Deco cinema with stalls and circle created in 1937 within the shell of an Edwardian cinema, retaining many original features.
2017 new auditorium created in basement space.","107 Kingsland High Street, Dalston, E8 2PB",51.5496961,-0.0755644,10:00:00,11:00:00,No,
Ripple Greenway and the Lost Words Art Trail,https://openhouselondon.open-city.org.uk/listings/10191,"Ripple Greenway is a beautiful 14-acre linear park and art trail.  Home to Katy Hallett’s steel sculptures, inspired by Robert Macfarlane’s and Jackie Morris’ The Lost Words.
Wooden play and exercise equipment, picnic tables and benches.","Ripple Greenway, Bastable Avenue, IG11 0LG",51.5279424,0.1038885,10:00:00,17:00:00,No,
Roca London Gallery,https://openhouselondon.open-city.org.uk/listings/5322,"Designed by the world renowned Zaha Hadid Architects, Roca London Gallery is a unique space where water acts as the architectural theme. Guests can also visit 'Everything Flows', a major exhibition exploring the work of Zaha Hadid Design.","Station Court, Townmead Road, SW6 2PY",51.4705297,-0.1850841,11:00:00,17:00:00,No,
Romanian Cultural Institute,https://openhouselondon.open-city.org.uk/listings/5056,"Situated in one of the largest and grandest 19th century squares in London, 1 Belgrave Square was acquired by Romania in 1936 and is now home to the Romanian Cultural Institute.","1 Belgrave Square, SW1X 8PH",51.4998616,-0.1548215,10:00:00,17:00:00,No,
Royal Small Arms Factory ,https://openhouselondon.open-city.org.uk/listings/1553,Grade II listed arms factory closed to public for 170 years. Museum and clocktower open for tours.,"RSA Island Centre, 49 Island Centre Way, Enfield (off A1055 Mollison Avenue), EN3 6GS",51.668702,-0.016694,10:00:00,17:00:00,No,
Rushmore (online only),https://openhouselondon.open-city.org.uk/listings/9603,"Rear extension and complete transformation of the Lower Ground Floor of a Victorian House, featuring modern and minimal materials like concrete & plywood.","147 Rushmore Road, Hackney, E5 0HA",51.5548847,-0.0437093,00:00:00,23:59:00,No,
SPPARC,https://openhouselondon.open-city.org.uk/listings/6850,"This award-winning practice has an exciting UK & International portfolio & invites you to take part in live debates, explore its workshops, listen to talks & become part of the design process.","10 Bayley Street, Bedford Square, WC1B 3HB",51.5188959,-0.1316722,10:00:00,16:00:00,No,
Self-guided Architecture of Chislehurst Walk,https://openhouselondon.open-city.org.uk/listings/2609,"A look at some of the large houses built in the late nineteenth and early twentieth century by Ernest Newton, E. J May, Sir Aston Webb, Quennell and other noted architects.  Download from www.chislehurst-society.org.uk/CATTWALK.pdf","Organised by the Chislehurst Society, BR7 5AQ",51.4196775,0.0669377,15:00:00,16:00:00,No,
Self-guided Old Malden Walk,https://openhouselondon.open-city.org.uk/listings/10292,The walk is around Old Malden and covers residential developments within the district. Different styles of suburban architecture includes a selection of modernist housing. There are also historic buildings and other places of interest.,"Manor Drive North, Greater London, KT3 5PN",51.3846475,-0.2622807,00:00:00,23:59:00,No,
Shine On ,https://openhouselondon.open-city.org.uk/listings/10227,"Scribble beautiful colours onto shiny metal surfaces to reflect the architecture and spaces around you to create a memory of Canary Wharf's steel, glass and mirrored buildings.","Wood Wharf Harbour Square Park, E14 9PZ",51.5028937,-0.0097578,11:00:00,16:00:00,No,
Shrewsbury House,https://openhouselondon.open-city.org.uk/listings/7175,"Built in 1923, to replace its 18C namesake, Grade ll listed Shrewsbury House is the focus of the Shrewsbury Park Estate conservation area, built 1934-1936 by John Laing and Sons. Two Civil Defence centres are within the grounds.","Shrewsbury House, Bushmoor Crescent, SE18 3EG",51.4736668,0.0722584,15:00:00,17:00:00,Yes,Unknown
Slavery and the City ,https://openhouselondon.open-city.org.uk/listings/9344,"We will explore sites and institutions with direct links to the history of slavery and hear why the apologies were made in 2020, whilst wandering within the story packed streets and alleyways of the Square Mile.","1 Cheapside, EC2V 6AA",51.5148819,-0.097557,11:00:00,16:00:00,Yes,Unknown
South Norwood Library ,https://openhouselondon.open-city.org.uk/listings/10218,"The purpose-built library is a fine example of brutalist architecture. Built by Hugh Lea, Borough Architect for Croydon, in 1968 the main volume shows miesian influence with an abundance of natural light, interrupted by a concrete cuboid.","Lawrence Road, South Norwood , SE25 5AA",51.3971417,-0.0775821,10:30:00,15:30:00,No,
Spitalfields to Stepney Green: 500 years of immigration,https://openhouselondon.open-city.org.uk/listings/10401,Explaining the arrival and large-scale departure of the Huguenot and Jewish communities from the area through the buildings and streets. Charting the arrival of the Bangladeshi community and how the area and its population is changing again,"Commercial Street , E1 6LY",51.518731,-0.0744403,14:00:00,16:00:00,No,
St Bonifatius RC German Church,https://openhouselondon.open-city.org.uk/listings/6768,"Plain modern church serving the German-speaking Catholic community in London. Landmark tower featuring four bells (Whitechapel Bell Foundry), artwork and organ by artists and craftsmen from Germany (Oberammergau, Kevelaer)","47 Adler Street, E1 1EE",51.5158528,-0.0673069,10:00:00,16:00:00,No,
"St Bride's Church, Fleet Street ",https://openhouselondon.open-city.org.uk/listings/10035,"Wren designed building of 1675, interior lost in blitz of 1940, reopened 1957 with 'Wren inspired' interior","St Bride's Church, St Bride's Avenue, EC4Y 8AU",51.5137695,-0.105544,10:00:00,16:00:00,No,
St Dunstan and All Saints Church,https://openhouselondon.open-city.org.uk/listings/2497,"Grade I listed early medieval parish church (from 952 before Tower of London) in spacious churchyard. Fine interior: Anglo-Saxon Rood, Norman font, 'squint', fine memorials incl founders of Trinity House, 1950s glass. Bells of Stepney.","Stepney High Street, E1 0NR",51.517287,-0.0426262,10:00:00,16:00:00,No,
St George's German Lutheran Church,https://openhouselondon.open-city.org.uk/listings/3894,"The oldest surviving German church in England from 1763 with unaltered Georgian interior including box pews, German memorials and wheezy German Walcker organ from 1870.","55 Alie Street, E1 8EB",51.5141275,-0.0702833,18:00:00,19:00:00,No,
St John the Divine,https://openhouselondon.open-city.org.uk/listings/3397,St John’s has a wide nave approached via a narthex formed under the gallery running the width of the west end.  East of the nave is a chancel flanked to the south by the Lady Chapel and to the north by the organ chamber with loft over.,"Kew Road, Richmond, Surrey, TW9 2NA",51.4760605,-0.29128,10:00:00,12:00:00,No,
St Jude on the Hill,https://openhouselondon.open-city.org.uk/listings/2517,"Eccentric Edwardian church, Grade I listed. Described by Simon Jenkins as 'one of Lutyens' most distinctive creations'. Extensive 20C wall-paintings by Walter Starmer, memorial to horses of WWI. Local archives display.","Central Square, NW11 7AH",51.5805196,-0.1893314,10:30:00,17:00:00,No,
"St Lawrence Church, Morden",https://openhouselondon.open-city.org.uk/listings/3260,Grade I listed Norman brick-built church consisting of a nave and chancel. Tower at the west end. Gothic-style stone windows from the old church inserted into the present 1636 structure. East window stone likely to be from Merton Priory.,"London Road, Morden, SM4 5QT",51.3928895,-0.203445,10:00:00,17:00:00,No,
"St Margaret's Church, Lee ",https://openhouselondon.open-city.org.uk/listings/8327,"The Church was built in 1839/41 as a white 'Hall-Church'. 
The 1870s Gothic Revivalism was overseen to a very high standard, by James Brooks and helped by 10 top craftsmen of the day. We also have a WWI Memorial by Violet Pinwill.","St Margarets Church,  Lee Terrace, SE13 5DN",51.4629384,0.0008993,10:30:00,17:00:00,No,
St Mary Magdalene,https://openhouselondon.open-city.org.uk/listings/5810,"A historic living parish church, progressively shaped from the Tudor to the Edwardian period. St Mary's has recently undergone a major refurbishment and the newly restored windows recapture the original airiness of the C18 nave.","Paradise Road, Richmond, TW9 1SN",51.4602497,-0.3016406,10:00:00,12:00:00,No,
St Mary of Eton Church Mixed Use Development,https://openhouselondon.open-city.org.uk/listings/6392,"Spacious Refurbished Grade II* listed church with new community facilities, new housing. 2015 RIBA Award, New London Architecture Award, Housing Design Award.","Eastway, Hackney Wick, E9 5JA",51.5451502,-0.030139,11:00:00,16:00:00,No,
St Matthias,https://openhouselondon.open-city.org.uk/listings/9146,St Matthias' spire is easily visible as you approach Richmond Gate (Richmond Park). It is a Grade 2 listed church built between 1858-1862 with additions in 1884 & 1915. It was remodelled in the 1970s to provide both sacred & social space.,"Church Road, Richmond, TW10 6LS",51.4577047,-0.2963508,10:00:00,12:00:00,No,
St Paul's Cathedral - Triforium Tour,https://openhouselondon.open-city.org.uk/listings/1669,Guided tours of the Triforium space to see: items from the cathedral collections including Christopher Wren’s magnificent ‘Great Model’ made in 1673; the Geometrical Staircase and the stunning view from the West Gallery.,"St Paul's Cathedral, St Paul's Churchyard, EC4M 8AD",51.5142511,-0.0991404,10:00:00,16:00:00,Yes,Unknown
"St Paul's, Newington",https://openhouselondon.open-city.org.uk/listings/2556,"Modern architecture church with large copper and lead roof and concrete, brick and stained glass external structure. Marble, wood and plaster interior and artwork by Sculptor Freda Pinto and Gerald Holtom.","Walworth Road, Walworth Road, SE17 3QU",51.4892267,-0.0962774,10:00:00,14:00:00,No,
St Peter-in-the-Forest Church & Community Centre,https://openhouselondon.open-city.org.uk/listings/3093,"An 'Italian Romanesque' church set in Epping Forest, St Peter's was founded in 1840 and extended in 1887. The building underwent a major reordering throughout 2020 to save it from subsidence and create new community facilities.","18 Woodford New Road, Walthamstow, E17 3PP",51.5871381,0.0061333,11:00:00,15:00:00,Yes,Unknown
"St. Mary's Church, Walthamstow Village",https://openhouselondon.open-city.org.uk/listings/8141,"Grade II* listed church dating from 12C with Medieval, Tudor, Georgian & Victorian features. 16C Tower. Church refurbishment and new extension in progress in 2022. Over 1300 monuments with four Grade II listed tombs in churchyard.","Church End (top of Church Hill), Walthamstow, E17 9RJ",51.5856101,-0.0159668,12:00:00,16:45:00,No,
StreetGym® Urban Adventure ,https://openhouselondon.open-city.org.uk/listings/9101,"StreetGym® is a one hour, mind/body urban physical adventure where we jog from workstation to workstation.  A workstation is an item of street furniture, gradient or architectural feature where we perform bodyweight based exercises.","Millennium Bridge , Southwark, SE1 9TG",51.5086233,-0.098594,13:30:00,14:30:00,No,
Thamesmead's Lost Landscapes,https://openhouselondon.open-city.org.uk/listings/7002,"A  walk through Thamesmead's landscapes, including some less well-known hidden spaces. Led by Peabody's Director of Landscape, Dr Phil Askew.","2 Cygnet Sqaure, SE2 9UJ",51.4978324,0.1228853,11:00:00,16:00:00,No,
The Architecture of Wellbeing: South Kensington,https://openhouselondon.open-city.org.uk/listings/10382,"We'll take inspiration from South Kensington's grand cultural buildings to explore practical ways to support mental wellbeing and find pools of calm in the buzz and bustle, with opportunities for discussion and reflection along the way.","By 37 Thurloe Street, SW7 2LQ",51.4945337,-0.1741449,18:00:00,19:00:00,No,
The Church Grove Community Hub,https://openhouselondon.open-city.org.uk/listings/10389,"A community space built by volunteers in 2019 using reclaimed materials, it is the first element of a mixed-tenure CLT development of 36 units. Shortlisted for the Open City Stewardship Awards 2021","12 Church Grove, SE13 7UU",51.4573883,-0.0171736,10:00:00,14:00:00,No,
The Church of Our Most Holy Redeemer,https://openhouselondon.open-city.org.uk/listings/2288,"A unique II* listed Italianate church by John Dando Sedding with attached Campanile and Institute Building. Of particular significance in the church is the imposing baldacchino over the High Altar, which dominates the east end.","Exmouth Market, EC1R 4QE",51.5258475,-0.1088928,09:00:00,18:00:00,No,
The City Churches: St Stephen Walbrook,https://openhouselondon.open-city.org.uk/listings/1867,"Wren's own and 'finest City Church'.  Fantastic architecture with different shapes,  twelve Corinthian columns and covered by huge dome - first of its type. Central stone altar by Henry Moore installed in 1987. Birthplace of the Samaritans.","39 Walbrook, EC4N 8BN",51.5127333,-0.0899439,10:00:00,17:00:00,No,
"The Former Peek Frean’s Biscuit Factory, Bermondsey",https://openhouselondon.open-city.org.uk/listings/10243,"Part of the former Peek Frean’s Biscuit Factory, the birthplace of Twiglets and the Garibaldi, this 1970s warehouse is now at the heart of a new community for Bermondsey.","The Former Biscuit Factory, Block F, 100 Clements Road, SE16 4DG",51.4944916,-0.0621258,09:00:00,14:30:00,Yes,Unknown
The Ismaili Centre,https://openhouselondon.open-city.org.uk/listings/2063,"Part of an international family of Ismaili Centres, a religious, cultural and social space for the Shia Imami Ismaili Muslims. The serenity of the entrance fountain to the roof garden reflects Muslim traditions in architecture and design","1-7 Cromwell Gardens, SW7 2SL",51.4955821,-0.1731175,11:30:00,15:30:00,No,
The Library at Willesden Green,https://openhouselondon.open-city.org.uk/listings/6420,A modern 4-storey building incorporating the much-loved Victorian library. The galleries and feature walls display exhibitions and contemporary art and a dramatic central atrium provides natural ventilation and daylight throughout.,"95 High Road, NW10 2SF",51.5469042,-0.2290558,10:30:00,17:00:00,No,
The Mysterious Black Tudors - Westminster Family Trail,https://openhouselondon.open-city.org.uk/listings/10427,Celebrate the Open House Festival with this fun and interactive family event about Britain's forgotten history of the Black Tudors.,"Westminster Abbey, Broad Sanctuary, SW1P 3JS",51.4993695,-0.1272993,10:30:00,12:00:00,Yes,Unknown
The Naked House,https://openhouselondon.open-city.org.uk/listings/9531,"The sustainable re-birth of a 3-bedroom Victorian London terrace, completed in 2020. Whittaker Parsons have created a beautiful and functional space; a sanctuary in the middle of the Medway Conservation Area in East London.","15 Strahan Road, E3 5DA",51.5294117,-0.0363257,10:00:00,15:00:00,No,
"The Nest Community Building and Library, Thamesmead",https://openhouselondon.open-city.org.uk/listings/7534,"Recently completed library and community space, located at the heart of the regeneration of Thamesmead, on Cygnet Square, just off Harrow Manor Way in South Thamesmead.","Cygnet Square , Thamesmead, SE2 9FA",51.4978324,0.1228853,11:00:00,15:00:00,No,
The Old Bailey (Central Criminal Court),https://openhouselondon.open-city.org.uk/listings/2826,The Edwardian baroque of Mountford’s building has a base of Cornish granite with Portland stone facing above. Inside the lower grand hall and Grand Hall are lined with rich marble and the arches are of white Ancaster stone.,"Old Bailey, EC4M 7EH",51.5155093,-0.1020219,09:00:00,17:00:00,Yes,Unknown
The Old Finsbury Town Hall ,https://openhouselondon.open-city.org.uk/listings/375,"Opened by Lord Rosebery, an ornate building with elegant decor influenced by the Art Nouveau movement. Several notable rooms including the Great Hall with unique stained glass, antique mirrors and Clerkenwell Angel statuettes.","Rosebery Avenue, EC1R 4RP",51.5257219,-0.1100225,00:00:00,23:59:00,No,
"The Old Library, Erith (The Exchange)",https://openhouselondon.open-city.org.uk/listings/7461,"The first library in Bexley, designed by William Egerton, funded by Andrew Carnegie, and now the home of The Exchange. The Garden has been recently transformed by landscape designer Lauren Price,  and maintained by community volunteers.","The Old Library, Walnut Tree Road, Erith, DA8 1RS",51.4812407,0.1775232,11:00:00,16:30:00,No,
"The Old Palace, Bromley Civic Centre (The Bishop's Palace)",https://openhouselondon.open-city.org.uk/listings/2714,"The Old Palace was the official residence of the Bishops of Rochester. Present building dates from 1775, although there have been manor houses on the site since 10C.","Civic Centre, Stockwell Close, , Bromley, BR1 3UH",51.4040913,0.0200754,15:00:00,17:00:00,No,
The Questors Theatre,https://openhouselondon.open-city.org.uk/listings/7064,"Originally planned in 1954, the first new theatre after the war, the Questors Playhouse opened in 1964, by which time its design had been followed by the Chichester Festival Theatre and the Crucible, Sheffield.","The Questors Theatre, 12 Mattock Lane, W5 5BQ",51.5115617,-0.3095093,10:00:00,17:00:00,No,
The Royal Society ,https://openhouselondon.open-city.org.uk/listings/2135,"A spectacular Grade I listed building designed by famed architect John Nash. Built in 1831, these former townhouses have undergone refurbishments throughout their history. The building is now home to the UK's national science academy.","The Royal Society, 6-9 Carlton House Terrace, SW1Y 5AG",51.5059347,-0.1323546,00:00:00,23:59:00,No,
The Steamship Project Space ,https://openhouselondon.open-city.org.uk/listings/10305,"With a sculpture garden, performance art in the attic and live music in the bowels of The Steamship, built in the heart of Docklands 1885, the resident artists show how the area has transformed and how they've transformed the former pub.","The Steamship Project Space, 24 Naval Row, E14 9PS",51.509052,-0.005648,19:00:00,23:30:00,No,
The Wheelhouse,https://openhouselondon.open-city.org.uk/listings/5839,"Listed building with unique 7-spoke Victorian waterwheel, the only daily working example in South London, originally used by Liberty's for rinsing printed silk, and now the home of a craft pottery and art studio.","Merton Abbey Mills, Merantun Way, SW19 2RD",51.4130241,-0.1832929,10:00:00,17:00:00,No,
Three Rooms Under a New Roof ,https://openhouselondon.open-city.org.uk/listings/8620,"Award winning, beautiful roof extension and conversion of a contemporary timber frame house from an open-plan house to a home that fits perfectly around a family of 4 and an architect's office. Circular Retrofit. Timber construction.","2 Whatcotts Yard, N16 8ST",51.5550935,-0.0789696,14:00:00,16:00:00,No,
Tin House,https://openhouselondon.open-city.org.uk/listings/6428,"Making efficient use of an irregular urban site, this house is made up of interconnecting top-lit pavilions arranged to define a tranquil private courtyard.","Smugglers Yard, Devonport Road W12 8PB, W12 8PB",51.5042396,-0.2309388,10:00:00,13:00:00,No,
Torriano Primary School STEM Lab,https://openhouselondon.open-city.org.uk/listings/8158,"Re-modelling of a 2-storey turret atop an existing Victorian school building to provide a science lab for dynamic hands-on experiments, including a CNC-cut internal timber structure, a shiny shingled rooftop extension and a living façade.","Torriano Primary School, Torriano Avenue, NW5 2SJ",51.5496747,-0.1328144,10:00:00,13:00:00,No,
Town of tomorrow: Thamesmead Through Film ,https://openhouselondon.open-city.org.uk/listings/10396,"Touted as a ‘town of tomorrow’, Thamesmead’s ambitious masterplan captured global attention when it was first built in the 1960s. This new town offered a leap forward into what was seen as futuristic living for visitors and residents.","31 Wilton Road, Abbey Wood, SE2 9RH",51.490313,0.1211075,12:00:00,14:00:00,No,
Trevithick House,https://openhouselondon.open-city.org.uk/listings/8655,"Pre war social housing flats, red brick, Georgian sash windows, playground, allotments and washing lines outside.","14 Trevithick House, York Rise, NW5 1DR",51.558951,-0.1439279,14:00:00,16:00:00,No,
Turning Earth Ceramics E10,https://openhouselondon.open-city.org.uk/listings/6897,"Ceramics centre for the Lee Valley, covering the entire top floor of an old hardware factory. Three rooms, providing just over 8000 sq ft of floor space; the main room is capped by its original saw-tooth glass roof feature.","11 Argall Avenue, E10 7QE",51.5703245,-0.040942,12:00:00,18:00:00,No,
Vanbrugh Park Estate,https://openhouselondon.open-city.org.uk/listings/10329,"Vanbrugh Park Estate was designed by Chamberlin, Powell and Bon. The estate shares many stylistic similarities with their wider work such as the semi-circular curved motifs, purposeful use of light, and approach to community living.","18 Combe Avenue, Vanbrugh Park Estate, SE3 7PY",51.4784851,0.0116347,11:00:00,17:00:00,No,
Vestry House Museum,https://openhouselondon.open-city.org.uk/listings/2263,"Meeting originally in the parish church, local ratepayers – the Vestry decided to build a workhouse for Walthamstow's poor in 1730. Later it was a police station then a private house, until in 1930 it became a museum of local history.","Vestry Road, E17 9NH",51.5832374,-0.0129235,10:00:00,14:00:00,No,
West Hendon Masterplan,https://openhouselondon.open-city.org.uk/listings/8775,"The West Hendon masterplan has been developed in order to regenerate a 1960s housing estate adjacent to the Welsh Harp reservoir. It incorporates affordable housing, new public parks, primary school, community centre and commercial space.","The Broadway, West Hendon, NW9 7ED",51.5772325,-0.2392682,10:00:00,11:00:00,No,
West Kensington and Gibbs Green,https://openhouselondon.open-city.org.uk/listings/7798,"A led tour around West Kensington & Gibbs Green Estates, who have been at the centre of the political storm of the Earl's Court Regeneration. The decade-long demolition scheme has been defeated but the estates future remains up for debate.","Mund St Green, Mund Street, W14 9LW",51.4885383,-0.2033751,14:00:00,16:00:00,No,
Wharf Road,https://openhouselondon.open-city.org.uk/listings/9375,"Designed by architects Pollard Thomas Edwards, the £50m scheme delivered 98 new homes. 80 per cent of the homes are affordable including 64 for social rent. Wharf Road is set around two new communal gardens that face Regents canal.","Wharf Road, N1 7GY",51.5315743,-0.0960351,00:00:00,23:59:00,No,
Whitehall Historic House ,https://openhouselondon.open-city.org.uk/listings/3742,"Originally a farmer's house dating to 1500, with jettied upper storey. Later additions reflect the changing lifestyles of the owners, including the Killicks for over two centuries. Now houses scale model of Henry VIII's Nonsuch Palace.","1 Malden Road, Cheam, SM3 8QD",51.3593955,-0.2171867,10:00:00,17:00:00,Yes,Unknown
William Morris Gallery,https://openhouselondon.open-city.org.uk/listings/2386,"The William Morris Gallery is a fine example of Georgian domestic architecture dating from about 1744 (the date scratched on a brick). The house is Grade II* listed, and once the childhood home of the Arts & Crafts designer William Morris.","Lloyd Park, Forest Road, E17 4PP",51.5943815,-0.020408,14:00:00,15:00:00,Yes,Unknown
Wood Street Altarpiece,https://openhouselondon.open-city.org.uk/listings/10177,"Artist and designer Eleanor Hill has designed a public artwork and lighting outside Wood Street Station, Walthamstow, celebrating community gardening. The Artwork is a vitreous enamel trypic, set within a powder-coated aluminium frame.","Wood Street Station, E17 3NZ",51.5860413,-0.002936,13:00:00,16:30:00,No,
