name,url,description,address,latitude,longitude,start_time,end_time,ticketed_events,fully_booked
'Latin London' Walking Tours,https://programme.openhouse.org.uk/listings/11654,"This tour allows participants to experience the city via its Early Modern Latin monuments, inscriptions and poetry, made accessible via modern translations. (c.1500-1700).
It runs from Tower of London to St Paul's Cathedral (c. 2.5 hours).","Traitors' Gate, Tower of London, EC3N 4DR",51.5074464,-0.0769224,10:00:00,12:30:00,Yes,True
1 Halliwick Road,https://programme.openhouse.org.uk/listings/8767,"A low energy refurbishment of an Edwardian house, with rear extension and loft conversion. Wood fibre insulation, MVHR, airtightness layer, triple glazing, timber structure and low embodied energy materials.","1 Halliwick Road, N10 1AA",51.601234,-0.1482044,10:00:00,17:00:00,No,
10 Downing Street,https://programme.openhouse.org.uk/listings/2738,10 Downing Street has been the residence of British Prime Ministers since 1735. Behind its famous black door the most important decisions affecting Britain for the last 284 years have been taken.,"10 Downing Street, SW1A 2AA",51.503541,-0.1276699,11:00:00,15:00:00,Yes,No
137 A Evering Road,https://programme.openhouse.org.uk/listings/12018,The building is a set of four flats. Ours is Flat A in the basement. It has a unique interior and a long narrow garden.,"137 Evering Road, Flat A, N16 7BU",51.55935,-0.06567,12:30:00,17:30:00,No,
15 and a half Consort Road,https://programme.openhouse.org.uk/listings/3831,"As per Grand Designs, the opening roof, the retracting loo and sliding bed-bath typify this extraordinary response to constraints of a tight budget on a brownfield site. Shortlisted RIBA Awards 2006. One of nation's favourite TV houses.","15 and a half Consort Road, SE15 2PH",51.4720392,-0.0640998,10:00:00,17:00:00,No,
195 Mare Street,https://programme.openhouse.org.uk/listings/11871,195 Mare Street,"195 Mare St, E8 3QE",51.5408349,-0.0554502,11:00:00,17:00:00,No,
198 Contemporary Arts and Learning,https://programme.openhouse.org.uk/listings/12124,We will be offering tours of this RIBA and AJ Retrofit award winning building. The architect will be on hand to discuss the design and construction process. We will also run  curator led tours of  the exhibition in our gallery spaces. This project is supported by the Mayor of London.,"198 Contemporary Arts and Learning, 198 Railton Road, SE24 0JT",51.45402,-0.10386,12:00:00,17:00:00,Yes,No
215 Mare Street,https://programme.openhouse.org.uk/listings/12130,"Morris+Company moved to Hackney in September 2022, a year in occupation and in collaboration with the 215 Mare St residents, it will open doors to the community and the wider public, featuring exhibitions, workshops and tours of the studios","215 Mare Street, E8 3QE",51.54152,-0.05552,11:00:00,18:00:00,No,
"28 Lawrence Road, N15 4EG",https://programme.openhouse.org.uk/listings/11916,"The building serves as a live-and-work site for creatives, as well as our organisation, which plays an important role in the local community's life. We have two offices here, along with our Community Hub, which was designed by studio Unit38","28 Lawrence Road, N15 4EG",51.5875728,-0.0794826,11:00:00,17:00:00,No,
3 Arbuthnot Road,https://programme.openhouse.org.uk/listings/12085,Open day / weekend of a contemporary house extension within a conservation area. The build was completed in 2022.,"3 Arbuthnot Road, SE14 5LS",51.46961,-0.05053,10:00:00,16:00:00,No,
6 Moretown (Gensler London Studio),https://programme.openhouse.org.uk/listings/10591,"A contemporary adaptation of a 1980s office building, and home of global design firm Gensler. Each level of the building is connected by a structural timber facade and set of stairs, and the new 5th floor cantilevers from the roof.","6 Moretown, Tower Hamlets, E1W 1YW",51.5076148,-0.06714640000000001,10:30:00,16:00:00,Yes,No
60 Blenheim Grove,https://programme.openhouse.org.uk/listings/11972,Tour of custom build house at 60 Blenheim Grove,"60 Blenheim Grove, SE15 4QL",51.46905,-0.07175,10:00:00,13:00:00,Yes,True
75 Wallis Road,https://programme.openhouse.org.uk/listings/11869,"A characterful factory, used for the manufacture of the first manmade plastic, was given a new future as an exemplary 21st century workplace for HTA Design. Our designers will lead tours explaining our renovation decisions and challenges.","75 Wallis Road, E9 5LN",51.544569,-0.0243282,10:00:00,14:00:00,No,
"8 Stoneleigh Terrace (Highgate New Town, Stage 1)",https://programme.openhouse.org.uk/listings/689,"Built during the golden era of Camden public housing under Borough Architect Sydney Cook. Peter Tábori  studied with Ernő Goldfinger and worked with Denys Lasdun, and met Ken Adie when both were students at the Regent Street Polytechnic.","8 Stoneleigh Terrace, N19 5TY",51.5644935,-0.1433845,14:00:00,16:50:00,Yes,True
8-10 Moorgate,https://programme.openhouse.org.uk/listings/6515,"Dutch bank ING moved its UK office to this special building in 2016.  The building blends a historic exterior (including its original Portland stone façade) with a modern 135,220 sqft of office space. City Heritage Award winner 2015.","8-10 Moorgate, EC2R 6DA",51.5155077,-0.08929700000000002,10:00:00,17:00:00,No,
A House for Artists,https://programme.openhouse.org.uk/listings/7861,"A House for Artists is an ambitious project, designed to provide affordable, sustainable housing for artists, who will offer long-term civic and cultural engagement for communities in Barking Town Centre. Drop in to the creative workshop. This project is supported by the Mayor of London.","36 Linton Rd, Barking, IG11 8SE",51.53976280000001,0.07782059999999999,14:00:00,18:00:00,No,
A Ruskinian Walk Through Shared Heritage,https://programme.openhouse.org.uk/listings/4686,"Ruskinian walk from RIBA award-winning Chiswick Business Park, Gunnersbury Triangle Nature Reserve through South Acton Estate, birthplace of artist Patrick Caulfield; Woodlands Park Ice House; to home of Wm Willett, of Daylight Saving Time","Building 3, Chiswick Business Park, 566 Chiswick High Road, W4 5YA",51.4930625,-0.2747704,12:00:00,14:00:00,Yes,No
A tour of Victorian Bromley,https://programme.openhouse.org.uk/listings/10270,"Starting at the Exhibition 'Historic Bromley Town' taking place on the Lower Mall of The Glades, the tour tells the story of Bromley's phenomenal growth in the late 19thC  showing how the town progressed from a rural market town to suburb in about 20 yrs.","East St, North St, High Street, Bromley, BR1 1NN",51.4068185,0.0159317,11:00:00,12:30:00,Yes,True
A1 The Institute of Creativity & Technology: Design District,https://programme.openhouse.org.uk/listings/12183,"The Institute of Creativity and Technology is based in Design District building A1, designed by Barozzi Veiga. It is a future-focused home of experimentation, connection and collaboration. Explore the building and take part in workshops.","Building A1, 4 Appleby Yard, SE10 0BJ",51.5,0.00507,10:00:00,18:00:00,Yes,No
A3: Design District,https://programme.openhouse.org.uk/listings/12123,"Building A3 by Adam Khan Architects with its sturdy, geometric concrete exterior, can be seen as a nod to the aesthetics of raw construction found on emerging sites across the evolving Greenwich Peninsula.","Building A3 Design District, Soames Walk, SE10 0BJ",51.50032,0.00498,11:00:00,17:00:00,No,
A4 & B4: Design District,https://programme.openhouse.org.uk/listings/11374,A pair of affordable studio buildings as part of a new creative district on the Greenwich peninsula. David Kohn Architects worked with developer Knight Dragon on two new build creative studio buildings as part of the Design District.,"The Gateway Pavilions, Peninsula Square, SE10 0QE",51.5009405,0.0053626,12:00:00,20:00:00,No,
Abbey Mills Pumping Station,https://programme.openhouse.org.uk/listings/803,"Abbey Mills pumping station 'A', built by engineer Joseph Bazalgette, Edmund Cooper and architect Charles Driver. Built between 1865 and 1868 it is described as the cathedral of sewage.
Follow this link to book: https://bit.ly/abbeymills","Abbey Lane, E15 2RN",51.5322173,-0.0037856,10:00:00,15:50:00,Yes,No
Aberfeldy Village,https://programme.openhouse.org.uk/listings/11900,"Aberfeldy is an ambitious regeneration project in Poplar, designed for and alongside its residents and the local community.","Aberfledy Village, E14 0ND",51.51328,-0.0002,11:00:00,15:30:00,Yes,No
Acland Burghley School,https://programme.openhouse.org.uk/listings/2882,"An important example of 1960s comprehensive school design in the Brutalist style. Acland Burghley has recently received support from the National Lottery Heritage Fund for its ambitious ‘A Hall for All’ project and have welcomed in a resident orchestra, the Orchestra of the Age of Enlightenment in a collaborative partnership which is a UK-first.","93 Burghley Road, NW5 1UJ",51.5573971,-0.1396506,10:00:00,16:00:00,No,
Adobe Village Hounslow Heath Infant and Nursery School,https://programme.openhouse.org.uk/listings/5279,A unique striking playscape and adobe home structure that integrates outside learning with innovative earth forms. Construction is 'rammed' earth made from earth filled tubes. Adobe construction is recognised for sound reducing properties.,"Martindale Road, TW4 7HE",51.4672473,-0.3859606,10:00:00,14:00:00,No,
Aga Khan Centre,https://programme.openhouse.org.uk/listings/7273,"The Aga Khan Centre, designed by Pritzker prize winning architect Fumihiko Maki, houses the UK institutions of the Aga Khan Development Network. A unique feature are its six gardens inspired by different regions of the Muslim world.","Aga Khan Centre, 10 Handyside Street, N1C 4DN",51.5375703,-0.1248016,10:00:00,17:00:00,Yes,True
All Saints Church,https://programme.openhouse.org.uk/listings/11192,"Historical connections
Admiral Fitzroy sailed to Galapagos Islands with Charles Darwin.
Grave within Church grounds.
Famous artist Camille Pissarro painted local scenes one of All Saints Church.","All Saints Church, Church Road, SE19 3EP",51.4111215,-0.08613599999999999,12:00:00,18:00:00,No,
"All Saints Church, Edmonton",https://programme.openhouse.org.uk/listings/11274,Church dating back to at least early C12. Charles and Mary Lamb are buried in the churchyard.,"All Saints Church, Church Street, N9 9AT",51.62622649999999,-0.065944,11:00:00,16:00:00,No,
All along the dock edge,https://programme.openhouse.org.uk/listings/11290,"A walking tour, enlivened by unique illustrations, along the northern edge of Royal Albert Dock. Historically a frontier of trade into and out of London, it has had a fascinating journey from busy port to a place for people to call home.",In front of the Hilton Double Tree hotel Royal Albert Dock,51.5084278,0.0460274,14:00:00,16:30:00,Yes,True
Alton Estate,https://programme.openhouse.org.uk/listings/7698,Alton Estate is renowned for its mix of high-rise Le Corbusian architecture in Alton West & its low-rise Scandinavian approach to modernism in Alton East. Designed by the London County Council  architects they completed in 1959.,"49 Danebury Avenue, Roehampton, SW15 4DQ",51.44959739999999,-0.242327,10:30:00,17:00:00,Yes,No
Ancient Livery Companies in the City of London,https://programme.openhouse.org.uk/listings/10242,"On this walk we shall discover some of the livery companies, learn about their ancient traditions and ceremonies, which are repeated every year. Also hear about  their important role in the City.
Free walks led by City of London Guides","Guildhall Yard, Gresham Street, EC2V 7HH",51.5151073,-0.09212719999999999,10:30:00,15:45:00,No,
Anise Gallery- The Old Chapel,https://programme.openhouse.org.uk/listings/12093,"Located inside a fully renovated 1800s Zionist Chapel in Forest Hill, Anise Gallery will be open to the public to admire and see our completed space at The Old Chapel. There will be kids arts workshops, an exhibition and artwork sale.","27-33 Malham Road, SE23 1AH",51.44317,-0.04831,12:00:00,16:00:00,No,
"Apartment Block, 11 Kingsway Place",https://programme.openhouse.org.uk/listings/11779,"Apartment Block’ is an impeccably hand-crafted, two-storey apartment, designed by Coffey Architects as a solid piece of joinery ‘inserted’ into a Grade II listed building.","11 Kingsway Place, EC1R 0LU",51.5247289,-0.1060243,10:00:00,17:00:00,No,
Architects’ Houses of Hampstead Walking Tour,https://programme.openhouse.org.uk/listings/11974,"The walk examines the homes created by architects and designers for themselves through six remarkable case studies, spanning from the 1930s to the 1970s, from the Modernist International style to the ground-breaking Hi-tech movement.","Hampstead Heath Railway Station, NW3 2PY",51.55525,-0.16591,10:00:00,12:00:00,Yes,True
Argentine Ambassador's Residence,https://programme.openhouse.org.uk/listings/2060,During the Open House Festival people will have the unique opportunity to visit and explore the historic mansion and enjoy live performance throughout the day.,"49 Belgrave Square, SW1X 8QZ",51.50055039999999,-0.1531897,12:00:00,17:00:00,No,
Art Hub Open Studios,https://programme.openhouse.org.uk/listings/11351,"Art Hub Studios will be holding studio tours as part of its Open Studios event, explaining the history of the Industrial Estate, its position within the Thames Barrier & Bowater Road Conservation Area and its current use as art studios.","Building 28, 34 Bowater Road, Westminster Industrial Estate, SE18 5TF",51.4943653,0.0407952,11:00:00,17:15:00,Yes,No
BAPS Shri Swaminarayan Mandir,https://programme.openhouse.org.uk/listings/1645,"Europe’s first traditional Hindu temple is a masterpiece of exquisite Indian craftsmanship. Using 5,000 tonnes of Italian and Indian marble and the finest Bulgarian limestone, it was hand-carved in India before being assembled in London.","1 Pramukh Swami Road, Neasden, NW10 8HW",51.5478932,-0.2624312,10:00:00,16:00:00,No,
Baitul Futuh Mosque,https://programme.openhouse.org.uk/listings/3600,"Guided tours of the largest purpose-built mosque in Western Europe accommodating 13,000 worshippers blending of Islamic and modern British architecture. Recent developments, involving reconstruction after a fire, are nearing completion.","Ahmadiyya Muslim Association, 181 London Road, Morden, SM4 5PT",51.3976407,-0.1995107,10:30:00,17:00:00,No,
Bank of England Museum,https://programme.openhouse.org.uk/listings/2027,The museum is part of the Bank of England rebuilding in the 1930's by Sir Herbert Baker. One room is a reconstruction of 1793 Bank of England Stock Office by Sir John Soane.,"Bartholomew Lane, EC2R 8AH",51.51426,-0.08752,11:00:00,16:00:00,No,
Barking & Dagenham - regeneration trail,https://programme.openhouse.org.uk/listings/12127,"Barking and Dagenham has become the blueprint for urban regeneration. Starting at Industria, - the UK’s first multi-storey light industrial development - and finishing at A House for Artists, this self-guided trail gives visitors the opportunity to experience the transformation of the borough. These projects are supported by the Mayor of London.","Long Reach Road, IG11 0JH",51.52189,0.09878,11:00:00,18:00:00,Yes,No
Barking Riverside London,https://programme.openhouse.org.uk/listings/600,"A new sustainable neighbourhood being created alongside 2km of south-facing Thames river frontage. A partnership with The Mayor of London and L&Q, 10,800 new homes will house up to 29,000 people.","Barking Riverside Project Office, Project Road, Barking, IG11 0YP",51.51864,0.11877,10:00:00,19:00:00,No,
Barking Town Centre Tour,https://programme.openhouse.org.uk/listings/5980,Barking town centre has seen significant development over recent years with substantial growth in housing and infrastructure. These guided tours will visit existing award winning schemes and set out the vision for the future of the town.,"1 Town Square, Barking, IG11 7LU",51.5360164,0.07875209999999999,10:00:00,12:30:00,Yes,True
Beck Road Studios: Open Studios Exhibitions,https://programme.openhouse.org.uk/listings/11954,"Explore a vibrant artist community beneath a railway arch at our open studios! Engage with talented artists, discover diverse exhibitions. Join us in celebrating the creativity and sense of togetherness that define this unique space.","343-344 Arches, Beck Road, E8 4RE",51.53684,-0.05696,11:00:00,18:00:00,No,
Bells and Belfries at St Botolph Aldgate,https://programme.openhouse.org.uk/listings/2492,"Opportunity to hear a description and watch a demonstration of bell ringing (on Saturday only).
Church built by architect of Mansion House and contains London's oldest organ.","St Botolph's Church, Aldgate High Street, EC3N 1AB",51.5140611,-0.0764628,10:00:00,16:00:00,No,
Benjamin Franklin House,https://programme.openhouse.org.uk/listings/2347,"Grade I listed Georgian house, the only surviving home of Benjamin Franklin, retaining many original features including central staircase, lathing, 18th Century panelling, stoves, windows, fittings and beams.","36 Craven Street, WC2N 5NF",51.5076423,-0.1248869,10:00:00,16:00:00,No,
Bernie Grant Arts Centre,https://programme.openhouse.org.uk/listings/12105,"Bernie Grant Arts Centre (BGAC) is a multi-art form venue, situated in the heart of Tottenham.  As London’s only Black-led combined arts venue that prioritises Black creativity, we fulfil a critically important role in our area.","Town Hall Approach Road, N15 4RX",51.58718,-0.07224,10:00:00,18:00:00,Yes,No
Bethlem Gallery clay workshops,https://programme.openhouse.org.uk/listings/12166,"These workshops give participants the opportunity to model in air-dry clay one or more structure/s on the Bethlem Royal Hospital site, then either add it to an existing display at Bethlem Gallery, or take it home, as they prefer.","Bethlem Gallery, Monks Orchard Road, Beckenham, BR3 3BX",51.38084,-0.02937,11:00:00,15:00:00,Yes,No
Bethlem Royal Hospital,https://programme.openhouse.org.uk/listings/12129,"Guided walking tours of the grounds of Bethlem Royal Hospital, taking in the Hospital's historic Chapel, its beautiful grounds, Bethlem Museum of the Mind, and Bethlem Gallery. Open House 2023 tours delivered as part of This is Croydon, London Borough of Culture, with the support of Mayor of London and Croydon Council.","Bethlem Museum of the Mind, Beckenham, BR3 3BX",51.38092,-0.02931,10:30:00,12:00:00,Yes,True
Bevin Court,https://programme.openhouse.org.uk/listings/2214,One of London's hidden Modernist gems. Lubetkin's motto 'Nothing is too good for ordinary people' resonates through this building.,"Cruikshank Street, WC1X 9HA",51.5304869,-0.1112792,10:30:00,15:45:00,Yes,True
Bikeworks,https://programme.openhouse.org.uk/listings/11788,"As part of Open House 2023, Bikeworks would like to invite the public to visit to their new inclusive cycling centre of excellence and accredited training centre located opposite the Velodrome on the the Olympic Park in Stratford.","Bikeworks, Abercrombie Road, Stratford, E20 1FU",51.55021379999999,-0.0157841,11:00:00,16:00:00,No,
Billingsgate Roman House & Baths,https://programme.openhouse.org.uk/listings/5296,"Some of London's best Roman remains, comprising late 2C house with a 3C bath house built within its courtyard. First discovered in 1848.","101 Lower Thames Street, EC3R 6DL",51.5092887,-0.08305119999999999,11:00:00,13:45:00,Yes,True
Black & White Building,https://programme.openhouse.org.uk/listings/11948,Architect led tours,"74 Rivington Street, EC2A 3AY",51.52603,-0.07904,10:30:00,16:10:00,No,
Black Kite Studios,https://programme.openhouse.org.uk/listings/12092,"Black Kite is an award-winning independent visual effects and design studio. Their new London studio - a riot of colour and geometry by Bureau de Change - supports a collective of creatives, offering a home from home.","46 Featherstone Street, EC1Y 8RN",51.52462,-0.08922,14:00:00,17:50:00,Yes,True
Blenheim Grove,https://programme.openhouse.org.uk/listings/12094,The first custom-build homes built in London. A terrace of flats and houses which was built from scratch and sold at 'shell' for the owners to fit-out themselves.,"56-64 Blenheim Grove, SE15 4QL",51.46928,-0.07042,10:00:00,13:00:00,Yes,True
Bloqs,https://programme.openhouse.org.uk/listings/12025,"Bloqs is the UK's first open-access factory providing flexible and affordable access to industrial machinery, workshops and training with cafe / exhibition space and events venue. Winner of 3 architectural awards in 2023 from RIBA and AJ. This project is supported by the Mayor of London.","Bloqs, 2 Anthony Way, N18 3QT",51.60894,-0.04022,09:00:00,20:00:00,No,
Boston Manor House,https://programme.openhouse.org.uk/listings/10142,"Boston Manor House is a Jacobean House built for Lady Mary Reade in 1623 and later owned by the Clitherow family from the 1670s until the 1920s.  The House is now open to the public with free entry six days a week. Its beautifully restored historic interiors, including breath-taking original ornate plasterwork, are joined by two community exhibition galleries, meeting rooms and an attractive modern café","Boston Manor House, Boston Manor Road, Brentford, TW8 9JX",51.49191829999999,-0.3183739,11:00:00,16:30:00,Yes,True
Bower House,https://programme.openhouse.org.uk/listings/1249,"Grade I listed country house commanding the most extensive southerly views over Essex. Staircase mural by Sir James Thornhill, a painter notable for the 'Painted Hall' at the Royal Naval Hospital at Greenwich. Set in grounds with a pond.","Orange Tree Hill, Havering-atte-Bower, Romford, RM4 1PB",51.610204,0.184998,10:00:00,16:00:00,No,
Brady Arts and Community Centre,https://programme.openhouse.org.uk/listings/11669,"The Brady Arts & Community Centre is on Hanbury St, just off Brick Lane in the busy & creative part of East London. It opened in 1935 as the Brady Jewish Girls & Boys Clubs.  We are holding our open day on Saturday 16 September.  Come and find out about the centre’s history and take part in drop in arts activities’.","192-196 Hanbury Street, Tower Hamlets, E1 5HU",51.5196189,-0.0654358,12:00:00,16:00:00,No,
Bridget Riley studios,https://programme.openhouse.org.uk/listings/12002,"See behind the scenes of working studios that are not usually open to the public. Discover work by some of the UK’s top artists, from internationally acclaimed names to new and emerging talent.","43 Dace Road, E3 2NG",51.538,-0.02281,11:00:00,18:00:00,No,
Britannia Works studios,https://programme.openhouse.org.uk/listings/12001,"See behind the scenes of working studios that are not usually open to the public. Discover work by some of the UK’s top artists, from internationally acclaimed names to new and emerging talent.","56 Dace Road, E3 2NQ",51.53757,-0.02333,11:00:00,18:00:00,No,
Brockley's Historic Mews,https://programme.openhouse.org.uk/listings/9008,"Guided walks through Brockley Conservation Area's quirky mews: leafy lanes, industrial units, Victorian and interesting modern architecture existing in harmony. The cherished public right of way  allows community contact with nature.","Ashby, Wickham, Breakspears Mews, Junctions with Ashby Road, SE4 1TF",51.4680784,-0.0322275,10:30:00,14:45:00,No,
Bromley Archives- Bromley Central Library,https://programme.openhouse.org.uk/listings/11775,Take a tour around Bromley Archives. The archive store itself is normally closed to the public and visitors will be allowed access within this space and a look at some of the items that we have in our collection.,"Bromley Historic Collections, Bromley Central Library, High Street",51.4036023,0.0147679,11:00:00,16:00:00,Yes,No
Bromley and Sheppard's College,https://programme.openhouse.org.uk/listings/555,"Founded to house the widows of clergymen, the original building consisted of 20 houses built around a classically-styled quadrangle. Captain Richard Ryder – one of Sir Christopher Wren's surveyors – was in charge of design and construction.","London Road (entrance via Wren Gates, no vehicle entry), Bromley",51.4078207,0.0151453,10:00:00,16:00:00,Yes,No
Bruce Castle Museum,https://programme.openhouse.org.uk/listings/2728,"Tudor Manor House built for Sir William Compton in 1514, substantially altered in 17C, 18C & 19C. A museum since 1906 housing local history and community collections, archives, art & exhibitions of Bruce Castle, and Haringey area.","Bruce Castle Museum,, Lordship Lane, Tottenham, N17 8NU",51.59914939999999,-0.0754686,13:00:00,16:15:00,No,
Bruce Grove Public Conveniences,https://programme.openhouse.org.uk/listings/12043,"Guided tours of Grade-II listed Public Conveniences under refurbishment to become a new social value commercial space, including the basement (c1910), ground floor pavilion (c1922) and extension (under construction) and discuss the site’s history and future.","123 Bruce Grove, N17 6UR",51.59452,-0.07004,12:00:00,15:45:00,Yes,No
Burgundy Lanes,https://programme.openhouse.org.uk/listings/11931,The project transforms a nondescript mid-century house on Green Lanes in North London into a unique family home that is simple and restrained from the outside but sophisticated and materially rich and inside.,"206a Green Lanes, N4 2HS",51.56433,-0.09224,10:00:00,16:00:00,Yes,True
Burlington House: Linnean Society of London,https://programme.openhouse.org.uk/listings/2074,"The world's oldest active biological society. Founded in 1788, the Society takes its name from the Swedish naturalist Carl Linnaeus whose botanical, zoological and library collections have been in its keeping since 1829.","Piccadilly, W1J 0BF",51.5082999,-0.139365,10:00:00,17:00:00,No,
Burlington House: Royal Academy of Arts,https://programme.openhouse.org.uk/listings/1513,"Discover a new side of the Royal Academy of Arts, including hidden spaces not usually open to the public.","Piccadilly, W1J 0BD",51.5067326,-0.1428696,10:00:00,18:00:00,Yes,No
Burlington House: Royal Astronomical Society,https://programme.openhouse.org.uk/listings/4496,"The home of the Royal Astronomical Society since 1874, refurbished in 2007. Part of the extension to Burlington House to provide accommodation for learned societies.","Piccadilly, W1J 0BQ",51.5082999,-0.139365,10:00:00,16:55:00,Yes,True
Burlington House: Royal Society of Chemistry,https://programme.openhouse.org.uk/listings/3091,"Experience the history, architecture and science of the East Wing of Burlington House, home to the Royal Society of Chemistry. Part of the quadrangle extension to Burlington House, it was purpose built for the learned society.","Piccadilly, W1J 0BA",51.50893,-0.1391903,10:00:00,17:00:00,No,
Burlington House: The Geological Society of London,https://programme.openhouse.org.uk/listings/4938,"Home to the oldest geological society in the world, founded in 1807. The Society has been based at Burlington House since 1874, and now has over 12,000 members worldwide.","Piccadilly, W1J 0BG",51.5082999,-0.139365,10:00:00,17:00:00,No,
C2 Clod Ensemble Studios : Design District,https://programme.openhouse.org.uk/listings/11214,"The building, designed by Mole Architects, comprises a 2000 square foot rehearsal top-lit studio, open-plan office, music production studio. Constructed entirely from timber, clad in weathered steel and designed to limit energy consumption.","C2 Cripps Yard, Soames Walk, Design District, SE10 0BQ",51.500307,0.0054362,10:00:00,16:00:00,Yes,No
C3 : Bureau Design at District,https://programme.openhouse.org.uk/listings/10391,"C3 is home to Bureau, a members club at the heart of Design District. Its undulating white facade creates informal pockets of space on the interior, ideal for flexible working models.","13 Soames Walk, SE10 0AX",51.49967119999999,0.0062057,11:00:00,17:00:00,No,
Cannizaro Studios,https://programme.openhouse.org.uk/listings/6925,"Victorian Potting sheds converted to artists' studios set within the grounds of Grade II listed Cannizaro Park.
The eight resident artists will be displaying their work during the festival at these unique studios.","The Old Potting Sheds, Cannizaro Park, SW19 4UW",51.423552,-0.2307117,11:00:00,17:00:00,No,
Carpenters' Hall,https://programme.openhouse.org.uk/listings/2808,"Livery Hall first built in 1429, much altered then demolished and rebuilt in 1880, destroyed in 1941 except for external walls (W W Pocock). Designed as a showpiece for the craft of carpentry, the third Hall on the site.","1 Throgmorton Avenue, EC2N 2JJ",51.516537,-0.0857655,10:00:00,16:00:00,No,
"Central Park, War Memorial and Cafe",https://programme.openhouse.org.uk/listings/11038,"The park opened in 1898. 7,000 attended the event, enjoying refreshments and speeches stressing the importance of creating resources for children. The walkways, fountain, bowling green, war memorial and cafe were incorporated over time.","Central Park Road, E6 3HW",51.5295243,0.0478125,11:00:00,15:00:00,No,
Chancery House,https://programme.openhouse.org.uk/listings/12226,"Chancery House, on Chancery Lane, close to Lincoln’s Inn Fields, is a building with a fascinating history. Architects DMFK redeveloped the existing building for clients The Office Group, transformed the site into a new flexible workspace.","Chancery Lane, WC2A 1QS",51.51727,-0.11304,13:00:00,16:00:00,Yes,True
Chart Street Studios,https://programme.openhouse.org.uk/listings/10574,"The redevelopment of a former furniture warehouse in Hackney. Using CLT and glulam, the existing building has been extended to include a new building over the yard as well as a new office space on the top floor of the main building.","16 Chart Street, N1 6DD",51.5280042,-0.085286,10:00:00,14:45:00,Yes,True
Chelsea Creek: photography walk & talk,https://programme.openhouse.org.uk/listings/11880,"Join Chris Hopkinson, of Chromaphotography for an architecture photography walk around Chelsea Creek, a new canalside neighbourhood by St George. Chris is a qualified Architect, turned professional photographer & videographer.","9 Park Street, SW6 2FS",51.4754,-0.18516,11:00:00,15:30:00,Yes,No
Chris Dyson Architects LLP,https://programme.openhouse.org.uk/listings/11945,"Built originally as a pub (the Queen’s Head) circa 1825, at the time of parliament’s ‘road improvement scheme’, CDA’s 2016/17 renovations and extension of the building included restoration of the exterior brickwork, tiling and windows.","1 Fashion Street, Spitalfields, E1 6LY",51.51842,-0.07413,10:00:00,16:00:00,Yes,No
Christ Church,https://programme.openhouse.org.uk/listings/2462,"Grade II* listed church with ragstone tower, spire, good stained glass by Kempe and recently restored William Hill organ. A characteristic work of Scott. It is Gothic Revival in the style of the 13C.","Wanstead Place, E11 2SW",51.5780156,0.0236308,13:30:00,16:30:00,No,
Christ Church Southgate and the Minchenden Oak Garden,https://programme.openhouse.org.uk/listings/5128,Grade II listed church with fine collection of Pre-Raphaelite stained glass windows by Morris & Co. including Burne Jones and Rossetti. Wall paintings. Mosaic reredos. Minchenden Oak  - ancient pollarded oak more than 800 years old.,"Waterfall Road , Southgate, N14 7EG",51.6212818,-0.1358408,10:00:00,16:30:00,No,
"Church of St Andrew the Apostle, Catford",https://programme.openhouse.org.uk/listings/11908,St Andrew's is a Grade II* listed building by Philip Appleby Robson (1871–1951). It boasts a magnificent Arts and Crafts interior with rich wood carvings in the chancel and magnificent stained-glass windows by Martin Travers (1886–1948).,"Sandhurst Road, Catford, SE6 1XD",51.44213,-0.00353,10:00:00,17:00:00,No,
Church of the Annunciation,https://programme.openhouse.org.uk/listings/2469,"Fine Victorian church with large mosaic and painted reredos, screen and wall paintings and some unusual glass. Arts and crafts decoration by Nathaniel Westlake and Salviati Bros.","High Street, Chislehurst, BR7 5AQ",51.4188952,0.066874,10:00:00,16:00:00,No,
Churchill Theatre,https://programme.openhouse.org.uk/listings/3644,"Wonderful example of a repertory theatre in style of European opera houses, with vast stage, sub-stage workshops and auditorium seating 785.","High Street, Bromley, BR1 1HA",51.4037655,0.0144484,10:00:00,12:00:00,No,
City Information Centre,https://programme.openhouse.org.uk/listings/4009,London's main tourist information centre is clad in a specially manufactured system of 220 pre-finished stainless steel panels. The subtly reflective surface provides a striking counterpoint to St Paul's.,"St Paul's Churchyard, EC4M 8BX",51.5132944,-0.0989526,09:30:00,17:30:00,No,
Colour Casing,https://programme.openhouse.org.uk/listings/11836,"Awarded best project under £100k by Don’t Move Improve, Colour Casing creates the flexibility of a house within the footprint of an original small flat with a new rear and side addition.","108 Dunstans Road, SE22 0HE",51.4507827,-0.06643589999999999,10:00:00,16:00:00,No,
Conway Hall,https://programme.openhouse.org.uk/listings/3425,"The home of Conway Hall Ethical Society, an organisation renowned as a hub for free speech and progressive thought. Grade II listed building with both Arts and Crafts and Art Deco features adding to its distinctive style.","25 Red Lion Square, WC1R 4RL",51.51987740000001,-0.118179,10:00:00,17:30:00,Yes,No
Coopers' Hall,https://programme.openhouse.org.uk/listings/8446,"Coopers' Hall is a late 17th century, timber-framed merchant's house with a Georgian frontage. A Livery Hall since 1957, it features a fine Courtoom, dining room and an impressive staircase spiralling up the entire height of the building.","13 Devonshire Square, City of London, EC2M 4TH",51.5168085,-0.0792252,10:00:00,16:00:00,No,
Crawley Road Studios,https://programme.openhouse.org.uk/listings/12287,"Crawley Road Open Studios, Tottenham Boutique and Makers Market and Turning Earth Ceramics Market, gourmet street food led by resident chefs Bolland and Crust, art exhibition and a wide range of making demonstrations and family activities.","Crawley Road Studios, 38 Crawley Road, N22 6QS",51.59497,-0.09157,11:00:00,19:00:00,No,
Croydon Town Hall,https://programme.openhouse.org.uk/listings/12168,"Croydon Town Hall will be opened for a limited number of guided tours, providing rare access this unique Victorian-style, Grade II listed building. Croydon Town Hall was designed by local architect Charles Henman and opened in 1896.","Katherine Street, Croydon, CR0 1NX",51.37235,-0.09927,10:00:00,13:45:00,No,
Crystal Palace Park Dinosaurs  – a tour with a London Blue Badge Tourist Guide,https://programme.openhouse.org.uk/listings/9374,"Explore the world's first dinosaur models hidden in a south London park. The 30 Grade I listed, life-size statues of dinosaurs and other extinct animals at Crystal Palace Park have thrilled
visitors for 166 years. Tour is kids friendly.","Crystal Palace Overground station, Crystal Palace Overground station",51.41811000000001,-0.07257999999999999,11:00:00,13:00:00,Yes,True
"Cut Glass Studio Ltd, Tottenham Hale",https://programme.openhouse.org.uk/listings/8330,Unit used as an art studio in a small industrial estate.,"15-16 The High Cross Centre, Fountayne Road, N15 4QN",51.5850051,-0.06140909999999999,10:00:00,17:00:00,No,
Cycle tour of Thamesmead,https://programme.openhouse.org.uk/listings/11966,"As a modernist 1960s development designed around extensive waterways and pedestrian routes, Thamesmead is also a perfect place for cycling. This cycle tour will take you deep into the 'Town of the 21st Century'. Highlights also include Grade I-listed Crossness Pumping Station and Lesnes Abbey ruins.","Outside Abbey Arms pub, (next to Abbey Wood Station, 31 Wilton Road",51.4907,0.12102,13:00:00,16:00:00,Yes,No
D1 & C1: Bureau at Design District,https://programme.openhouse.org.uk/listings/12121,"Building D1, designed by Architecture 00 forms one of two buildings that house Bureau, which offers coworking in the heart of Design District. D1 is home to a variety of workspaces and businesses with meeting rooms, studios and Forum.","13 Soames Walk, Design District, SE10 0AX",51.49967,0.0062,11:00:00,15:00:00,No,
D2 : Design District,https://programme.openhouse.org.uk/listings/12122,"Building D2 designed by Mole Architects has a striking exterior with an iridescent painted finish that changes colour with the light. Internally timber was chosen for its renewable low-carbon properties.
Mole Architects also designed the adjacent C2, Ziggurat-shaped and clad in CorTen weathered steel, which makes a striking statement. The building is fitted out with a test kitchen and studios.","Building D2, 3 Dormer Yard, SE10 0EB",51.49963,0.00684,11:00:00,15:00:00,Yes,No
D4 : Design District,https://programme.openhouse.org.uk/listings/12128,"D4 overlooks central square with a tall and slim facade acting as a landmark feature within
the district.","Building D4, Design District, Dormer Yard, 5-6 Soames Walk, SE10 0AX",51.49954,0.00595,10:00:00,16:00:00,No,
DEEP SPACE,https://programme.openhouse.org.uk/listings/11665,"New build live/ work unit, unique architecture in a quiet mews in Brockley.","DEEP SPACE, 4 Ashby Mews, SE4 1TB",51.46807,-0.0323,11:00:00,18:00:00,No,
Dalston C.L.R. James Library & Hackney Archives,https://programme.openhouse.org.uk/listings/5197,"4-storey multi-purpose, state of the art library and archives building.","Dalston Square, Dalston Lane, E8 3BQ",51.5457087,-0.0743683,11:00:00,13:00:00,Yes,No
Dalston Eastern Curve Garden,https://programme.openhouse.org.uk/listings/5006,A vital community garden offering a model for maximum good for communities and for the environment on a small urban plot. It is now a site of Local Importance for Nature Conservation. Shortlisted for the Open City Stewardship Awards 2021.,"13 Dalston Lane, E8 3DF",51.5469316,-0.0733723,13:00:00,16:45:00,Yes,No
Dawson's Heights,https://programme.openhouse.org.uk/listings/6329,"Celebrating it's 50th year this year Dawson's Heights is split between 2 blocks consisting of 296 flats, all with private balconies. A fantastic example of beautifully designed social housing with uninterrupted views of the London skyline.","Bredinghurst, Overhill Road, East Dulwich, SE22 0PL",51.446628,-0.0681768,10:00:00,17:00:00,Yes,No
Decolonising Wembley,https://programme.openhouse.org.uk/listings/12221,"Imperial Nostalgia & the Built Environment –  A thought-provoking keynote address followed by a panel discussion exploring the theme of imperial nostalgia in the built environment, using Wembley as a case study.","20-21 Bloomsbury Way, WC1A 2TH",51.51803,-0.123,17:00:00,19:30:00,Yes,True
Deep Retrofit to 1960's terrace house,https://programme.openhouse.org.uk/listings/11864,"This house is a deep low carbon retrofit to classic late twentieth century terrace house typology by the owner architect. Alongside energy demand reduction to EnerPHit criteria and comfort improvement, the house interior has been remodelled","28 Hensford Gardens, SE26 6JG",51.4303925,-0.06166290000000001,10:00:00,16:30:00,No,
Deep Retrofit to a Detached 1960s House,https://programme.openhouse.org.uk/listings/11689,"One of several houses that have had a whole house deep retrofit. Energy efficiency measures include significant  insulation (external, internal, floor, cavity and loft), air tightness measures, triple glazed windows, MVHR, and ASHP.","37 Dukesthorpe Road, SE26 4PB",51.4280565,-0.0482532,10:00:00,16:30:00,No,
Deptford Nurseries Walking Tour,https://programme.openhouse.org.uk/listings/11887,"This tour will tell the story of the English nursery - bringing milk, sunshine and playtime to slum children, giving working women a safe place to send their infants, taking over spaces that were designed for other things.","Deptford Station, SE8 3NU",51.47902300000001,-0.026078,10:30:00,13:00:00,Yes,True
Design District Canteen,https://programme.openhouse.org.uk/listings/12184,"Designed by SelgasCano, listen to musicians perform in different areas inside and outside of Canteen during the festival. We'll be showcasing some of London's best independent musicians. Enjoy food and drink from global street food traders.","Soames Walk, SE10 0AX",51.49995,0.00581,08:00:00,23:00:00,No,
Design District Public Realm,https://programme.openhouse.org.uk/listings/12214,"Design District is a collection of 16 buildings designed by eight architects, one minute from North Greenwich station. The District supports an ecosystem of creative businesses and helps foster connections through affordable spaces, comprehensive facilities and a thriving events programme.","The Gateway Pavilions, Peninsula Square, SE10 0QE",51.50094,0.00536,10:00:00,20:00:00,No,
Devonport Mausoleum,https://programme.openhouse.org.uk/listings/249,"Beautiful mausoleum in former Royal Navy cemetery, restored 1999 by the University of Greenwich. Many interesting plaques and grave stones.","Devonport Mausoleum , Romney Road, SE10 9NF",51.4805875,-0.007114799999999999,10:30:00,16:00:00,No,
Dr Johnson's House,https://programme.openhouse.org.uk/listings/275,"Fine example of an early 5-floor Queen Anne town house with original panelling, open staircase and unique 'swinging panels' on the open-plan first floor. Johnson compiled his famous 'Dictionary of the English Language' (1755)  here.","17 Gough Square, EC4A 3DE",51.5150637,-0.1081791,11:00:00,17:00:00,No,
Edith Neville Primary School and Children's Centre,https://programme.openhouse.org.uk/listings/12162,"Come inside Hayhurst & Co’s intricate, light-filled building, bursting with architectural ideas and extraordinary spatial events to hear how it’s rooted in a coherent educational ethos – and empathy with young children.","174 Ossulston Street, NW1 1DN",51.5328,-0.13117,10:00:00,13:00:00,No,
Estorick Collection of Modern Italian Art,https://programme.openhouse.org.uk/listings/7787,"The Estorick Collection is housed in a beautiful Georgian building previously known as Northampton Lodge. Today, the museum comprises six galleries over three floors, as well as a library, offices, a café and bookshop.","39a Canonbury Square, N1 2AN",51.5439433,-0.1003491,11:00:00,18:00:00,Yes,No
Fitzroy Park Allotments,https://programme.openhouse.org.uk/listings/9014,"open allotment site, no buildings","Fitzroy Park, Highgate, N6 6HU",51.5685811,-0.1572856,14:00:00,17:00:00,No,
Fleet Street Heritage Information Project and Sundial,https://programme.openhouse.org.uk/listings/10644,"This new sundial faces East so gets only morning sun. It is 10 m. square and was opened in 2021, and is publicly accessible 24/7","61 Fleet Street, EC4Y 1JU",51.51412879999999,-0.1080343,09:00:00,14:30:00,Yes,No
Floating House,https://programme.openhouse.org.uk/listings/11505,,"1 Ruskin Avenue, Richmond, TW9 4DR",51.47987,-0.28169,10:30:00,18:00:00,No,
Forma HQ & Peveril Gardens,https://programme.openhouse.org.uk/listings/9816,"A garden atop a former parking structure at the base of Peveril House. It sits on top of artists studios, also refurbished using minimal interventions by architects Sanchez Benton. Shortlisted for the Open City Stewardship Awards 2021. This project is supported by the Mayor of London.","Forma HQ, Peveril Garden Studios, 140 Great Dover St, SE1 4GW",51.4952748,-0.0863057,11:00:00,16:00:00,No,
Foster + Partners,https://programme.openhouse.org.uk/listings/422,"We're excited to open up our London campus as part of Open House Festival. Foster + Partners is a global studio for sustainable architecture, urbanism, engineering and design, founded by Norman Foster in 1967. With offices across the world, the practice works as a single entity that is both ethnically and culturally diverse, with people central to all our endeavours.","Riverside, 22 Hester Road, SW11 4AN",51.48025,-0.168501,10:00:00,16:00:00,No,
Four Corners,https://programme.openhouse.org.uk/listings/4215,"Refurbished extended building, a centre for film and photography. Central courtyard integrated 'hub' allows light and air to filter through. Loft conversion to create studio and work space. Sustainable features include sedum roof.","121 Roman Road, E2 0QN",51.52875179999999,-0.0488433,11:00:00,18:00:00,No,
From Forest to Morris: A walk around Walthamstow,https://programme.openhouse.org.uk/listings/11296,"A walk around historic Walthamstow showing how this unique area grew from a village into a thriving suburb, its social history and the variety of buildings that can be found where Epping Forest meets William Morris.",Outside Costa Coffee at Walthamstow Central Station 5 Station Approac,51.5828202,-0.0194102,11:00:00,13:00:00,Yes,True
Garden Court Chambers,https://programme.openhouse.org.uk/listings/3479,"Inigo Jones design 1640 at 59/60 LIF, copied  by 57/58  with portico and elliptical staircase added by Soane.  Refurbished by current occupiers, a barristers' chambers. Retains many original features, staircases, fireplaces and mouldings","57-60 Lincoln's Inn Fields, WC2A 3LJ",51.5157532,-0.1184708,10:00:00,16:00:00,No,
Garden Room,https://programme.openhouse.org.uk/listings/11813,Flexible use garden room in a newly established garden.,"54A Ockendon Road, Islington, N1 3NW",51.5441392,-0.08700920000000001,13:00:00,17:30:00,No,
Glenkerry House,https://programme.openhouse.org.uk/listings/9437,"Glenkerry House is a 14-storey tower block designed by Hungarian architect Ernő Goldfinger. The block is managed by its residents, who collectively form the Glenkerry Co-operative Housing Association.","Glenkerry House, Poplar, E14 0SL",51.5141859,-0.0108145,14:30:00,15:45:00,Yes,True
Good Growth in Angel Edmonton,https://programme.openhouse.org.uk/listings/12223,Welcoming visitors to Angel Edmonton to explore a number of newly developed places and spaces that are helping steward the area through significant change. Delivered by Enfield Council with support from the Mayor of London.,"34 Snell's Park, N18 2FD",51.61015,-0.06764,10:00:00,20:00:00,Yes,No
Green House,https://programme.openhouse.org.uk/listings/10309,"A new exposed CLT-frame house, built on a site once occupied by market garden greenhouses, featuring a planted façade with sliding external screens and a riad-style central atrium, assisting in natural daylighting, ventilation and cooling.","25 Jansons Road, N15 4JU",51.58884699999999,-0.07741769999999999,14:00:00,17:00:00,No,
Greenwich Millennium Village,https://programme.openhouse.org.uk/listings/12251,"The most recent chapter of Greenwich Millennium Village’s remarkable 25 year history is told through this audio walking tour, featuring a rich variety of stories from current residents.","Greenwich Millennium Village, SE10 0EL",51.49364,0.01101,11:00:00,12:30:00,Yes,No
Guildhall Art Gallery,https://programme.openhouse.org.uk/listings/1405,"UPDATED: Open daily 10.30am-4pm. 
Guided tours 12.15pm & 1.15pm on Tuesdays, Thursdays, Fridays, Saturdays & Sundays, see below.
Home of the City of London's art collection, & remains of London's Roman Amphitheatre","Guildhall Yard, EC2V 5AE",51.5152512,-0.0921379,11:00:00,15:30:00,Yes,No
Gulabi House,https://programme.openhouse.org.uk/listings/11764,"An extension to an Edwardian terrace house in Tottenham for a young family that marries their cultural backgrounds, inspired by Indian modernism.","4 Lydford Road, N15 5PX",51.5810828,-0.082624,13:00:00,17:30:00,No,
Haberdashers' Hall,https://programme.openhouse.org.uk/listings/541,"Opened by the Queen in 2002 as one of the first new livery halls in the Square Mile for nearly 40 years, this is a brick building with traditional lime mortar and handsome lead roof, standing around a peaceful courtyard.",18 West Smithfield (opposite Barts Hospital by traffic barrier under,51.51806149999999,-0.1018903,09:00:00,16:00:00,No,
Hackney Archives - Searchroom Strongroom Tour 16th Sept,https://programme.openhouse.org.uk/listings/12163,Join us for a live talk and tour around the searchroom and explore what's in our collections. We will show you how to explore Hackney's past and present.,"Hackney Archives Dalston Square, CLR James Library, E8 3BQ",51.54613,-0.07417,11:00:00,12:30:00,Yes,True
Haggerston Wharf live-aboard boats,https://programme.openhouse.org.uk/listings/11301,A small community of people living aboard an array of traditional and contemporary craft. Open to viewers are two traditional narrowboats and one widebeam. Visit to have your boat toilet related questions answered for once and for all.,"Haggerston Wharf, Kenning Terrace, N1 5FA",51.5374107,-0.0832434,10:00:00,15:30:00,No,
Hampton Court - Little Banqueting House,https://programme.openhouse.org.uk/listings/11280,,"Hampton Court Palace, KT8 9AU",51.40361,-0.33776,10:00:00,17:30:00,No,
Haringey's New Council Homes Exhibition & Talks,https://programme.openhouse.org.uk/listings/11268,"Haringey Council invites you to an exhibition with short talks about our ambitious council homes building programme, including how our new homes help tackle climate change, keep energy bills down, and support our most vulnerable residents.","Living Under One Sun, Bowling Green and Pavillion, Down Lane Park",51.59158249999999,-0.0621596,11:00:00,16:00:00,No,
"Harrow School: Old Schools, Fourth Form Room",https://programme.openhouse.org.uk/listings/426,"Best preserved 17C schoolroom in the country. Wainscot panelling, benches, tables and chairs. Original fireplace replaced in 1730, oriel window inserted in 1820. Walls carved with names of every Harrow pupil until 1847.","Old Schools, Church Hill, Harrow-on-the-Hill, HA1 3HP",51.5735536,-0.3371024,15:30:00,17:00:00,No,
Harrow School: Old Speech Room Gallery,https://programme.openhouse.org.uk/listings/1273,Purpose built room intended for the teaching of public speaking which figured prominently in the classical curriculum. Converted 1976 by Alan Irvine into modern gallery with mezzanine floor.,"Church Hill, , Harrow-on-the-Hill, HA1 3HP",51.5735536,-0.3371024,14:00:00,17:00:00,No,
Hassett,https://programme.openhouse.org.uk/listings/11918,"Architects own house in Hackney. 

A very recently completed re-work of a 70's split-level house in Hackney. The house is owned by architect and partner of Archmongers Architects, Johan Hybschmann and his wife Anita Freeman.","12 Hassett Road, E9 5SN",51.5461549,-0.0407312,10:00:00,16:00:00,No,
Havant House 53,https://programme.openhouse.org.uk/listings/11119,"A victorian mid terrace house with a dark blue exterior and a zany tiled front garden. Full of original features without being dictated by the era, colour continues inside with a yellow rubber floor in the kitchen.","53 Havant road, Walthamstow, E17 3JE",51.58836729999999,-0.0069079,10:00:00,13:30:00,Yes,True
Heritage on the High Road (High Street HAZ),https://programme.openhouse.org.uk/listings/10928,"Hear about some of the initiatives under way in the Tottenham High Street Heritage Action Zone (High Street HAZ). LB Haringey and the Tottenham Civic Society host a tour uncovering the rich heritage of this bustling, multicultural area.","Bruce Grove Public Conveniences, Bruce Grove, N17 6UR",51.59624,-0.07235,12:00:00,13:00:00,Yes,True
Highgate Literary & Scientific Institution,https://programme.openhouse.org.uk/listings/606,"Fine stuccoed building overlooking Pond Square, and home to Institution since 1840. Formed from 1790 coach house, stables and yard, with final additions c1880. Guided tours will be available.","11 South Grove, N6 6BS",51.5701708,-0.1484756,12:00:00,15:00:00,No,
"Highgate School Chapel, Library, Museum",https://programme.openhouse.org.uk/listings/604,"Highgate is three schools in one. Founded by Sir Roger Cholmeley, Lord Chief Justice of England, in 1565, Highgate is governed as a single charitable foundation.","Highgate School, North Road, N6 4AY",51.5721393,-0.1492358,10:00:00,13:00:00,No,
Highpoint,https://programme.openhouse.org.uk/listings/3069,Grade I listed Modernist apartment blocks retaining many original features.,"Highpoint, North Hill, Highgate, N6 4BA",51.57489469999999,-0.1506656,10:00:00,18:00:00,Yes,True
Historic & Modern Buildings in the City,https://programme.openhouse.org.uk/listings/10240,"On this walk we will see many historic & modern buildings. see different architecture styles having regard to the environment and sustainability, and hear about famous architects, past and present.

Free walks led by City of London Guides","Guildhall Yard, Gresham Street, EC2V 7HH",51.5151073,-0.09212719999999999,10:15:00,15:30:00,No,
Historic Bromley Town Exhibition,https://programme.openhouse.org.uk/listings/11955,An Exhibition celebrating the historic character and heritage of Bromley from its origins as a Kentish market town through the Victorian Golden Age to the present time with many buildings in the Arts and Crafts style that can be seen today.,"Lower Mall, The Glades shopping centre, 64 High Street, Bromley",51.40373,0.01643,09:00:00,19:00:00,No,
"Holy Cross Church, Cromer Street",https://programme.openhouse.org.uk/listings/9100,"Grade ll listed Oxford Movement Anglican church built 1887-88. Historic England describe the exterior as ‘quirky and aggressive’ but the  interior is ‘very spare and elegant, the proportions subtly adjusted’. Elevated choir and sanctuary.","Cromer Street, WC1H 8JU",51.5275753,-0.1235712,11:00:00,17:00:00,No,
Holy Innocents Church,https://programme.openhouse.org.uk/listings/11202,,"Selhurst Road, South Norwood, SE25 6XX",51.3971421,-0.080083,10:30:00,12:30:00,No,
Holy Trinity Church Sloane Square,https://programme.openhouse.org.uk/listings/649,"A sumptuous feast of Victorian stained glass & bold sacred sculpture in what Sir John Betjeman called the 'cathedral of the Arts and Crafts movement.' Work by William Morris, Edward Burne-Jones, William Blake- Richmond & Christopher Whall.","146 Sloane Street (just off Sloane Square), SW1X 9BZ",51.4931409,-0.157482,10:00:00,16:00:00,No,
Host of Leyton - Pop-Up Gallery - Dan Lee,https://programme.openhouse.org.uk/listings/12104,"Host of Leyton is open 12th - 17th Sept to welcome visitors to see the shop & space and view the work of our special Pop-up exhibition by young artist and landscape designer Dan Lee. 
For more info see @thisishost on Instagram.","658 High Road Leyton, E10 6JP",51.56998,-0.00793,14:00:00,17:00:00,Yes,No
Hounslow Jamia Masjid & Islamic Centre,https://programme.openhouse.org.uk/listings/12218,Hounslow Jamia Masjid & Islamic Centre is the largest purpose built Mosque in West London. Serving the needs of the local community and working towards the common good.,"367 Wellington Road South, TW4 5HU",51.45991,-0.37488,11:00:00,15:00:00,No,
Housing in Stoke Newington Walking Tour,https://programme.openhouse.org.uk/listings/12003,"A tour of housing in Stoke Newington from 1714 to 2017. The tour will encompass a range of homes from the outside, and talk about the history of Stoke Newington and the changes it has seen since transforming from a small village to a suburb","Clissold Park, Stoke Newington Church St, N16 9HJ",51.56087,-0.08529,11:00:00,12:30:00,Yes,True
Hoxton Hall,https://programme.openhouse.org.uk/listings/11666,"Hoxton Hall was originally built in 1863 by James Mortimer, in the traditional music hall architecture style, with the intention to combine instruction with amusement.  It is a Grade 2 Listed Plus building and one of 5 Music Hall's left.","130 Hoxton Street, N1 6SH",51.5317655,-0.0800497,11:00:00,16:10:00,Yes,True
Ikigai_12 Hickin Street,https://programme.openhouse.org.uk/listings/12083,Building tour for a house_Ikigai _12 Hickin Street,"12 Hickin Street, E14 3LW",51.49706,-0.01238,11:00:00,18:00:00,No,
Imagine Golden Lane at Net Zero - a walking tour,https://programme.openhouse.org.uk/listings/7444,A walk from Barbican Underground Station via the Museum of London to Barbican and then to Golden Lane.,"Barbican Underground, Aldersgate St, EC1A 4JA",51.52021,-0.09767,13:00:00,14:30:00,Yes,True
Institut français du Royaume-Uni,https://programme.openhouse.org.uk/listings/708,"1939 Art Deco Grade II listed building refurbished in 1950, then restructured and modernised in 2014. Contains an authentically classic cinema, private salons and multimedia library.","17 Queensberry Place, South Kensington, SW7 2DT",51.4946504,-0.1771684,12:00:00,17:00:00,No,
Intersect House,https://programme.openhouse.org.uk/listings/11817,Victorian Terraced House in Stoke Newington with a ground floor rear extension and new mansard roof conversion with master bedroom and ensuite by WILLIAM TOZER Associates.,"4 Lavell street, N16 9LS",51.55461529999999,-0.08506240000000001,09:30:00,13:30:00,No,
Isokon Building (Lawn Road Flats),https://programme.openhouse.org.uk/listings/768,"Grade I listed 1934 residential block of flats in Hampstead, designed by the Canadian modernist architect Wells Coates for clients Jack and Molly Pritchard. English Heritage blue plaque for Bauhaus masters Gropius, Breuer and Moholy-Nagy.","Lawn Road, NW3 2XD",51.5522126,-0.1618582,11:00:00,16:00:00,No,
"JTP Studios, Pennington Street Warehouse",https://programme.openhouse.org.uk/listings/8726,"Pennington Street Warehouse is a Grade II Listed Warehouse, sensitively adapted in 2019 into a vibrant and creative home for architects & masterplanners, JTP.","JTP Studios, Unit 5, The Rum Warehouse, Pennington Street, E1W 2AP",51.50867419999999,-0.0630976,10:00:00,16:00:00,No,
Jeffrey's Place,https://programme.openhouse.org.uk/listings/11653,"Historic 1850s Camden warehouse, recently renovated by Tasou Associates to rationalise internal spaces, open up the building to more natural daylight and create a comfortable office space.","9 Jeffrey's Place, NW1 9PP",51.5425978,-0.1404968,10:00:00,17:00:00,No,
Kaymet Factory,https://programme.openhouse.org.uk/listings/6826,"The operational factory of Kaymet, a maker of trays and trolleys since 1947. A hidden 1950s building with a small yard, originally a printing works. It is brick built, with clear-storey glazing and tubular truss north-light main shed roof.","52 Ossory Road, SE1 5AN",51.48474239999999,-0.0710449,10:00:00,17:00:00,No,
"King's College London, The Maughan Library",https://programme.openhouse.org.uk/listings/847,"London's first fireproof building, built to house records of the Court of Chancery. Now renovated to house a fine university library.","Chancery Lane, WC2A 1LR",51.5153309,-0.11155,13:30:00,17:00:00,No,
King's College London: Museum of Life Sciences,https://programme.openhouse.org.uk/listings/7471,"Constructed in 1902 as the Will's Library, part of  Guy's Hospital Medical School. Building of red brick  with additional stonework and partially covered in creeper. Internally are carved oak cabinets and ornate columns.","Hodgkin Building, Guy' Campus, King's College London, SE1 1UL",51.5030513,-0.089449,11:00:00,15:30:00,No,
Kingston Guildhall and History Centre,https://programme.openhouse.org.uk/listings/6960,"Built in the Georgian style, the Guildhall brought together Kingston's administrative functions. Purpose-built Magistrates Courts were included in the building, part of which are now home to Kingston History Centre.","High Street , Kingston upon Thames, KT1 1EU",51.4065434,-0.3080235,10:00:00,16:30:00,Yes,No
"Kingston Library, Museum and Art Gallery",https://programme.openhouse.org.uk/listings/781,"Adjoining Grade II listed Carnegie-funded library, museum and art gallery. Museum holdings range from ceramics to topographical drawings, including the collection left by Eadweard Muybridge, a native of Kingston and photographic pioneer.","Wheatfield Way, Kingston upon Thames, KT1 2PS",51.4094037,-0.3007265,10:00:00,17:00:00,No,
Kitchen in the Woods,https://programme.openhouse.org.uk/listings/11840,"Winner of the  Urban Oasis awards of Don't Move Improve 2023! with an extension by A Small Studio architects.

This is an Austin Vernon & Partners 1957 home that sits within the Dulwich Estate.","8 Oakfield Gardens, SE19 1HF",51.4247172,-0.0806113,10:00:00,15:00:00,No,
La Sainte Union Catholic School,https://programme.openhouse.org.uk/listings/10598,"Founded in 1861 by a group of French nuns, La Sainte Union has a rich history. See the original Georgian site, chapel and its 141-year-old organ, plus modern stained glass windows by Patrick Pollen, LSU’s own orchard and the 60s extension.","Highgate Road, NW5 1RP",51.5599528,-0.1497769,11:00:00,14:00:00,No,
Lakeside Centre,https://programme.openhouse.org.uk/listings/4547,"Iconic brutalist building in the heart of Thamesmead, renovation led by Bow Arts Trust in partnership with Peabody, supported by the Mayor’s London Regeneration Fund (LEAP). The centre has opened as a cultural hub for Thamesmead.","Southmere Lake Complex, 2 Bazalgette Way (formerly Belvedere Road)",51.5009688,0.1242316,12:00:00,17:30:00,No,
Lancaster House,https://programme.openhouse.org.uk/listings/880,"Commissioned in 1825 by the Duke of York and named York House.  In 1829 the lease was purchased by the first Duke of Sutherland.  In 1913, Lord Leverhulme, bought the lease for the nation and Stafford House became Lancaster House.","Stable Yard, St. James's , SW1A 1BB",51.5041048,-0.1388499,10:00:00,17:00:00,Yes,True
Lansbury Lawrence Primary School,https://programme.openhouse.org.uk/listings/9135,Lansbury Lawrence (formally Susan Lawrence and Elizabeth Lansbury) opened in the 1951 Festival of Britain as a showpiece of the Live Architecture exhibition in the Lansbury Estate. An interesting mid-century design with original features.,"Cordelia Street, Poplar, E14 6DZ",51.5137062,-0.0192065,10:00:00,13:00:00,Yes,No
Lesnes Abbey Tour,https://programme.openhouse.org.uk/listings/6981,Archaeologist Anthony Thomas leads a tour on the history of Lesnes Abbey.,"Lesnes Abbey Lodge,  Abbey Road, SE2 0QJ",51.4880023,0.1298133,11:00:00,17:00:00,Yes,No
Lewisham Arthouse,https://programme.openhouse.org.uk/listings/12118,"Lewisham Arthouse (LAH) is a not-for-profit artist-led co-operative, based in the formerly Deptford Central Library, Grade II listed, 1910 -1914, Designed by A. Brumwell Thomas (1868 -1948)","Lewisham Arthouse, SE14 6PD",51.4715,-0.03076,10:00:00,18:00:00,No,
Lexi Cinema,https://programme.openhouse.org.uk/listings/10262,"A contemporary extension to the Lexi Cinema, providing a 2nd screen. The building is a composition of brick and stainless steel; a nod to the parapets of surrounding terraces and reflecting the ever-changing sky above.","194b Chamberlayne Road, NW10 3JU",51.5376199,-0.2224974,11:00:00,15:05:00,No,
Leyton House,https://programme.openhouse.org.uk/listings/11657,Leyton House is a new build house that has been designed to maximise the potential of its urban infill setting.,"128 Claude Road, Leyton, E10 6NE",51.5668128,-0.0036894,10:00:00,16:15:00,Yes,True
Little Mouse Cheese Shop,https://programme.openhouse.org.uk/listings/12156,"Visit Little Mouse, an Edwardian shop in South Norwood with original wooden frontage and fascia that is now an artisan cheesemonger.","212A Selhurst Road, SE25 6XU",51.39786,-0.07719,10:00:00,16:00:00,No,
London Metropolitan Archives,https://programme.openhouse.org.uk/listings/4294,LMA's older building was built in the late 1930s for the Temple Press and has many original features.   Purpose built extension in early 1990s for archival storage. Public rooms remodelled by Bisset Adams in 2000s.,"40 Northampton Road, Clerkenwell, EC1R 0HB",51.5249369,-0.1078771,10:30:00,17:30:00,Yes,No
London Open Form Pavilion of Air,https://programme.openhouse.org.uk/listings/11855,"A floating roof of sound, GPS-triggered & accessed by headphones & Echoes app to playfully reframe public space as an essential community engagement. One of 15 in an international series drawing on Oskar & Zofia Hansen’s Open Form concept.","Kensington Gardens, W2 3XA",51.50478,-0.175,07:00:00,20:00:00,No,
London's Roman Amphitheatre,https://programme.openhouse.org.uk/listings/10902,"UPDATED: Open daily 10.30am-4pm Closed Mon 19 September.
Combined guided tours of Amphitheatre and Guildhall Art Gallery at 12.15pm & 1.15pm on Tuesdays, Thursdays, Fridays, Saturdays & Sundays.
The capital’s only known Roman Amphitheatre","London’s Roman Amphitheatre at Guildhall Art Gallery, Guildhall Yard",51.5155471,-0.0914547,11:00:00,15:00:00,No,
Manor House Gardens Ice House,https://programme.openhouse.org.uk/listings/1025,"Grade II listed ice well and underground chambers (1770) in Manor House Gardens park, which provided ice for nearby Manor House. Cited in 2002 Civic Trust Awards.","Manor House Gardens (Old Road), SE13 5SY",51.45633429999999,0.0046996,12:00:00,17:00:00,No,
Mansion House,https://programme.openhouse.org.uk/listings/1033,"The official residence of the Lord Mayor of the City of London, retaining its 18C character, with superb plasterwork and wood carving.","Walbrook, EC4N 8BH",51.5128676,-0.0900498,10:00:00,16:45:00,Yes,True
Markfield Beam Engine and House,https://programme.openhouse.org.uk/listings/1041,"A masterpiece of Victorian engineering, Markfield Beam Engine provided a vital public health facility from 1855-1964.","Markfield Park, Markfield Road, South Tottenham, N15 4RB",51.5818841,-0.06145199999999999,11:00:00,17:00:00,No,
Marx Memorial Library & Workers' School,https://programme.openhouse.org.uk/listings/1048,"Grade II listed, built as a Welsh Charity School in 1738. A library with a focus on Marxism and Socialism since 1933. Lenin worked here 1902-03 and his office is preserved. Fresco by Jack Hastings in 1st floor. Late 15C tunnels.","37a Clerkenwell Green, EC1R 0DU",51.5229739,-0.1056922,11:00:00,15:00:00,No,
Mission Kitchen,https://programme.openhouse.org.uk/listings/12152,Mission Kitchen is a shared workspace for London's independent food businesses. It supports a community of more than 100 food and drink entrepreneurs.  This project is supported by the Mayor of London.,"Mission Kitchen, New Covent Garden Market, SW8 5EL",51.47948,-0.13223,12:00:00,16:00:00,No,
Modern Architecture in Blackheath walk,https://programme.openhouse.org.uk/listings/10273,"Architect Ana Sutherland will lead a guided tour of the Cator Estate, covering Eric Lyons' Span estates and unique modernist homes designed by architects Patrick Gwynne, Peter Moro and Walter Greaves.","1 Blackheath Park, Blackheath, SE3 9RN",51.4641667,0.0095829,10:00:00,17:00:00,Yes,True
Moorings Social Club,https://programme.openhouse.org.uk/listings/10925,"Newly refurbished former social club, which is now a multi-use community space in the heart of Satge 3 Thamesmead - The Moorings 
Open Access and Tours running all day","Arnott Close, Thamesmead , SE28 8BG",51.5044916,0.1170762,10:00:00,17:00:00,No,
Mother X Artists and Makers Open Studios,https://programme.openhouse.org.uk/listings/11914,"Mother X is a diverse group of artists, makers & creators that have inhabited a former Victorian chocolate factory in Hackney Wick for 15+ years. Come visit this unique building & see it's people & their work during the Open House Festival.","Floor D, Unit 9 Queen's Yard, Hackney Wick, E9 5EN",51.54322,-0.02335,12:00:00,18:00:00,No,
Museum of London Docklands,https://programme.openhouse.org.uk/listings/1148,"Grade I listed, late Georgian sugar warehouse now housing the Museum of London Docklands. Sensitively restored, the new multimedia displays coexist with the massive timber and brick structures of the original building.","No. 1 Warehouse, West India Quay (off Hertsmere Road), E14 4AL",51.5078237,-0.0233988,10:00:00,17:00:00,No,
Museum of the Order of St John,https://programme.openhouse.org.uk/listings/5214,St John's Gate in Clerkenwell dates from 1504 and was built for the Knights Hospitaller. 19th and early 20th century additions by Richard Norman Shaw and John Oldrid Scott. Grade I listed. Home to the Museum of the Order of St John.,"St John's Gate, St John's Lane, Clerkenwell, EC1M 4DA",51.5219889,-0.102746,13:00:00,18:00:00,Yes,No
Muswell Hill Baptist Church,https://programme.openhouse.org.uk/listings/11196,A notable example of George Baines' work from the heyday of London free church buildings. It combines Baptist simplicity with Edwardian decor and spaciousness and is broadly unaltered.  It was built to complement the surrounding townscape.,"Muswell Hill Baptist Church, Dukes Avenue, N10 2PT",51.5916775,-0.1411344,11:00:00,15:00:00,No,
NOW Gallery : Design District,https://programme.openhouse.org.uk/listings/6449,"The NOW Gallery is an art space - contained within two curved glass pavilions linked by a patinated brass-edged canopy - which defines the southern edge of Peninsula Square and acts as a gateway to the south, the cable car and Central Park.","The Gateway Pavilions, Peninsula Square, Greenwich Peninsula",51.5003067,0.0049082,10:00:00,17:00:00,No,
National Audit Office,https://programme.openhouse.org.uk/listings/119,A prestigious Grade II listed building. Opened in 1939 by Imperial Airways and subsequently used by BOAC and then British Airways. The building has been the home of the National Audit Office since 1986 and was refurbished in 2009.,"157-197 Buckingham Palace Road, SW1W 9SP",51.4917984,-0.1480592,11:00:00,16:00:00,No,
National Maritime Museum,https://programme.openhouse.org.uk/listings/11960,We are aiming to do four free guided tours that are normally paid with which we can offer max up to 25 people on each. We will also have drop in talks run by the Visitor and Sales team on specific subjects for people to drop into.,"Park Row London, Greenwich, SE10 9NF",51.48251,-0.0028,11:00:00,16:00:00,Yes,No
National Portrait Gallery Architecture Highlights Tours,https://programme.openhouse.org.uk/listings/12229,"Discover the architecture of the National Portrait Gallery, designed in 1896 by Ewan Christian and now transformed by Jamie Fobert Architects. Please meet at the Ross Street Entrance. Drop-in 9, 10, 16 & 17 September specific times listed below.","National Portrait Gallery, St Martin's Place, WC2H 0HE",51.50942,-0.12812,18:00:00,18:45:00,No,
North London Buddhist Centre,https://programme.openhouse.org.uk/listings/11996,"The North London Buddhist Centre has been described as an 'oasis along the Holloway road'. It just celebrated its 20th anniversary in its current premises built in 1980 with some elements of Georgian style. The building houses two shrine rooms, a café area and  bodywork studio.","North London Buddhist Centre, 72 Holloway Road, N7 8GJ",51.54942,-0.10771,13:00:00,17:00:00,Yes,No
"Oak Room, New River Head",https://programme.openhouse.org.uk/listings/1188,"Formerly boardroom of the 17C water house, the Oak Room is a fine late Renaissance room demonstrating the New River Company's wealth. Booking link: https://bit.ly/OakRooms","New River Head, , 173 Rosebery Avenue, EC1R 4UL",51.5280442,-0.1075423,11:00:00,15:50:00,Yes,No
Old Royal Naval College - King William Court,https://programme.openhouse.org.uk/listings/846,"Wren-designed building completed under the direction of Hawksmoor and Vanbrugh, 1698-1712. Original wood panelling, refurbished by Dannatt Johnson in 2001 for University of Greenwich.","King William Court, 30 Park Row, SE10 9NN",51.4846492,-0.0040511,10:30:00,15:30:00,No,
Old Royal Naval College - Queen Anne Court,https://programme.openhouse.org.uk/listings/1425,"Wren and Hawksmoor building, completed 1749 when Thomas Ripley built the pavilions facing the river. Highlights include council boardroom, grand staircase and restored Portland stonework. Refurbished in 2000 for University of Greenwich.","Queen Anne Court , 30 Park Row, SE10 9NN",51.4846492,-0.0040511,11:00:00,16:00:00,No,
Old Royal Naval College - Queen Mary Court,https://programme.openhouse.org.uk/listings/1433,"Last major building on the site (1751). Original layout, timber panelling, barrel vaulting and Portland stone. Refurbished in 2000 by Dannatt Johnson for University of Greenwich.","Queen Mary Court, 30 Park Row, SE10 9NN",51.4846492,-0.0040511,11:00:00,16:00:00,No,
Olden Community Garden,https://programme.openhouse.org.uk/listings/10727,Olden Community Garden - a hidden 2.5 acre green oasis along a railway embankment in Islington. Sit beside the lawn; listen to birdsong; follow trails into the woodland and orchard; discover vegetable patches. Help plant lavender hedge.,"Whistler Street (opposite no 22), N5 1NJ",51.5523926,-0.1044575,10:00:00,16:00:00,No,
One Park Drive,https://programme.openhouse.org.uk/listings/10375,,"1 Park Drive, E14 9GG",51.50227,-0.01511,10:00:00,15:45:00,Yes,True
"Outdoor exhibition celebrating the 900th anniversary of St Bartholomew’s Hospital - Life and death in the archives, 1123-2023",https://programme.openhouse.org.uk/listings/2231,"Life and death in the archives, 1123-2023, is a unique exhibition detailing St Bartholomew’s Hospital's history and people, using photography, art and history from our archives and collections","St Bartholomew's Hospital, West Smithfield, EC1A 7BE",51.51749599999999,-0.1000463,11:00:00,16:00:00,No,
Paxton Locher House,https://programme.openhouse.org.uk/listings/1334,A unique modern courtyard house making brilliant use of a restricted site. A retractable glass roof gives wonderful natural light and opens the house to the sky in dry weather.,"8-9 Clerkenwell Green, EC1R 0DE",51.522989,-0.1045787,10:00:00,17:00:00,No,
People's Museum Somers Town,https://programme.openhouse.org.uk/listings/10952,"A great little museum set in the Grade 2 listed Ossulston Estate - a prime example of pre-war Social housing - based on Karl Marz Hof in Vienna.
Open Wednesdays to Saturdays throughout Festival 
Sunday 11th Event","52 Phoenix Road, NW1 1ES",51.5310613,-0.1309568,13:00:00,17:00:00,Yes,No
Peter Cushing House,https://programme.openhouse.org.uk/listings/12230,"1920s Art Deco house, formerly the home of Peter Cushing OBE. English Heritage Blue Plaque.","32 St. James Road, Purley, CR8 2DL",51.33044,-0.10437,14:00:00,16:00:00,Yes,True
Pollard Thomas Edwards - Diespeker Wharf,https://programme.openhouse.org.uk/listings/1375,"Conversion of a canalside Victorian warehouse, formerly a terrazzo factory, into spacious offices, garden and glazed extension with one of the best waterside views in London. Refurbished, 2022.","Diespeker Wharf, 38 Graham Street, N1 8JX",51.5324006,-0.0993428,10:00:00,16:00:00,No,
Poroban studio,https://programme.openhouse.org.uk/listings/11347,"Poroban is a multi-disciplinary design studio, based off Old Kent Road, specialising in low carbon building design. We are offering free design surgeries throughout September and are hosting an open day on Saturday 9th Sept.","43 Madron Street, SE17 2LE",51.48900930000001,-0.0790748,09:30:00,16:00:00,Yes,True
Present & Correct Stationers,https://programme.openhouse.org.uk/listings/11947,"Architecture for London designed and built a new home for stationers Present & Correct in a heritage retail unit. In a nod to the neighbouring British Museum, cabinets as 'wunderkammer' display the stationery as objects of desire.","12 Bury Place, WC1A 2JL",51.51846,-0.1242,11:00:00,18:00:00,No,
Purley Way to Wandle Park,https://programme.openhouse.org.uk/listings/12258,"This tour will give an insight into the many different eras and building styles represented on one of Croydon's busiest streets- from Victorian industry, the World Wars, Brutalism and even a ghost swimming pool.","Purley War Memorial Hospital, 856 Brighton Road, Purley, Croydon",51.34052,-0.1142,11:00:00,15:30:00,Yes,No
Pushkin House,https://programme.openhouse.org.uk/listings/4108,The independent cultural centre Pushkin House will contribute to this year's Open House Festival through a programme of events and community initiatives at its Grade-II listed building in Bloomsbury Square.,"5a Bloomsbury Square, WC1A 2TA",51.5182912,-0.1230772,10:00:00,17:00:00,No,
Quaker Meeting House - Wandsworth,https://programme.openhouse.org.uk/listings/1422,"Grade II listed, this is the oldest Quaker meeting house in London. Built in 1778, it has original panelling & a minister's gallery. See flagstones from the earlier 1674 buildings. Also a secluded burial ground & garden. Free refreshments.","59 Wandsworth High Street, Wandsworth, SW18 2PT",51.4565224,-0.1917397,12:00:00,16:00:00,No,
Queer City: LGBTQ + stories and spaces in Soho,https://programme.openhouse.org.uk/listings/11951,"This alternative queer walking tour will explore queer places in London’s pleasure district of Soho and the surrounding parts of Westminster, focusing on lesbian, bisexual and trans stories through an intersectional lens.","Criterion Theatre opposite Eros, 218-223 Piccadilly, W1J 9HR",51.50972,-0.13426,10:30:00,13:00:00,Yes,True
Quentin Blake Centre for Illustration - New River Head,https://programme.openhouse.org.uk/listings/10280,"An industrial heritage site that was the hub of one of London’s first major pieces of urban infrastructure.
Its 18th and 19th century buildings will be restored by Tim Ronalds Architects to create the Quentin Blake Centre for Illustration.","Quentin Blake Centre for Illustration, Rear of 28 Amwell Street",51.528361,-0.1099428,11:00:00,16:00:00,No,
RC Church of St Mellitus,https://programme.openhouse.org.uk/listings/10105,"A grand neo-classical building of 1871 with impressive interior, built as New Court Congregational Chapel. Home to a Hunter pipe organ, installed as a WW1 memorial and recently restored with National Lottery Heritage Fund support.","St Mellitus RC Church, Tollington Park, N4 3AG",51.5673623,-0.1132266,12:00:00,16:00:00,No,
RSHP at The Leadenhall Building,https://programme.openhouse.org.uk/listings/6672,"The award-winning Leadenhall Building was designed by international architects RSHP in 2014. L14 became the practice's headquarters in 2015. The Studio is a completely open plan office, reflecting the democratic beliefs of the practice.","Level 14, 122 Leadenhall Street, EC3V 4AB",51.5137807,-0.08233929999999999,10:00:00,16:00:00,Yes,True
Rear and basement extension of a riverside house,https://programme.openhouse.org.uk/listings/12157,"An opportunity to experience a private home situated on the bankside of River Thames. A contextual intervention by VATRAA, restoring and extending a Victorian house with an atmospheric feel inspired by the homeowner's personality.","53 Deodar Road, SW15 2NU",51.46414,-0.20992,10:00:00,17:00:00,No,
"Red Door Studios: Family workshop, Exhibition featuring Ferha Farooqui's painting and more",https://programme.openhouse.org.uk/listings/11039,"This is an artist-run, community-focused space, that offers affordable studios since 2011. Built around 1893 and adjacent to Almshouses. Also, used as a bakery and later became laboratory glassware in the late 1950s.","Rear of 120 High Street South, E6 3RW",51.52639790000001,0.05598329999999999,11:00:00,17:00:00,No,
Reform Club,https://programme.openhouse.org.uk/listings/1457,Built as a Whig gentleman's club and inspired by Italian Renaissance palaces. Lobby leads to an enclosed colonnaded courtyard with complementary glazed roof and tessellated floor. Tunnelled staircase leads to upper floor.,"104 Pall Mall, SW1Y 5EW",51.5065129,-0.1332457,10:00:00,17:50:00,Yes,True
Rigpa Tibetan Buddhist Meditation Centre,https://programme.openhouse.org.uk/listings/11803,"Open day would include pop -up tearoom with artisan teas, handmade cakes and savouries, bookshop and library . Regular guided tours, guided meditation sessions, family sessions,  introductory Buddhist talks, Buddhist film screening","330 Caledonian Road, N1 1BB",51.5404259,-0.1167117,10:00:00,18:00:00,No,
River Walk,https://programme.openhouse.org.uk/listings/11059,"London could never have existed without the Thames. For 2000 yrs it has brought power, prestige pageantry and the plague to this great city. Hear about the role of London Bridge, mud-larking, Billingsgate, historic wharves and river tales.","St Pauls Churchyard, EC4M 8BX",51.5132944,-0.0989526,11:00:00,13:00:00,Yes,True
Roca London Gallery,https://programme.openhouse.org.uk/listings/5322,"Designed by the world renowned Zaha Hadid Architects, Roca London Gallery is a unique space where water acts as the architectural theme. Guests can also visit 'Small Spaces in the City: Rethinking Inside the Box', a major exhibition exploring the challenges and innovative solutions for small live-and-work spaces in the city.","Station Court, Townmead Road, SW6 2PY",51.4705297,-0.1850841,11:00:00,17:00:00,No,
Royal College of Nursing,https://programme.openhouse.org.uk/listings/6151,"A cleverly integrated mixture of architectural styles and periods, incorporating a late 1720s house (later home to Herbert Henry Asquith) and the purpose-built College of Nursing (1926). Access to main building via guided tour only.","20 Cavendish Square, W1G 0RN",51.5160929,-0.1457657,10:00:00,16:00:00,No,
Royal Courts of Justice,https://programme.openhouse.org.uk/listings/1531,Street's masterpiece and one of Victorian London's great public buildings. 13C Gothic given a Victorian interpretation.,"Strand, WC2A 2LL",51.513803,-0.1135807,10:00:00,16:00:00,No,
"Royal Hospital Chelsea, Home of the Chelsea Pensioners",https://programme.openhouse.org.uk/listings/1538,"Numbered amongst the UK's architectural glories and boasting 66 acres of beautiful grounds, the Royal Hospital Chelsea has been home to the iconic Army veteran community fondly known as the 'Chelsea Pensioners' since its foundation in 1692. 
The Great Hall and Chapel will not be accessible from 12.00-14.00 on Saturday 16th September due to an internal event. The remainder of the site will be open during this time. 

Visitors should note that filming will be taking place during the afternoon of Sunday 17th September. If you would like to be excluded from any filming, please let our staff and volunteers know on arrival at the site.","Royal Hospital Road, Chelsea, SW3 4SR",51.4878309,-0.1582174,10:00:00,16:00:00,Yes,No
Royal Pharmaceutical Society Museum,https://programme.openhouse.org.uk/listings/7230,"Join us for a free guided tour of the RPS Museum and Library and find out what crocodiles have to do with pharmacy!
Over 180 years old, the RPS Museum and Library is a hidden gem in East London, full of the weird and wonderful world of pharmacy history.
Find out how best to use bear’s grease and explore a collection of poisons even Agatha Christie would swoon at!

Scroll down to find out more","66 East Smithfield, E1W 1AW",51.50899039999999,-0.06840589999999999,10:00:00,16:00:00,No,
Royal School of Needlework,https://programme.openhouse.org.uk/listings/6799,Baroque palace built for King William III and Mary II. The original Tudor towers and chimneys were replaced by grand and elegant exteriors that dominate the buildings today.,"RSN Shop, East Front Gardens, Hampton Court Palace, KT8 9AU",51.4029236,-0.335598,10:00:00,16:00:00,Yes,No
Royal Small Arms Factory,https://programme.openhouse.org.uk/listings/1553,Grade II listed arms factory closed to public for 170 years. Museum and clocktower open for tours.,"RSA Island Centre, 49 Island Centre Way",51.668702,-0.016694,10:00:00,17:00:00,No,
Rufford Mews Apartment,https://programme.openhouse.org.uk/listings/11767,"The interior of this property has been designed by Mike McMahon and the majority of the furniture and cabinetry have been made by Mike & Jewlsy over the course of a number of years including lighting, chairs, sofas, beds etc.","Unit 9, Rufford Mews, N1 0AD",51.5398566,-0.1216658,11:00:00,17:00:00,No,
Schindel Studio,https://programme.openhouse.org.uk/listings/11728,"Schindel studio is a shingle clad, purpose built, sustainable artist's studio in Leytonstone, East London, for the landscape painter Amelia Humber.","16 Eatington Road, E10 6EA",51.58037479999999,-0.0005300999999999999,10:00:00,17:00:00,No,
Sheppard Robson 77 Parkway,https://programme.openhouse.org.uk/listings/11127,"Nestled off a busy street in Camden, the former industrial building has been home to architectural firm Sheppard Robson for over 40 years. A series of additions have allowed more amenity, social spaces, and diversity in work settings.","77 Parkway , Camden Town, NW1 7PU",51.5373399,-0.14534,10:00:00,14:00:00,Yes,No
Slavery and the City,https://programme.openhouse.org.uk/listings/9344,"We will explore sites and institutions with direct links to the history of slavery and hear why the apologies were made in 2020, whilst wandering within the story packed streets and alleyways of the Square Mile.","1 Cheapside, EC2V 6AA",51.5148819,-0.09755699999999999,14:30:00,16:30:00,Yes,True
South Norwood Library,https://programme.openhouse.org.uk/listings/10218,"The purpose-built library is a fine example of brutalist architecture. Built by Hugh Lea, Borough Architect for Croydon, in 1968 the main volume shows miesian influence with an abundance of natural light, interrupted by a concrete cuboid.","Lawrence Road, South Norwood , SE25 5AA",51.3971417,-0.0775821,10:00:00,17:00:00,Yes,No
Southwark Integrated Waste Management Facility,https://programme.openhouse.org.uk/listings/5389,,"43 Devon Street, (off Old Kent Road), SE15 1AL",51.4831865,-0.0583243,10:00:00,16:00:00,No,
St Andrew's Kingsbury (new church),https://programme.openhouse.org.uk/listings/2485,"Meticulous 1930s rebuilding (complete with original furnishings) of an 1840s Marylebone church. Grade I listed. Contains works by Pugin, Burges, Street, Pearson and Butterfield.","junction of Church Lane/Tudor Gardens/ Old Church Lane, Kingsbury",51.5670677,-0.2618937,10:00:00,16:00:00,Yes,No
"St Anne's Church, Limehouse",https://programme.openhouse.org.uk/listings/6270,"St Anne's Limehouse has been described as 'the finest parish church in England.' Designed by Nicholas Hawksmoor, it is Grade I listed and one of the Major Churches in the Church of England. It is home to a thriving Christian congregation.","Three Colt Street, E14 8HH",51.5107426,-0.0303782,10:00:00,16:00:00,No,
St Augustine of Canterbury,https://programme.openhouse.org.uk/listings/2489,Victorian/Arts and Crafts church completed in 20C. Imposing west front by J Harold Gibbons with statuary by Dorothy Rope. Lady chapel by Henry Wilson. Stained glass by Margaret Aldridge Rope. Fine Hunter organ plus case.,"Corner Archway Road & Langdon Park Road, N6 5BH",51.5713748,-0.1385812,12:00:00,16:00:00,No,
St Augustine's Tower,https://programme.openhouse.org.uk/listings/1755,"Grade I listed, remaining tower of medieval parish church, with working late 16C clock. New exhibition of Hackney's history. Extensive views from roof. (Organised by Hackney Historic Buildings Trust).","Mare Street, E8 1HR",51.5481288,-0.0550424,11:00:00,17:00:00,No,
St Bonifatius RC German Church,https://programme.openhouse.org.uk/listings/6768,Centre of German religious and cultural life for more than 200 years. Impressive 20th century church building with contributions from various German artists. Exhibition of German émigré artist Hans Feibusch „Five Stories from the Old Testament“ (courtesy of Ben Uri Gallery). Demonstration of the organ by resident organist Paul Dichtl.,"47 Adler Street, E1 1EE",51.5157818,-0.0672591,10:00:00,16:00:00,No,
St John on Bethnal Green,https://programme.openhouse.org.uk/listings/11832,"This grade one listed Sir John Soane church sits in the heart of the Bethnal Green in East London. Despite a fire in 1870, some original features remain. Visitors will have access to the church,  belfry, galleries and crypt.","St John on Bethnal Green, 200 Cambridge Heath Road, E2 9PA",51.5275283,-0.0547752,10:00:00,16:00:00,No,
St John the Divine,https://programme.openhouse.org.uk/listings/3397,St John’s has a wide nave approached via a narthex formed under the gallery running the width of the west end.  East of the nave is a chancel flanked to the south by the Lady Chapel and to the north by the organ chamber with loft over.,"Kew Road, Richmond, Surrey, TW9 2NA",51.4760605,-0.29128,10:00:00,12:00:00,No,
St Jude on the Hill,https://programme.openhouse.org.uk/listings/2517,"Eccentric Edwardian church, Grade I listed. Described by Simon Jenkins as 'one of Lutyens' most distinctive creations'. Extensive 20C wall-paintings by Walter Starmer, memorial to horses of WWI. Local archives display.","Central Square, NW11 7AH",51.5805196,-0.1893314,09:00:00,18:00:00,No,
"St Lawrence Church, Morden",https://programme.openhouse.org.uk/listings/3260,Grade I listed Norman brick-built church consisting of a nave and chancel. Tower at the west end. Gothic-style stone windows from the old church inserted into the present 1636 structure. Rare 17th Century glass was restored in 2020.,"London Road, Morden, SM4 5QT",51.3928895,-0.203445,10:00:00,17:00:00,No,
St Martin-in-the-Fields,https://programme.openhouse.org.uk/listings/3205,"One of Britain's finest churches, built in the Italian Baroque tradition and beautifully restored in 2008. Sustainable features include new heating and management systems and lightwell. RIBA Award Winner 2009. Civic Trust Award Winner 2010.","Trafalgar Square  , WC2N 4JH",51.50919039999999,-0.1267884,10:00:00,16:00:00,No,
St Mary Magdalene,https://programme.openhouse.org.uk/listings/5810,"A historic living parish church, progressively shaped from the Tudor to the Edwardian period. St Mary's has recently undergone a major refurbishment and the newly restored windows recapture the original airiness of the C18 nave.","Paradise Road, Richmond, TW9 1SN",51.4602497,-0.3016406,10:00:00,12:00:00,No,
St Mary Magdalene Church,https://programme.openhouse.org.uk/listings/945,Fine Victorian Gothic church with impressive windows and painted chancel. Paintings by Buckeridge and Westlake 1897. Restoration of chancel paintings was to celebrate the Diamond Jubilee of Queen Elizabeth II. (2012),"Windmill Hill, Enfield, EN2 7AJ",51.6537785,-0.096377,10:00:00,17:00:00,No,
St Mary Magdalene Church & Nature Reserve,https://programme.openhouse.org.uk/listings/2526,"Grade I listed 12C church, with London's largest churchyard and one of the best-preserved Norman archways in the country, as well as other interesting features, including an anchorite's cell and 750-year-old wall paintings.","St Mary Magdalene Church, East Ham, High Street South/ Norman Road",51.5222513,0.05883790000000001,10:00:00,16:00:00,No,
St Mary The Virgin Wanstead,https://programme.openhouse.org.uk/listings/7051,"One of the finest examples of Georgian architecture. It has been hardly altered since built. The church is a rectangular building of Portland stone, with a projecting chancel. Two external walls were restored in 2019. Grade I listed","St Mary The Virgin Church , Overton Drive, E11 2LW",51.571268,0.0325268,13:30:00,16:30:00,No,
St Mary's Church Bromley,https://programme.openhouse.org.uk/listings/11317,"A plain Victorian Church set in a wooded Churchyard, with a vibrant and striking set of Murals around the altar and the Choir. 
Has indoor toilet facilities. 
A good quality well used organ in good condition, and an excellent accoustic","St Mary's Church, College Road, Bromley, BR1 3QG",51.4130778,0.015066,10:00:00,12:00:00,No,
St Mary's Convent,https://programme.openhouse.org.uk/listings/1831,"Convent in 18C Grade II listed house, c1764-1792, with original features including fine decorative plasterwork. Various additions including west wing (1913-15), and harmonious care home facilities and chapel by PRP Architects (1998-2001).
Apologies to visitors turned away last year. Please book for this year.","10 The Butts, Brentford, TW8 8BQ",51.4848522,-0.3081177,10:00:00,16:30:00,Yes,No
St Matthew's Church,https://programme.openhouse.org.uk/listings/11020,"St Matthews is Grade II listed, built 1883-4 and designed by the architect Alfred Jowers. 
It features a WW1 memorial screen designed by Reginald Hallward and stained glass some believed to be by Edward Frampton","St Matthews church, North Common Road, W5 2QA",51.51317299999999,-0.2958622,10:00:00,17:00:00,No,
St Michael and All Angels Church,https://programme.openhouse.org.uk/listings/7801,"James Maltby Bignall (1827-1885) worked in the practice of Sir George Gilbert Scott, the architect of St Pancras Station. The style of St Michael's is late Gothic Revival, in its size and height reminiscent of Northern European churches.","Northcote Road, Walthamstow, E17 6PQ",51.5855149,-0.0294614,11:00:00,17:00:00,No,
"St Nicholas Church, Chislehurst",https://programme.openhouse.org.uk/listings/5304,"Medieval Parish Church, 15C, enlarged & rebuilt in 19C. Shingle spire 1857, by Wollaston. Chancel by Ferrey, lengthened with East wall by Bodley & Garner. Scadbury Chapel (Walsingham tombs), with rood screen. Clock by Dent, 1858.","Church Lane, Chislehurst, BR7 5PE",51.410281,0.0758835,09:00:00,18:00:00,No,
St Pancras Chambers and Clock Tower,https://programme.openhouse.org.uk/listings/6076,"Former Midland Grand Hotel, now St Pancras Renaissance Hotel and Chambers apartments. Includes hotel lobby and clock tower.","The Forecourt, St Pancras Station, Euston Road, NW1 2AR",51.531427,-0.126133,10:00:00,16:50:00,Yes,True
St Patrick's Church,https://programme.openhouse.org.uk/listings/4597,"Built thanks to a generous gift from local benefactress, Mrs Lavinia Keene, St Patrick's was consecrated in July 1940 and is unusual in style. The concrete and brick interior contrasts with the dramatic, colourful reredos. Grade II listed.","Blake Avenue, Barking, IG11 9SQ",51.5337857,0.0956496,10:30:00,16:30:00,No,
St Paul's Bow Common,https://programme.openhouse.org.uk/listings/1365,"Described as 'the most significant church built after the WWII in Britain' - Brutalist, inclusive and influential signpost for future church design.","Corner of Burdett Road/ St Paul's Way, E3 4AR",51.5172669,-0.0298277,10:00:00,17:00:00,No,
St Paul's Cathedral - Triforium Tour,https://programme.openhouse.org.uk/listings/1669,Guided tours of the Triforium space to see: items from the cathedral collections including Christopher Wren’s magnificent ‘Great Model’ made in 1673; the Geometrical Staircase and the stunning view from the West Gallery.,"St Paul's Cathedral, St Paul's Churchyard, EC4M 8AD",51.5142511,-0.09914039999999999,10:00:00,16:45:00,Yes,True
"St Paul's, Newington",https://programme.openhouse.org.uk/listings/2556,"Modern architecture church with large copper and lead roof and concrete, brick and stained glass external structure. Marble, wood and plaster interior and artwork by Sculptor Freda Pinto and Gerald Holtom.","Walworth Road, Lorrimore Square, SE17 3QU",51.4849094,-0.1019112,11:00:00,14:00:00,No,
St Peter & St Paul Harlington,https://programme.openhouse.org.uk/listings/1855,"Grade I listed church dating from 1086, representing the architectural styles of many centuries, including Norman font and carved cats heads around Norman south doorway arch, Easter sepulchre and ancient yew tree in churchyard.","St Peter's Way, High Street, Harlington, UB3 5AB",51.4915691,-0.4339633,10:00:00,16:00:00,No,
St Peter-in-the-Forest Church & Community Centre,https://programme.openhouse.org.uk/listings/3093,"An 'Italian Romanesque' church set in Epping Forest, St Peter's was founded in 1840 and extended in 1887. The building underwent a major reordering throughout 2020 to save it from subsidence and create new community facilities.","18 Woodford New Road, Walthamstow, E17 3PP",51.5871381,0.0061333,11:00:00,16:00:00,No,
St. Margaret's House,https://programme.openhouse.org.uk/listings/7631,St.Margaret's has delivered community activity on Old Ford Road since the start of the 20th century.,"St Margaret’s House, 21 Old Ford Road, E2 9PL",51.52984,-0.05447,11:00:00,16:00:00,No,
"St. Mary's Church, Walthamstow Village",https://programme.openhouse.org.uk/listings/8141,"Grade II* listed church dating from 12C with Medieval, Tudor, Georgian & Victorian features. 16C Tower. Church refurbishment and new extension in progress in 2022. Over 1300 monuments with four Grade II listed tombs in churchyard.","Church End (top of Church Hill), Walthamstow, E17 9RJ",51.5856101,-0.0159668,11:00:00,16:45:00,Yes,No
Stoke Newington Library Open Studios,https://programme.openhouse.org.uk/listings/12106,"Stoke Newington Library houses 9 artist studios that most of the visiting public are unaware of. The artists are holding an Open Studio day on Saturday 16 September, 10.30am –5pm. The studios are not wheelchair accessible.","184 Stoke Newingon Church Street, N16 0JS",51.56137,-0.08267,10:30:00,17:00:00,No,
StreetGym® Urban Adventure,https://programme.openhouse.org.uk/listings/9101,"StreetGym® is a one hour, mind/body urban physical adventure where we jog from workstation to workstation.  A workstation is an item of street furniture, gradient or architectural feature where we perform bodyweight based exercises.","Back End of the Millennium Bridge (Tate Modern side), Southwark",51.50952909999999,-0.0985425,13:15:00,14:15:00,Yes,True
Surbiton Queen of the Suburbs,https://programme.openhouse.org.uk/listings/10284,"Join us for an interesting and informative walk around Surbiton with our experienced guide. Find out why Surbiton was called the Queen of the suburbs and plenty more. 

Visit our website: https://www.kingstontourguides.org.uk/","Surbiton Station , Victoria Road, KT6 4PE",51.39255679999999,-0.3044465,11:00:00,12:30:00,Yes,True
Swakeleys Estate,https://programme.openhouse.org.uk/listings/1939,"A most important house in Ickenham an outstanding example of Jacobean architecture built in the 1630s. Red brick construction laid in English bond on an H plan. Great Hall includes the 1655 Harrington Screen, 18C marble fireplace panelling.","Swakeleys Road, Ickenham (access from Milton Road) , UB10 8LD",51.565106,-0.4572185,10:00:00,16:00:00,No,
Swiss Cottage Library,https://programme.openhouse.org.uk/listings/2179,Grade II listed building by renowned Modernist which has been refurbished and remodelled whilst protecting the building's landmark status.,"88 Avenue Road, NW3 3HA",51.5422358,-0.173223,11:00:00,16:00:00,No,
Table Top Museums at the Art Workers' Guild,https://programme.openhouse.org.uk/listings/2003,1713 terraced house with 1914 hall at rear. Notable renovated Arts and Crafts interior. Newly refurbished glass vaulted courtyard. Portraits of Guild Masters since 1884.,"6 Queen Square, WC1N 3AT",51.5214982,-0.1227227,11:00:00,17:00:00,Yes,No
Temple Bar,https://programme.openhouse.org.uk/listings/1983,"Temple Bar is a 350 year old gateway to the City of London, designed by Sir Christopher Wren. It formerly stood in Fleet Street, and was the last surviving gateway to the City of London.","First Floor, Paternoster Lodge, 2 Paternoster Square, EC4M 7DX",51.5142882,-0.0993242,10:00:00,16:00:00,No,
Thames River Police,https://programme.openhouse.org.uk/listings/3165,"A unique ex-carpenters' workshop (1910), contained within a working police station. The workshop space now displays a history of Thames River Police.","98 Wapping High Street, E1W 2NE",51.5027616,-0.06002809999999999,11:00:00,17:00:00,No,
The Barbican & The City Gardens,https://programme.openhouse.org.uk/listings/12009,"Built on the site destroyed by The Blitz during the World War II, The Barbican Estate is a fascinating area and an icon of Brutalist architecture. Architects were Chamberlain, Powell and Bon,  We  will also visit several amazing gardens.","Guildhall Yard, Gresham Street, EC2V 5AE",51.5151,-0.09212,10:45:00,15:00:00,No,
The Blue Market - Made in Bermondsey,https://programme.openhouse.org.uk/listings/12203,"Following three years of research and development, the ‘Made in Bermondsey’ people powered regeneration project was created and driven by passionate local community partners who truly care about the place where they live or their business. This project is supported by the Mayor of London.","Big Local Works, 4 Market Place, SE16 3UQ",51.49268,-0.06396,13:00:00,15:30:00,Yes,True
