name,url,description,address,latitude,longitude,start_time,end_time,ticketed_events,fully_booked
"Grand Junction at St Mary Magdalene Church, Paddington",https://programme.openhouse.org.uk/listings/2527,"Grade I Victorian Gothic church by G E Street, architect of the Royal Courts of Justice. The recent conservation project reveals the majestic colours of Daniel Bell's painted ceiling, plus Dow Jones Architects' contemporary heritage wing.","Rowington Close, St Mary Magdalene's Church , W2 5TF",51.5222702,-0.1890094,11:00:00,15:00:00,Yes,No
Historic & Modern Buildings in the City,https://programme.openhouse.org.uk/listings/10240,"On this walk we will see many historic & modern buildings. see different architecture styles having regard to the environment and sustainability, and hear about famous architects, past and present.

Free walks led by City of London Guides","Guildhall Yard, Gresham Street, EC2V 7HH",51.5151073,-0.09212719999999999,10:15:00,15:30:00,No,
National Liberal Club,https://programme.openhouse.org.uk/listings/1167,"An impressive Victorian neo-Classical building overlooking the Embankment of the river Thames. It is the second-largest clubhouse ever built, the first London building to incorporate a lift and to be entirely lit by electric lighting.","Whitehall Place, SW1A 2HE",51.5064534,-0.1236299,10:00:00,16:30:00,Yes,No
Nunhead Cemetery,https://programme.openhouse.org.uk/listings/1237,"Magnificent Victorian cemetery with Gothic chapel & restored & ruined lodge. One of London's wildest cemeteries. Part restored with the help of a lottery grant. 52 acres of woodland, with bats, owls, foxes & squirrels. Grade II*  landscape.","Linden Grove, Nunhead, SE15 3LP",51.4651848,-0.05196750000000001,13:00:00,17:00:00,No,
The Questors Theatre,https://programme.openhouse.org.uk/listings/7064,"Originally planned in 1954, the first new theatre after the war, the Questors Playhouse opened in 1964, by which time its design had been followed by the Chichester Festival Theatre and the Crucible, Sheffield.","The Questors Theatre, 12 Mattock Lane, W5 5BQ",51.51156169999999,-0.3095093,10:00:00,17:00:00,No,
Tin House,https://programme.openhouse.org.uk/listings/6428,"Making efficient use of an irregular urban site, this house is made up of interconnecting top-lit pavilions arranged to define a tranquil private courtyard.","Smugglers Yard, Devonport Road, W12 8PB",51.50423,-0.23093,10:00:00,13:00:00,No,
