name,url,description,address,latitude,longitude,start_time,end_time,ticketed_events,fully_booked
1-4 Suffolk Street: Uni of Notre Dame & G.K Chesterton,https://programme.openhouse.org.uk/listings/11735,"Built for the United Universities Club, 1-4 Suffolk Street  is now home to the University of Notre Dame and its G.K Chesterton Collection. Visitors will be able to enjoy both this Edwardian listed building and the unique collection within.","1-4 Suffolk Street, SW1Y 4HG",51.50831849999999,-0.1304929,10:00:00,16:30:00,Yes,True
1.20 Oxo Tower Wharf,https://programme.openhouse.org.uk/listings/8766,"Unit 1.20 is one of 25 workshop and retail units in Oxo Tower Wharf and overlooks the courtyard towards the Bargehouse building from the first floor walkway. It is a multi-purpose space used as a workshop, showroom and teaching space.","Unit 1.20, The Courtyard, Oxo Tower Wharf",51.5083463,-0.1082762,13:00:00,17:30:00,No,
1923 Northern Line Extension stations,https://programme.openhouse.org.uk/listings/11786,"A tour that contrasts the before and after of the architecture of the 1922 Northern line extension, examining the impact on the existing terminus at Golders Green as well as the new station architectural vernacular created by Stanley Heaps",Golders Green Underground Station,51.5722281,-0.1942171,10:00:00,16:30:00,Yes,True
195 Mare Street,https://programme.openhouse.org.uk/listings/11871,195 Mare Street,"195 Mare St, E8 3QE",51.5408349,-0.0554502,11:00:00,18:00:00,No,
"373 Euston Road, Birkbeck College",https://programme.openhouse.org.uk/listings/9543,"The refurbishment and roof extension of 7-storey building at 373 Euston Road to accommodates a 180-person lecture theatre, high-quality classrooms, as well as formal and informal co-learning spaces.","373 Euston Road, NW1 3AR",51.52376779999999,-0.1424736,10:00:00,13:30:00,Yes,No
8 Gransden Road,https://programme.openhouse.org.uk/listings/10622,"A basement, rear extension and courtyard garden to an end of terrace Victorian house. The design focusses on natural materials, expression of structure and craftsmanship, with high levels of daylight.","8 Gransden Road, W12 9SA",51.5025553,-0.2466778,10:00:00,16:00:00,No,
"80 Mallard Place, Twickenham",https://programme.openhouse.org.uk/listings/11885,This is a beautiful house in Eric Lyons' last SPAN development from 1982,"80 Mallard Place, Twickenham, TW1 4SR",51.4359876,-0.3291416,11:00:00,18:00:00,No,
82-83 Margaret Street,https://programme.openhouse.org.uk/listings/11838,"82-83 Margaret Street was originally constructed as a convent in 1914, and contains the Grade II listed All Saints Convent Chapel to the rear.","82-83 Margaret Street, W1W 8LH",51.5170083,-0.1385173,13:00:00,17:00:00,No,
8a Belsize Court Garages,https://programme.openhouse.org.uk/listings/5794,"Originally a late 19C coachman's living quarters and stable, this mews house combines an award-winning architect's studio and spacious light-filled maisonette after a 2-phase carbon-reducing retrofit.","8a Belsize Court Garages, NW3 5AJ",51.5500659,-0.1709004,10:30:00,13:30:00,No,
A Ruskinian Walk Through Shared Heritage,https://programme.openhouse.org.uk/listings/4686,"Ruskinian walk from RIBA award-winning Chiswick Business Park, Gunnersbury Triangle Nature Reserve through South Acton Estate, birthplace of artist Patrick Caulfield; Woodlands Park Ice House; to home of Wm Willett, of Daylight Saving Time","Building 3, Chiswick Business Park, 566",51.4930625,-0.2747704,12:00:00,14:00:00,Yes,No
A Tale of Two Cities: North Kensington Walking Tour,https://programme.openhouse.org.uk/listings/11784,"This walking tour maps out North Kensington's evolution from 1800s Victorian middle-class suburbia, to the vibrant and diverse inner London neighbourhood it is today, revealing a multi-faceted, contradictory and oft misunderstood area .","St John's Church, 152 Lansdowne Crescent",51.51071,-0.20564,11:00:00,14:00:00,Yes,True
Abbey Mills Pumping Station,https://programme.openhouse.org.uk/listings/803,"Abbey Mills pumping station 'A', built by engineer Joseph Bazalgette, Edmund Cooper and architect Charles Driver. Built between 1865 and 1868 it is described as the cathedral of sewage.
Follow this link to book: https://bit.ly/abbeymills","Abbey Lane, E15 2RN",51.5322173,-0.0037856,10:00:00,16:50:00,Yes,No
Aga Khan Centre,https://programme.openhouse.org.uk/listings/7273,"The Aga Khan Centre, designed by Pritzker prize winning architect Fumihiko Maki, houses the UK institutions of the Aga Khan Development Network. A unique feature are its six gardens inspired by different regions of the Muslim world.","Aga Khan Centre, 10 Handyside Street, N1C 4DN",51.5375703,-0.1248016,10:00:00,17:00:00,Yes,No
All Saints Carshalton,https://programme.openhouse.org.uk/listings/3749,"12C south aisle and former chancel. Blomfield nave, chancel, baptistry. Kempe glass, Bodley reredos and screen, spectacular Comper decorations, monuments and brasses, award-winning lighting scheme, fine modern benches.","High Street, Carshalton, SM5 3AG",51.3651363,-0.1616349,10:00:00,16:30:00,No,
"All Saints, Foots Cray",https://programme.openhouse.org.uk/listings/2616,"Medieval church (c1330) amended 1863 by Hakewill and retaining original elements such as windows and an arch to the north aisle, and altar tomb of Sir Simon de Vaughan.","Rectory Lane, Foots Cray, DA14 4QN",51.4246187,0.1090664,10:00:00,16:00:00,No,
Allies and Morrison Open Studio,https://programme.openhouse.org.uk/listings/2223,"Three buildings - one concrete, one Victorian, one timber - have been designed, adapted, restored and extended by Allies and Morrison to create the compact, integrated campus of studio space that the practice calls home.","85 Southwark Street, SE1 0HX",51.5054937,-0.0998399,10:00:00,17:00:00,No,
Arbeit - Trowbridge Gardens,https://programme.openhouse.org.uk/listings/12041,"On Saturday 9th September, from 12 noon to 5pm, Arbeit will be opening Trowbridge Gardens to the public, with access to gardens and creative workspaces, and a free to attend exhibition and workshops.","Trowbridge Gardens, 1 Trowbridge Road, E9 5LD",51.54439,-0.0286,12:00:00,17:00:00,No,
BT Tower,https://programme.openhouse.org.uk/listings/2735,"An enduring, distinctive feature of the London skyline for the last 54 years, this is a rare opportunity for members of the public to visit the famous revolving floor, 158m above the capital. After the flight the guests can watch a history of the BT Tower film in our auditorium.","45 Maple Street, W1T 4BG",51.5215779,-0.1396211,09:30:00,19:15:00,Yes,No
Beating the Bounds,https://programme.openhouse.org.uk/listings/9208,Setting off from the Festival of Britain site we cover icons of the South Bank before heading into the back streets to see different types of social housing. We travel over to Bankside to see an overview of the historic and contemporary.,"By the London Eye Pier, The Queen's Walk",51.5032915,-0.1202671,11:00:00,13:00:00,Yes,True
Benjamin Franklin House,https://programme.openhouse.org.uk/listings/2347,"Grade I listed Georgian house, the only surviving home of Benjamin Franklin, retaining many original features including central staircase, lathing, 18th Century panelling, stoves, windows, fittings and beams.","36 Craven Street, WC2N 5NF",51.5076423,-0.1248869,10:00:00,16:00:00,No,
Bethlehem Chapel,https://programme.openhouse.org.uk/listings/8264,"An independent Calvinistic chapel on the east side of Church Terrace in Richmond, London. Built in 1797, the small 1-storey stuccoed building is Grade II* listed. It still has its original galleried interior with pews and pulpit.","Bethlehem Chapel, Church Terrace",51.4590644,-0.3034642,10:00:00,16:00:00,No,
Billingsgate Roman House & Baths,https://programme.openhouse.org.uk/listings/5296,"Some of London's best Roman remains, comprising late 2C house with a 3C bath house built within its courtyard. First discovered in 1848.","101 Lower Thames Street, EC3R 6DL",51.5092887,-0.08305119999999999,11:00:00,13:45:00,Yes,True
Boston Manor House,https://programme.openhouse.org.uk/listings/10142,"Boston Manor House is a Jacobean House built for Lady Mary Reade in 1623 and later owned by the Clitherow family from the 1670s until the 1920s.  The House is now open to the public with free entry six days a week. Its beautifully restored historic interiors, including breath-taking original ornate plasterwork, are joined by two community exhibition galleries, meeting rooms and an attractive modern café","Boston Manor House, Boston Manor Road",51.49191829999999,-0.3183739,11:00:00,17:00:00,Yes,No
Brandon Centre,https://programme.openhouse.org.uk/listings/10233,"West Kentish Town Conservation Area. Brandon Cadbury, (of the famous philanthropic chocolatiers) was so impressed with our founder and young peoples services he donated our building. As a thank you, we named the charity after him in 1984.","26 Prince of Wales Road , Kentish Town, NW5 3LG",51.5467627,-0.1447966,10:00:00,14:00:00,Yes,No
Brentford Canal Toll House and Gauging Lock,https://programme.openhouse.org.uk/listings/6146,Single-storey canal toll house (1911) where tolls were collected for passing through the lock. Grand Junction Canal connected the Thames at Brentford to the Industrial Midlands in 1794 at the height of the industrial revolution.,"Grand Union Canal Walk, Brentford, TW8 8GA",51.48297,-0.3119,10:00:00,16:30:00,No,
Brentham Garden Suburb,https://programme.openhouse.org.uk/listings/2571,"Britain's first co-partnership garden suburb, first houses built 1901. Parker and Unwin's plan introduced 1907, mainly Arts and Crafts style; fascinating social history.","The Brentham Club, 38 Meadvale Road, W5 1NP",51.5287856,-0.309085,10:30:00,12:30:00,Yes,No
Brixton Windmill,https://programme.openhouse.org.uk/listings/1971,A wonderful reminder of Brixton's rural past and inner London's last working mill. Built in 1816 by the Ashby family who produced flour until 1934.  Restored to working order 2011.,"100 Blenheim Gardens, Windmill Gardens, SW2 5DA",51.45319,-0.1235,13:00:00,17:00:00,Yes,No
Bromley Archives- Bromley Central Library,https://programme.openhouse.org.uk/listings/11775,Take a tour around Bromley Archives. The archive store itself is normally closed to the public and visitors will be allowed access within this space and a look at some of the items that we have in our collection.,Bromley Historic Collections,51.4036023,0.0147679,11:00:00,16:00:00,Yes,No
Bush Theatre - Backstage Tours,https://programme.openhouse.org.uk/listings/11992,"Explore the Bush Theatre, West London’s home of new writing. Get a behind the scenes look at our fifty-year history, including how over 2016 we transformed our 128-year-old building into an accessible and sustainable modern theatre.","Bush Theatre, 7 Uxbridge Rd, W12 8LJ",51.50525,-0.22601,10:00:00,17:00:00,Yes,No
Canada House,https://programme.openhouse.org.uk/listings/2783,"Canada's diplomatic home in the United Kingdom, the revitalised Canada House serves as a showcase for the very best of Canadian art and design in the 21C.","Trafalgar Square, SW1Y 5BJ",51.5076923,-0.1287592,10:00:00,16:45:00,Yes,True
Carshalton Water Tower and Historic Gardens,https://programme.openhouse.org.uk/listings/3745,"Early 18C Grade II listed building incorporating plunge bath with Delft tiles, orangery, saloon and pump chamber with part-restored water wheel. Hermitage and sham bridge in grounds.","West Street, Carshalton, SM5 2QG",51.3655577,-0.1670357,13:00:00,17:00:00,No,
"Centre Court Shopping Centre, Wimbledon",https://programme.openhouse.org.uk/listings/12151,"Centre Court is in the process of being transformed into a unique mixed-use local community hub. There's a new community-facing entrance, a sliding roof and a range of new uses including a roof-top farm, gym, restaurants, climbing wall etc.","4 Queens Road, Wimbledon, SW19 8YA",51.42174,-0.20355,10:00:00,13:00:00,Yes,True
Chartered Accountants' Hall,https://programme.openhouse.org.uk/listings/2842,Late Victorian neo-Baroque building with modern-style 1970 extensions supporting 5 storeys of recently refurbished offices over the Great Hall.,"One Moorgate Place, EC2R 6EA",51.5165568,-0.0884189,09:00:00,14:00:00,No,
Christ Church,https://programme.openhouse.org.uk/listings/9134,"The church is designed in the Gothic style, with a semicircular barrel-vaulted ceiling, a highly carved chancel screen and magnificent stained glass windows, notably the large West window, depicting Christ the King enthroned in heaven.","Christchurch Park , Sutton , SM2 5TN",51.3547581,-0.1890652,10:00:00,17:00:00,No,
City & Guilds of London Art School,https://programme.openhouse.org.uk/listings/10937,,"124 Kennington Park Road, SE11 4DJ",51.48727,-0.10738,10:00:00,17:00:00,No,
City Hall,https://programme.openhouse.org.uk/listings/5318,"The sustainable new headquarters of the Mayor of London and London Assembly located in the Royal Docks, Newham.  The docks are re-emerging as a commercial and cultural hub, and an exciting new waterfront.","Kamal Chunchie Way, E16 1ZE",51.5078589,0.0161094,10:00:00,16:00:00,No,
City Information Centre,https://programme.openhouse.org.uk/listings/4009,London's main tourist information centre is clad in a specially manufactured system of 220 pre-finished stainless steel panels. The subtly reflective surface provides a striking counterpoint to St Paul's. NOTE: Closed on Monday 19 September,"St Paul's Churchyard, EC4M 8BX",51.5132944,-0.0989526,09:30:00,17:30:00,No,
City Mill Pool Street,https://programme.openhouse.org.uk/listings/11402,,"City Mill Pool Street, Pool Street, E20 2AF",51.53961,-0.00831,09:00:00,11:00:00,Yes,No
City of Westminster Archives Centre,https://programme.openhouse.org.uk/listings/2336,Modern red brick building purpose-built to house the City of Westminster's historic records. Opportunity to visit the conservation studio and see treasures of the archives.,"10 St Ann's Street, SW1P 2DE",51.4974785,-0.1306893,10:00:00,15:00:00,No,
Cressingham Gardens,https://programme.openhouse.org.uk/listings/6047,Low-rise high density estate located next to Brockwell Park. Innovative design with pioneering architectural elements & echoing natural topography. Under threat of demolition by Lambeth council. Tours provided of estate and rotunda.,"Cressingham Gardens Rotunda, Tulse Hill",51.4470837,-0.1118877,10:00:00,16:00:00,No,
Croydon Minster,https://programme.openhouse.org.uk/listings/8724,Medieval style church rebuilt by Sir George Gilbert Scott after 1867 fire. Tower & south porch are 15C. Large nave with open timber-work roof leads to chancel dominated by superb stained glass window & rich alabaster reredos.,"Church Street, Croydon, CR0 1RN",51.3738597,-0.1051579,10:30:00,15:00:00,No,
Cycling Book Lovers’ London,https://programme.openhouse.org.uk/listings/11975,"A bicycle tour of public libraries and bookshops from Bloomsbury to the East End celebrating the institutions which keep books circulating and the buildings which bring readers and writers together. Over the course of the tour, we’ll see how architects working across a range of building styles express the ideals of their bookish institutions.",British Library,51.52934,-0.12755,13:30:00,16:30:00,Yes,True
Dorich House Museum,https://programme.openhouse.org.uk/listings/271,"The former studio home of the sculptor Dora Gordine and her husband the Hon. Richard Hare, a scholar of Russian art and literature. 1930s house over four floors including a flat roof terrace and views of Richmond Park.","Dorich House Museum, 67 Kingston Vale, SW15 3RN",51.4333564,-0.2630588,11:00:00,17:00:00,No,
Ealing South Walk,https://programme.openhouse.org.uk/listings/10295,"This is an attractive walk through Ealing south of Uxbridge Road. It passes Sir John Soane's Pitzhanger Manor, Ealing Studios and many attractive Georgian and early Victorian streets of Ealing's early development.","New Broadway, W5 2XA",51.5130056,-0.306101,11:00:00,13:00:00,Yes,True
East Croydon Community Organisation,https://programme.openhouse.org.uk/listings/10217,"Historic walking tour of East Croydon led by a native. Those who come along are welcome to contribute their memories.  Marvel at one of the oldest electricity sub-stations in Croydon. Tour ends at the iconic One Croydon, the ""Thru'penny Bit"" office block designed by Seifert in the 1960s.  Join us for a drink afterwards in a Victorian hostelry.","The Cricketers, 107 Addiscombe Road, Croydon",51.3752,-0.0836,15:00:00,17:00:00,Yes,True
Eastcote Walking Tour,https://programme.openhouse.org.uk/listings/11816,"Discover the fascinating history of Eastcote and its surroundings, focused on how the landscape has changed, from the exclusively agricultural area to the today's modern suburb, revealing some of the oldest local buildings and their stories","Eastcote Station, Field End Road, Pinner",51.5765526,-0.3971429,10:00:00,17:00:00,Yes,No
Edenham Way,https://programme.openhouse.org.uk/listings/10449,"Edenham Way forms a key part of Goldfinger's Cheltenham Estate built between 1969 and 1973. The estate features five terraces of houses, two six-storey blocks of flats, four acres of open space and  the neighbouring Trellick Tower.","51-80, Edenham Way, W10 5XD",51.52243,-0.20429,10:00:00,17:00:00,Yes,True
Edmonton - an Edwardian North London suburb,https://programme.openhouse.org.uk/listings/11952,"Edmonton has been described as a working class suburb but there are now signs of growing affluence, a result of regeneration and some might say the neighbourhood is ripe for gentrification. The walk will explore a variety of neighbourhoods.",Entrance to Silver Street Station (Platform 1,51.61474,-0.06708,10:30:00,13:00:00,Yes,True
Emanuel School,https://programme.openhouse.org.uk/listings/332,"Former Royal Patriotic orphanage, converted to school 1883, with 1896 additions and other developments. High Victorian style with stained glass by Moira Forsyth. Set in 12 acres.

In 2022 the building celebrates its 150th anniversary.",Battersea Rise (entrance via bridge over the ra,51.4570745,-0.1748981,09:30:00,17:00:00,No,
Embassy of the Republic of Poland,https://programme.openhouse.org.uk/listings/7544,"Georgian townhouse built by Robert and James Adam in the years 1776-1780 is a fine example of the Adam style of Neoclassical interior design. Seat of the Polish Embassy in London since 1921, it also houses a collection of Polish artworks.","47 Portland Place, W1B 1JH",51.5208181,-0.145565,11:00:00,15:00:00,Yes,No
Exploring Spring Grove Isleworth,https://programme.openhouse.org.uk/listings/9032,"Centred on Spring Grove House, once Sir Joseph Banks home the 1850s vision was for John Taylor Jnr designed grand villas.  Today's  wider architecture includes a former college by John Norton & P Massey plus quirky arts & crafts properties.","Forecourt, Isleworth Railway Station",51.47476,-0.33689,14:00:00,16:00:00,Yes,No
Ferry Lane Estate,https://programme.openhouse.org.uk/listings/7547,"A tour round the estate, with visits to residents' homes, information on the original design principles, tenancy types & history plus an opportunity to appreciate the setting with the River Lea bordering the estate. Approx 90 mins.",Nearest property 1 Reedham Close,51.58515,-0.05798,11:00:00,13:00:00,No,
Founders' Hall,https://programme.openhouse.org.uk/listings/8396,"Begun in 1985, our fifth Hall is constructed of traditional materials in a manner which is in keeping with this historic part of the City. Grayson Perry's Covid Bell will be on short term loan at the Hall for the Festival.","Founders' Hall, 1 Cloth Fair, EC1A 7JQ",51.5192561,-0.0990206,10:00:00,18:00:00,No,
Frederick W Paine Funeral Directors,https://programme.openhouse.org.uk/listings/6971,The town's oldest firm of funeral directors has conducted funerals from these premises since 1908. The original interior is Grade II listed. The building also contains the Frederick W Paine Museum and the firm's archive.,"24 Old London Road, Kingston upon Thames",51.4106864,-0.3000781,10:00:00,16:00:00,No,
Freemasons' Hall,https://programme.openhouse.org.uk/listings/436,"The current building, the third on the site, was built between 1927-1933 in the Art Deco style, as a memorial to the 3,225 Freemasons who died in World War I. It is a Grade II* listed building, both internally and externally.","Freemasons' Hall, 60 Great Queen Street",51.5152355,-0.1211194,10:00:00,17:00:00,No,
From Forest to Morris: A walk around Walthamstow,https://programme.openhouse.org.uk/listings/11296,"A walk around historic Walthamstow showing how this unique area grew from a village into a thriving suburb, its social history and the variety of buildings that can be found where Epping Forest meets William Morris.",Outside Costa Coffee at Walthamstow Central Sta,51.5828202,-0.0194102,11:00:00,13:00:00,Yes,True
From Old Oak to White City,https://programme.openhouse.org.uk/listings/11744,"The walk will explore four different types of housing north and south of the A40, which reveal much about the history of social housing in London. It will also include a rare chance to visit an award-winning community garden.","East Acton Tube Station,, Erconwald Street",51.51661,-0.24746,10:30:00,13:00:00,Yes,True
Fulham Road Picturehouse,https://programme.openhouse.org.uk/listings/11761,Fulham Road Picturehouse takes us back to the glory days of 1930s period glamour in this stunning listed building. Earle Architects (who did a fantastic job with Bromley Picturehouse) have helped us revive Fulham Road to its former vintage,"Fulham Road Picturehouse, 142 Fulham Road",51.4871141,-0.1793828,10:30:00,11:30:00,Yes,True
GOSH Sight and Sound Hospital & St Christophers Chapel,https://programme.openhouse.org.uk/listings/11828,"Visitors will be led on a tour of GOSH's newest redevelopment site, the Sight and Sound Hospital featuring a sensory garden and bespoke artworks. Tours will continue to the beautiful and unexpected St Christopher's chapel in the main site.",GOSH Sight and Sound Hospital,51.5210526,-0.121682,11:00:00,16:45:00,Yes,No
Gaunson Creative Open Studios part of Markfield Road Festival,https://programme.openhouse.org.uk/listings/11380,"Gaunson Creative Studios in South Tottenham, home to over 70 artist studios, will be opening its doors for the first time since 2019. Visitors will be able to meet and buy from over 50 artists across the weekend.","Gaunson Creative Studios, Gunson House",51.5838118,-0.0635681,14:00:00,18:00:00,No,
Gilbert & George Centre,https://programme.openhouse.org.uk/listings/7098,"The Gilbert & George Centre was originally established as a registered charity by the artist in 2009 with the objective to advance the education of the public in the arts, and generally to advance the arts, architecture, heritage, and culture for the benefit of the public.","Heneage St, E1 5LJ",51.5188618,-0.0711383,10:00:00,17:00:00,Yes,No
"Grand Junction at St Mary Magdalene Church, Paddington",https://programme.openhouse.org.uk/listings/2527,"Grade I Victorian Gothic church by G E Street, architect of the Royal Courts of Justice. The recent conservation project reveals the majestic colours of Daniel Bell's painted ceiling, plus Dow Jones Architects' contemporary heritage wing.","Rowington Close, St Mary Magdalene's Church",51.5222702,-0.1890094,11:00:00,15:00:00,Yes,No
Greenwich Yacht Club,https://programme.openhouse.org.uk/listings/522,"Contemporary timber and aluminium building using existing pier, offering unique views of the river, the O2 and the Thames Barrier.","1 Peartree Way, SE10 0BW",51.494727,0.0177407,10:30:00,19:00:00,No,
"Grow, Hackney",https://programme.openhouse.org.uk/listings/10743,"Repurposed out of a disused sausage factory, Grow was converted into a grassroots venue, community hub, bar and kitchen. This canalside venue is part of an ecosystem of artist studios & small independent businesses & working yard.","98c Wallis Road, Main Yard, Hackney Wick",51.54371769999999,-0.0226673,10:00:00,23:45:00,No,
Guildhall Art Gallery,https://programme.openhouse.org.uk/listings/1405,"UPDATED: Open daily 10.30am-4pm. Closed Mon 19 September.
Guided tours 12.15pm & 1.15pm on Tuesdays, Thursdays, Fridays, Saturdays & Sundays, see below.
Home of the City of London's art collection, & remains of London's Roman Amphitheatre","Guildhall Yard, EC2V 5AE",51.5152512,-0.0921379,11:00:00,15:30:00,Yes,No
Hackney School of Food,https://programme.openhouse.org.uk/listings/11732,"Meet the Architects Tour
Hackney School of Food, Oswald Street, Lower Clapton, E5 0BT
9 September 1030-130pm
Tour of our award-winning kitchen & gardens led by our architects, Surman Weston and the team behind our food education hub.","Hackney School of Food, Oswald Street, E5 0BT",51.5577581,-0.0399719,10:30:00,13:00:00,Yes,True
Hammersmith Quaker Meeting House,https://programme.openhouse.org.uk/listings/5929,"This new Quaker Meeting House is designed to be highly sustainable. It embodies the Quaker values of simplicity and equality, promoting a sense of calm.","30-32 Bradmore Park Rd, London W6 0DT, W6 0DT",51.4955364,-0.2318909,10:00:00,14:00:00,No,
Havant House 53,https://programme.openhouse.org.uk/listings/11119,"A victorian mid terrace house with a dark blue exterior and a zany tiled front garden. Full of original features without being dictated by the era, colour continues inside with a yellow rubber floor in the kitchen.","53 Havant road, Walthamstow, E17 3JE",51.58836729999999,-0.0069079,10:00:00,13:30:00,Yes,True
Hinde Street Methodist Church,https://programme.openhouse.org.uk/listings/9976,"Hinde Street Methodist Church was constructed in 1887 with a grand pillared portico, spire and classical interior which remains largely unaltered. The entrance foyer was remodelled in 2014, to give the church a more welcoming appearance.","19 Thayer Street, W1U 2QJ",51.5171666,-0.151156,10:00:00,16:00:00,No,
Holy Trinity Church Sloane Square,https://programme.openhouse.org.uk/listings/649,"A sumptuous feast of Victorian stained glass & bold sacred sculpture in what Sir John Betjeman called the 'cathedral of the Arts and Crafts movement.' Work by William Morris, Edward Burne-Jones, William Blake Richamind & Christopher Whall.",146 Sloane Street (just off Sloane Square),51.4931409,-0.157482,10:00:00,16:00:00,No,
Hornsey Library,https://programme.openhouse.org.uk/listings/10973,"Hornsey Library is a Grade II listed building, featuring Huxley-Jones' ""Reclining figure"" sculpture and the intricately etched glass ""Hornsey window"". A recent refurbishment has added practical updates while keeping the 1960s aesthetic.","Hornsey Library, Haringey Park, Haringey",51.578152,-0.1221064,11:00:00,12:00:00,Yes,True
Housing in Kennington: A royal intervention,https://programme.openhouse.org.uk/listings/11964,This walking tour around Kennington focuses on housing projects and particularly those developed by the Duchy Estate before and after World War I. The walk will provide an insight into the way public housing contributes to the mix of inhabitants in this sometimes forgotten area of London – drawing comparisons in relation to London as a whole.,Outside Kennington Tube Station,51.48827,-0.10561,11:00:00,13:00:00,Yes,True
Huguenots' heritage in Spitalfields,https://programme.openhouse.org.uk/listings/11971,"Huguenots had a huge impact on London’s culture, commerce and industry from the 17th century onwards. But how much do we really know about them? During this walk we will discover and explore the  history of Spitalfields.",Outside hub by Premier Inn London Spitalfield,51.51929,-0.07158,10:00:00,11:45:00,Yes,True
Industry and change through Hackney Wick,https://programme.openhouse.org.uk/listings/11982,"This walk focuses on industry, creativity and change in Hackney Wick and Fish Island, exploring how regeneration and gentrification have transformed the area.",Hackney Wick Overground Station,51.54354,-0.02415,14:00:00,16:00:00,Yes,True
International Maritime Organization,https://programme.openhouse.org.uk/listings/7730,"The International Maritime Organization is a specialized agency of the UN, responsible for the safety and security of shipping and the prevention of marine pollution by ships. It is the only UN organization with headquarters in London.","4 Albert Embankment, SE1 7SR",51.4936018,-0.1210654,10:00:00,16:00:00,No,
Jonathan Tuckey Design Studio,https://programme.openhouse.org.uk/listings/8213,This transformation of a derelict pub into an architecture studio doubles up as a gallery and lecture theatre. The new office is an example of the practice’s approach towards existing structures and intelligent architectural interventions.,"58 Milson Road, W14 0LB",51.4987228,-0.2141963,10:00:00,17:00:00,No,
Kempton Steam Museum,https://programme.openhouse.org.uk/listings/10239,1920s water pumping station comprising of several architectural styles. Interior retains original steam pumping machinery and historic electrical equipment.,"Kempton Park Pumping Station, Snakey Lane",51.4317281,-0.4101565,10:30:00,16:00:00,No,
Kenwood,https://programme.openhouse.org.uk/listings/835,"A striking Neoclassical villa in tranquil gardens on Hampstead Heath, Kenwood boasts breath-taking interiors by Robert Adam and a world-class art collection. For guaranteed entry, book your free ticket via the English Heritage website.","English Heritage, Hampstead Lane, NW3 7JR",51.5713284,-0.1675998,10:30:00,16:00:00,No,
"King's Cross Heritage, Energy Centre and Garden Tours",https://programme.openhouse.org.uk/listings/499,"King's Cross is a 67 acre development in Central London being transformed into a new city quarter with 20 regenerated heritage buildings, new homes, offices, public spaces, shops, galleries, bars, restaurants, schools and a university.","Western Transit Shed, 11 Stable Street",51.5366294,-0.1252866,10:30:00,15:30:00,Yes,True
King's Cross Masterplan,https://programme.openhouse.org.uk/listings/7788,The King’s Cross Masterplan established a framework for the incremental redevelopment of this industrial heritage site through a mix of uses and a network of public spaces structuring new urban blocks and knitting the site into its context.,"11 Stable Street, N1C 4AB",51.5366379,-0.12543,14:00:00,16:00:00,Yes,True
Kingston Guildhall and History Centre,https://programme.openhouse.org.uk/listings/6960,"Built in the Georgian style, the Guildhall brought together Kingston's administrative functions. Purpose-built Magistrates Courts were included in the building, part of which are now home to Kingston History Centre.","High Street , Kingston upon Thames, KT1 1EU",51.4065434,-0.3080235,10:00:00,16:30:00,Yes,No
Kingston Historic walk,https://programme.openhouse.org.uk/listings/7678,"We are running our usual guided walking tours around historic Kingston this year with reduced numbers.

Our guided tours are informative, interesting and fun. For more information about us visit: https://www.kingstontourguides.org.uk/","Market house, Kingston upon Thames, KT1 1JX",51.40975359999999,-0.3062179,11:00:00,12:30:00,Yes,No
"Kingston Library, Museum and Art Gallery",https://programme.openhouse.org.uk/listings/781,"Adjoining Grade II listed Carnegie-funded library, museum and art gallery. Museum holdings range from ceramics to topographical drawings, including the collection left by Eadweard Muybridge, a native of Kingston and photographic pioneer.","Wheatfield Way, Kingston upon Thames, KT1 2PS",51.4094037,-0.3007265,10:00:00,17:00:00,No,
Lambeth Palace Library,https://programme.openhouse.org.uk/listings/10965,"A significant new redbrick addition to London’s civic architecture, Lambeth Palace Library is the first new building on the site for 185 years and hosts the Church of England’s archive.","15 Lambeth Palace Road, SE1 7JT",51.49518140000001,-0.1207935,10:00:00,17:15:00,Yes,No
Leathersellers' Hall,https://programme.openhouse.org.uk/listings/3489,"New Livery Hall behind a retained early 20th century façade. This is the seventh Hall in the Leathersellers' Company's history since its foundation in the Middle Ages, and is located on the site of its second Hall.","7 St Helen's Place, Bishopsgate, EC3A 6AB",51.5152593,-0.0822059,10:00:00,17:00:00,Yes,True
Lexi Cinema,https://programme.openhouse.org.uk/listings/10262,"A contemporary extension to the Lexi Cinema, providing a 2nd screen. The building is a composition of brick and stainless steel; a nod to the parapets of surrounding terraces and reflecting the ever-changing sky above.","194b Chamberlayne Road, NW10 3JU",51.5376199,-0.2224974,14:00:00,17:05:00,No,
Lincoln's Inn,https://programme.openhouse.org.uk/listings/928,"Lincoln’s Inn has been an association of barristers for over 600 years. An 11-acre site combining gardens with mediaeval, Victorian, Georgian, and modern buildings, including banqueting halls, a law library, a chapel, and teaching space.",The Honourable Society of Lincoln's Inn,51.5160414,-0.1132912,10:00:00,16:00:00,No,
Little Mouse Cheese Shop,https://programme.openhouse.org.uk/listings/12156,"Visit Little Mouse, an Edwardian shop in South Norwood with original wooden frontage and fascia that is now an artisan cheesemonger.","212A Selhurst Road, SE25 6XU",51.39786,-0.07719,10:00:00,16:00:00,No,
Lockwood Way Industrial Estate - Architect-Led Tours,https://programme.openhouse.org.uk/listings/11265,"An architect-led tour of the recent public realm improvements. The tour will also provide a chance to look inside the tap rooms, scooter shop and winery and speak to the makers, brewers and winemakers on the estate about their processes.","Lockwood Way Industrial Estate, Walthamstow",51.5954843,-0.0428377,14:00:00,15:00:00,Yes,No
London Cable Car,https://programme.openhouse.org.uk/listings/5530,Tour exploring the civil engineering achievements of the construction of the cable car. Led by the London Cable Car engineers* and front-of-house team.,"Unit 1-4, Edmund Halley Way, SE10 0FR",51.4995722,0.007199,10:00:00,12:00:00,Yes,True
London Fire Brigade Memorial Hall,https://programme.openhouse.org.uk/listings/11781,"Open Day: LFB's grade II listed Memorial Hall, part of the LFB's Headquarters, opened in 1937. The hall is rarely seen by the public & contains stunning large memorials by Gilbert Bayes commemorating firefighters lost protecting London.","8 Albert Embankment, SE1 7SP",51.49253,-0.1215,11:30:00,16:30:00,Yes,No
"London Museum, West Smithfield",https://programme.openhouse.org.uk/listings/8380,"Join us to find out more about our incredible journey to create a new museum for London. Apply to join a special tour of the General Market (currently in construction), or come along to meet the architects and take part in free family-friendly drop-in activities.","General Market Building, Charterhouse Street",51.5185885,-0.1051801,13:00:00,17:00:00,Yes,No
London Open Form Pavilion of Air,https://programme.openhouse.org.uk/listings/11855,"A floating roof of sound, GPS-triggered & accessed by headphones & Echoes app to playfully reframe public space as an essential community engagement. One of 15 in an international series drawing on Oskar & Zofia Hansen’s Open Form concept.","Kensington Gardens, W2 3XA",51.50478,-0.175,07:00:00,20:15:00,No,
London Scottish House (London Scottish Regimental Headquarters),https://programme.openhouse.org.uk/listings/11324,A Grade 2 listed former Territorial Army Drill Hall  featuring restored elements of the original 1882 design. It has a triple height central hall with the restored wrought iron balconies and roofing.  Notable Neo-Georgian design brickwork.,"London Scottish House, 95 Horseferry Road",51.4952653,-0.1331912,10:00:00,17:00:00,No,
London's Roman Amphitheatre,https://programme.openhouse.org.uk/listings/10902,"UPDATED: Open daily 10.30am-4pm Closed Mon 19 September.
Combined guided tours of Amphitheatre and Guildhall Art Gallery at 12.15pm & 1.15pm on Tuesdays, Thursdays, Fridays, Saturdays & Sundays.
The capital’s only known Roman Amphitheatre",London’s Roman Amphitheatre at Guildhall Art Ga,51.5155471,-0.0914547,11:00:00,15:00:00,No,
"Loop House, Teddington",https://programme.openhouse.org.uk/listings/11988,Bridgeman Road project is a refurbishment project of a three-storey house with an extension of the roof with a dormer. The outcome is a joyful interior with bold use of colours and materials.,"2 Bridgeman Road, Teddington, TW11 9AH",51.42558,-0.33256,10:00:00,17:00:00,Yes,No
Manor Park Community Garden,https://programme.openhouse.org.uk/listings/11827,"Manor Park Community Garden was first established by local residents in 2012. . In 2020, a new group of residents saw an opportunity to reinvigorate the space, into an edible garden with fruit trees, asian vegetables and herbaceous flowers.","Manor Park Community Garden, E12 5AT",51.5518015,0.04555260000000001,12:00:00,15:00:00,No,
"Maxwell House, Brackenbury Village",https://programme.openhouse.org.uk/listings/11913,"Maxwell House is a unique architecturally designed open-plan 4 storey home. Its design and tapestries are inspired by its rich history as a textile shop, & the Roberts family of drapers who lived there for 40yrs from the late 19th Century.","108 Brackenbury Road, W6 0BD",51.4973167,-0.2316672,11:00:00,18:00:00,No,
Moravian Close,https://programme.openhouse.org.uk/listings/6835,"A former stable yard of Sir Thomas More's Chelsea estate, now an 18C Chapel, other buildings, and burial ground. Parts of the enclosing walls are Tudor in origin. Ernest and Mary Gillick enhanced the grounds in the 20C.","Moravian Close, 381 Kings Road, SW10 0LP",51.4836113,-0.1762358,13:00:00,17:00:00,No,
Mother X Artists and Makers Open Studios,https://programme.openhouse.org.uk/listings/11914,"Mother X is a diverse group of artists, makers & creators that have inhabited a former Victorian chocolate factory in Hackney Wick for 15+ years. Come visit this unique building & see it's people & their work during the Open House Festival.","Floor D and E, 9B Queens Yard, Hackney Wick",51.5430381,-0.023148,11:00:00,18:00:00,No,
Museum of Croydon Behind the Scenes Tour,https://programme.openhouse.org.uk/listings/12045,We propose to open the Museum of Croydon stores for an intimate guided tour of our stored collections also featuring an overview of collection care. This activity will take approximately 1hr and can cater for a maximum of 8 people.,"Croydon Clocktower, Katharine St, CR9 1ET",51.37226,-0.09939,10:00:00,11:45:00,Yes,True
National Liberal Club,https://programme.openhouse.org.uk/listings/1167,"An impressive Victorian neo-Classical building overlooking the Embankment of the river Thames. It is the second-largest clubhouse ever built, the first London building to incorporate a lift and to be entirely lit by electric lighting.","Whitehall Place, SW1A 2HE",51.5064534,-0.1236299,10:30:00,16:30:00,Yes,No
National Portrait Gallery Architecture Highlights Tours,https://programme.openhouse.org.uk/listings/12229,"Discover the architecture of the National Portrait Gallery, designed in 1896 by Ewan Christian and now transformed by Jamie Fobert Architects. Meet by the information desk in the Gallery's main hall. Drop-in 9, 10, 16 & 17 Sept, 10.30am","National Portrait Gallery, St Martin's Place",51.50942,-0.12812,18:00:00,18:45:00,No,
Nunhead Cemetery,https://programme.openhouse.org.uk/listings/1237,"Magnificent Victorian cemetery with Gothic chapel & restored & ruined lodge. One of London's wildest cemeteries. Part restored with the help of a lottery grant. 52 acres of woodland, with bats, owls, foxes & squirrels. Grade II*  landscape.","Linden Grove, Nunhead, SE15 3LP",51.4651848,-0.05196750000000001,13:00:00,17:00:00,No,
Old Royal Naval College,https://programme.openhouse.org.uk/listings/1310,"Sir Christopher Wren's riverside masterpiece in Greenwich, built as the Royal Hospital for Seamen and begun in 1696.","Old Royal Naval College, Greenwich, SE10 9NN",51.4832059,-0.005915399999999999,10:30:00,16:00:00,No,
Olympic Legacy Masterplan,https://programme.openhouse.org.uk/listings/7789,"London’s 2012 Games provided a catalyst for regeneration in the Lower Lea Valley. Guided by the Legacy Masterplan, thousands of new homes and jobs are now being created, stitching together existing communities across the former floodplain.","1A Honour Lea Ave, E20 1DY",51.547522,-0.014855,11:00:00,13:00:00,Yes,No
"One Canada Square, Canary Wharf Group (CWG) Marketing Suite",https://programme.openhouse.org.uk/listings/1171,"One of the most iconic structures dominating London’s skyline, One Canada Square is the third tallest building in the UK. It is Canary Wharf Group's landmark tower which houses Europe’s most influential FinTech scaler, Level39.","Meet: South Lobby, One Canada Square",51.5049489,-0.0195006,10:00:00,15:40:00,Yes,True
Open Havelock - guided visit,https://programme.openhouse.org.uk/listings/12098,"Open Havelock is a new community project on the Havelock Estate in Southall. The project transforms empty garages, undercrofts and their adjoining grounds into a flexible community facility situated off Willowbrook Road.","64 Havelock Rd, UB2 4GG",51.50065,-0.3674,10:00:00,15:00:00,Yes,No
Paddington Pantheon,https://programme.openhouse.org.uk/listings/11801,The Paddington Pantheon is a restored and reimagined Mews House within a conservation area in West end London. We were commissioned by two artists to provide a series of gallery spaces within a rejuvenated and expanded family home.,"37 Bathurst Mews, Paddington, W2 2SB",51.5142102,-0.1733885,10:00:00,17:00:00,No,
Painters' Hall,https://programme.openhouse.org.uk/listings/1311,"Acquired in 1532 and rebuilt in 1670 after the Great Fire, the Hall was partially destroyed in 1941 by enemy action and rebuilt in a Neo-Georgian style in 1960. The original charter, portraiture and stained glass are of particular interest.","9 Little Trinity Lane, EC4V 2AD",51.5116609,-0.09499049999999999,10:00:00,16:00:00,No,
"Patch, 42 York Street",https://programme.openhouse.org.uk/listings/11818,"Patch is a pioneering neighbourhood workspace & culture venue in Twickenham.
Housed in a striking Art Deco building, formerly home to the South Eastern Electricity Board, it’s a new local centre for work, cultural & community events.","42 York Street, Twickenham, TW1 3BW",51.4475074,-0.3263997,10:00:00,16:00:00,No,
Peer,https://programme.openhouse.org.uk/listings/11837,"Free access to the final weekend of 'we are a group of people composed of who we are', a survey exhibition that traces artistic, cultural and social collective work that took place in Hackney between 1971 and 1986.","Peer, 97-99 Hoxton Street, N1 6QL",51.5297466,-0.0804599,12:00:00,18:00:00,No,
People's Museum Somers Town,https://programme.openhouse.org.uk/listings/10952,"A great little museum set in the Grade 2 listed Ossulston Estate - a prime example of pre-war Social housing - based on Karl Marz Hof in Vienna.
Open Wednesdays to Saturdays throughout Festival 
Sunday 11th Event","52 Phoenix Road, NW1 1ES",51.5310613,-0.1309568,11:00:00,17:00:00,Yes,No
Phoenix Gardens Community Building,https://programme.openhouse.org.uk/listings/6841,"The first purpose-built new-build community centre to be built in the heart of Soho for generations, located within the renowned Phoenix Gardens. Winner: RIBA London Award. Designed by RIBA London Architect of the Year Winner.","21 Stacey Street    , WC2H 8DG",51.5144001,-0.1285292,11:00:00,17:00:00,Yes,No
Pope's Grotto,https://programme.openhouse.org.uk/listings/1379,Grotto with mineral decoration is last remaining part of Alexander Pope's villa built 1720. The villa was demolished 1808 and replaced and redeveloped many times in following years but Pope's Grotto remains.,"Radnor House School, Pope's Villa, Cross Deep",51.4419712,-0.3314995,10:00:00,12:00:00,Yes,True
Poroban studio,https://programme.openhouse.org.uk/listings/11347,"Poroban is a multi-disciplinary design studio, based off Old Kent Road, specialising in low carbon building design. We are offering free design surgeries throughout September and are hosting an open day on Saturday 9th Sept.","43 Madron Street, SE17 2LE",51.48900930000001,-0.0790748,11:00:00,15:00:00,Yes,No
Present & Correct Stationers,https://programme.openhouse.org.uk/listings/11947,"Architecture for London designed and built a new home for stationers Present & Correct in a heritage retail unit. In a nod to the neighbouring British Museum, cabinets as 'wunderkammer' display the stationery as objects of desire.","12 Bury Place, WC1A 2JL",51.51846,-0.1242,11:00:00,18:00:00,No,
Primrose Hill House,https://programme.openhouse.org.uk/listings/11820,"This 1960s house in Primrose Hill is a detached property in a Modernist estate of brick courtyard houses. Our project reconfigured the internal layout and added a rooftop extension, whilst improving the house's thermal performance.","6 Conybeare, NW3 3SD",51.5425842,-0.1640499,10:00:00,17:00:00,No,
Pushkin House,https://programme.openhouse.org.uk/listings/4108,The independent cultural centre Pushkin House will contribute to this year's Open House Festival through a programme of events and community initiatives at its Grade-II listed building in Bloomsbury Square.,"5a Bloomsbury Square, WC1A 2TA",51.5182912,-0.1230772,12:00:00,16:00:00,Yes,No
Quaker Meeting House - Brentford & Isleworth,https://programme.openhouse.org.uk/listings/2688,"Grade II* listed late-Georgian Quaker Meeting House (1785) set in garden with burial ground. Meeting room has wood panelling, elders' bench, upper gallery with drop shutters, and fine brickwork detailing. Contemporary brick boundary wall.","Quakers Lane, Isleworth, TW7 5AZ",51.4791863,-0.3260394,10:00:00,16:00:00,Yes,No
Quaker Meeting House - Wandsworth,https://programme.openhouse.org.uk/listings/1422,"Grade II listed, this is the oldest Quaker meeting house in London. Built in 1778, it has original panelling & a minister's gallery. See flagstones from the earlier 1674 buildings. Also a secluded burial ground & garden. Free refreshments.","59 Wandsworth High Street, Wandsworth, SW18 2PT",51.4565224,-0.1917397,12:00:00,16:00:00,No,
RIBA,https://programme.openhouse.org.uk/listings/1464,Fine example of Grade II* listed 1930s architecture with many original features and fittings and home to the world-class British Architectural Library collections.,"66 Portland Place, W1B 1AD",51.5211811,-0.1451121,11:00:00,16:00:00,No,
"Red Door Studios: Family workshop, Exhibition featuring Ferha Farooqui's painting and more",https://programme.openhouse.org.uk/listings/11039,"This is an artist-run, community-focused space, that offers affordable studios since 2011. Built around 1893 and adjacent to Almshouses. Also, used as a bakery and later became laboratory glassware in the late 1950s.","Rear of 120 High Street South, E6 3RW",51.52639790000001,0.05598329999999999,14:00:00,17:00:00,No,
Roca London Gallery,https://programme.openhouse.org.uk/listings/5322,"Designed by the world renowned Zaha Hadid Architects, Roca London Gallery is a unique space where water acts as the architectural theme. Guests can also visit 'Everything Flows', a major exhibition exploring the work of Zaha Hadid Design.","Station Court, Townmead Road, SW6 2PY",51.4705297,-0.1850841,11:00:00,17:00:00,No,
Romanian Cultural Institute,https://programme.openhouse.org.uk/listings/5056,"Situated in one of the largest and grandest 19th century squares in London, 1 Belgrave Square was acquired by Romania in 1936 and is now home to the Romanian Cultural Institute.","1 Belgrave Square, SW1X 8PH",51.500248,-0.1539844,11:00:00,17:00:00,No,
"Rowley Way, Alexandra Road Estate",https://programme.openhouse.org.uk/listings/11956,"The Alexandra Road Estate is a low-rise, high-density, mixed-use development designed by Neave Brown for Camden's Architects' Department.","13b Rowley Way, NW8 0SF",51.53946,-0.18597,09:00:00,16:00:00,Yes,No
Royal Hospital for Neuro-disability,https://programme.openhouse.org.uk/listings/8198,The original Grade II listed house was a former Georgian villa. 3 extensions were added through the Victorian period reflecting the style of the era.  Subsequent additions reflect medical practices. An archivist will be giving free tours.,"Royal Hospital for Neuro-disability, West Hill",51.45162699999999,-0.2141958,11:00:00,15:45:00,Yes,No
Royal Opera House,https://programme.openhouse.org.uk/listings/1550,"Home to The Royal Opera, The Royal Ballet and the Orchestra of the Royal Opera House, the ROH was reconfigured in 2018 by Stanton Williams to offer world-class performance spaces and a welcoming and inclusive cultural and social hub.","Covent Garden, Bow Street , WC2E 9DD",51.5129211,-0.1221976,12:30:00,16:30:00,Yes,No
Sanitation and the City walking tour,https://programme.openhouse.org.uk/listings/11969,"From the Great Stink of London in 1858 to the Tideway 'Super Sewer' currently under construction, this walking tour will chart the development of London's sanitation infrastructure, past, present and future.","Outside the Lakeside Centre, Bazalgette Way",51.50096,0.12423,13:30:00,16:30:00,Yes,True
Scadbury Moated Manor,https://programme.openhouse.org.uk/listings/11382,See the archaeological excavations and Tudor foundations at Scadbury Moated Manor - which still has its moat around it.,"Scadbury Moated Manor, Perry Street",51.414806,0.0872352,14:00:00,17:00:00,No,
Secret Victoria,https://programme.openhouse.org.uk/listings/7774,CWGLA HAVE CANCELLED SATURDAY 10th SECRET VICTORIA WALK,"Cardinal Place, Victoria Street , SW1E 5JE",51.4971002,-0.141117,10:00:00,17:30:00,No,
Senate House,https://programme.openhouse.org.uk/listings/1617,"London’s tallest secular building when it opened as the HQ of the University of London and home to the Ministry of Information during WWII, this Grade II* listed landmark features Classicism and Art Deco elements.","University of London, Malet Street, WC1E 7HU",51.5229378,-0.1308206,11:00:00,16:00:00,No,
Shaftesbury Theatre,https://programme.openhouse.org.uk/listings/152,Built in a Renaissance style with high level Diocletian windows and a prominent grand cupola. In 2016 a new Fly Tower opened followed by remodelling of the auditorium in 2018 and the creation of a new basement space opening in the Autumn.,"210 Shaftesbury Avenue, WC2H 8DP",51.516203,-0.1261448,09:00:00,11:45:00,Yes,True
Shrewsbury House,https://programme.openhouse.org.uk/listings/7175,"Built in 1923, to replace its 18C namesake, Grade ll listed Shrewsbury House is the focus of the Shrewsbury Park Estate conservation area, built 1934-1936 by John Laing and Sons. Two Civil Defence centres are within the grounds.","Shrewsbury House, Bushmoor Crescent, SE18 3EG",51.4736553,0.0722406,10:00:00,16:00:00,Yes,No
Spruce House,https://programme.openhouse.org.uk/listings/11750,"Ao-ft co-founders', Liz Tatarintseva and Zach Fluker,  Spruce House and Studio is the pair’s joint home in east London’s Walthamstow. Not only has it been a personal labour of love, it’s also the first flagship project of the practice owners' newly minted architecture practice.","56 Beulah Road, E17 9LQ",51.58139,-0.01034,10:30:00,15:30:00,No,
"St Anne's Church, Limehouse",https://programme.openhouse.org.uk/listings/6270,"St Anne's Limehouse has been described as 'the finest parish church in England.' Designed by Nicholas Hawksmoor, it is Grade I listed and one of the Major Churches in the Church of England. It is home to a thriving Christian congregation.","Three Colt Street, E14 8HH",51.5107426,-0.0303782,10:00:00,16:00:00,No,
St Bernard's Houses,https://programme.openhouse.org.uk/listings/4811,"21 houses, in 3 terraces, built by Swiss architects Atelier 5 for Wates. Living areas on the upper floor are approached through a garden court. Bedrooms downstairs open to a lower garden. Pevsner wrote, 'a group with few equals in Britain'.","Meet: by OH banner, St Bernard's",51.3701308,-0.0854432,14:00:00,17:00:00,Yes,True
St John on Bethnal Green,https://programme.openhouse.org.uk/listings/11832,"This grade one listed Sir John Soane church sits in the heart of the Bethnal Green in East London. Despite a fire in 1870, some original features remain. Visitors will have access to the church,  belfry, galleries and crypt.",St John on Bethnal Green,51.5275283,-0.0547752,10:00:00,16:00:00,No,
St John the Divine,https://programme.openhouse.org.uk/listings/3397,St John’s has a wide nave approached via a narthex formed under the gallery running the width of the west end.  East of the nave is a chancel flanked to the south by the Lady Chapel and to the north by the organ chamber with loft over.,"Kew Road, Richmond, Surrey, TW9 2NA",51.4760605,-0.29128,10:00:00,12:00:00,No,
"St John the Evangelist, Kingston upon Thames",https://programme.openhouse.org.uk/listings/7702,"The church is a large victorian building with an interesting beautiful interior. The foundation stone was laid in 1871 by Bishop Samuel Wilberforce, son of the anti-slavery campaigner, William.","Grove Lane, Kingston upon thames",51.4025463,-0.2985612,10:00:00,13:00:00,No,
"St Luke’s Catholic Church, Pinner",https://programme.openhouse.org.uk/listings/11890,"A suburban post-war Catholic church built in a neo-Romanesque version of the continental modern style by Velarde, next to the original neo-gothic church from 1915, now a parish centre, and alongside the modernistic 1960s parish hall.","28 Love Lane, Pinner, HA5 3EX",51.59537210000001,-0.3829307,13:00:00,17:00:00,No,
St Mary Magdalene,https://programme.openhouse.org.uk/listings/5810,"A historic living parish church, progressively shaped from the Tudor to the Edwardian period. St Mary's has recently undergone a major refurbishment and the newly restored windows recapture the original airiness of the C18 nave.","Paradise Road, Richmond, TW9 1SN",51.4602497,-0.3016406,10:00:00,15:00:00,No,
St Mary the Virgin,https://programme.openhouse.org.uk/listings/2528,"Small Grade I listed 12C chapel in lovely churchyard setting, it retains original architectural features and has interesting brasses, monuments and stained glass windows.","Church Road, Manor Park, Little Ilford, E12 6HA",51.5485444,0.0586338,11:00:00,16:00:00,No,
"St Mary's Church, Battersea",https://programme.openhouse.org.uk/listings/2533,Classic Grade I listed Georgian church with outstanding interior and monuments. Renovated 2019/20.,"Battersea Church Road, SW11 3NA",51.4765358,-0.1747989,11:30:00,17:30:00,No,
St Matthew's Church,https://programme.openhouse.org.uk/listings/11020,"St Matthews is Grade II listed, built 1883-4 and designed by the architect Alfred Jowers. 
It features a WW1 memorial screen designed by Reginald Hallward and stained glass some believed to be by Edward Frampton","St Matthews church, North Common Road, W5 2QA",51.51317299999999,-0.2958622,10:00:00,17:00:00,No,
St Nicholas Church,https://programme.openhouse.org.uk/listings/6916,"Built in the Gothic style with dressed flint and stone dressings. There are monuments to Joseph Glover (1628), Lady Dorothy Brownlow (1699), William Earl Talbot (1782) and Isaac Littlebury (1740). The churchyard has 5 Grade II tombs.","St Nicholas Way, Sutton, SM1 1ST",51.3624214,-0.1948925,10:00:00,16:00:00,No,
"St Paul's, Newington",https://programme.openhouse.org.uk/listings/2556,"Modern architecture church with large copper and lead roof and concrete, brick and stained glass external structure. Marble, wood and plaster interior and artwork by Sculptor Freda Pinto and Gerald Holtom.","Walworth Road, Lorrimore Square, SE17 3QU",51.4849094,-0.1019112,11:00:00,14:00:00,No,
Stanley Arts,https://programme.openhouse.org.uk/listings/4825,"A public hall, theatre and gallery in grand Edwardian style. Grade II listed, Stanley made fun of the Victorian style with grand ornamentation. It reflects Stanley's interest in science, the arts and public cultural improvement.","12 South Norwood Hill, SE25 6AB",51.4001227,-0.0754022,11:00:00,17:00:00,Yes,No
Streamline in the Suburb,https://programme.openhouse.org.uk/listings/11773,"A walking tour exploring the 1930s Streamline Moderne architecture of Hampstead Garden Suburb, led by Joe Mathieson of the Hampstead Garden Suburb Trust. 

1 of 3 walks run by the Trust.","East Finchley tube, N2 0NW",51.58711049999999,-0.1645653,10:00:00,12:30:00,Yes,True
Streatham Space Project Family Day,https://programme.openhouse.org.uk/listings/11734,"A free family day out for the littleuns, bigguns and middleuns! Come see our unique, purpose built live arts venue, and enjoy some of the free family activities on offer. Streatham Space Project is neighbourhood arts venue and charity.","Sternhold Avenue, SW2 4PA",51.4387922,-0.1282771,10:00:00,14:00:00,No,
Sugar House Island,https://programme.openhouse.org.uk/listings/12036,"Sugar House Island is a brand-new 26 acre mixed use neighbourhood of homes, offices, creative spaces, retail, education and public outdoor space.  The development combines modern architecture with retained heritage features.","Vastint UK, 135 High Street, Stratford, E15 2RB",51.53239,-0.00894,10:30:00,17:00:00,Yes,No
T J Boulting,https://programme.openhouse.org.uk/listings/10748,Red brick and Portland stone corner building with three prominent signs in Arts & Craft style lettering in green and gold mosaic for the company 'TJ Boulting & Sons'.,"59 Riding House Street, W1W 7EG",51.5192759,-0.1393736,11:00:00,17:00:00,No,
Talks at The Thorney Island Society Archives,https://programme.openhouse.org.uk/listings/11805,"Victor Keegan, author of two acclaimed books on Lost London, asks how the streets around the Thorney Island Society Archives in Old Pye Street could have been so lawless and deprived, so close to Westminster Abbey and Parliament.","10 Old Pye Street, SW1P 2DG",51.49751389999999,-0.1309298,10:00:00,16:00:00,No,
Temple Bar,https://programme.openhouse.org.uk/listings/1983,"Temple Bar is a 350 year old gateway to the City of London, designed by Sir Christopher Wren. It formerly stood in Fleet Street, and was the last surviving gateway to the City of London.","First Floor, Paternoster Lodge",51.5142882,-0.0993242,10:00:00,16:00:00,No,
The Association of Anaesthetists and Anaesthesia Heritage Centre,https://programme.openhouse.org.uk/listings/7736,"Grade II listed building with neoclassical portico. Highly decorated meeting rooms throughout the building with ceiling and wall mouldings, and artwork featuring Venus the Goddess of Love and the Greek Muses.","21 Portland Place, Marylebone, W1B 1PY",51.5193726,-0.1450566,10:00:00,15:40:00,Yes,No
The Barbican & The City Gardens,https://programme.openhouse.org.uk/listings/12009,"Built on the site destroyed by The Blitz during the World War II, The Barbican Estate is a fascinating area and an icon of Brutalist architecture. Architects were Chamberlain, Powell and Bon,  We  will also visit several amazing gardens.","Guildhall Yard, Gresham Street, EC2V 5AE",51.5151,-0.09212,10:45:00,16:00:00,No,
The Department Store,https://programme.openhouse.org.uk/listings/7607,"The Department Store is an award winning refurbishment of a dilapidated Edwardian building in Brixton, completed by Squire and Partners in 2017. The design was informed by the layers of history and existing fabric of the heritage building.","The Department Store, 248 Ferndale Road",51.4640281,-0.1154794,10:00:00,13:00:00,Yes,True
The Earls Court Development Company,https://programme.openhouse.org.uk/listings/11086,"Climb onto The Table, a concrete structure that looms over site & hear our plans to transform this 40 acre site into a car-free, beyond net zero mixed use development that will bring the wonder back to Earls Court. No wheelchair access.","Earls Court Project Rooms, 16-18 Empress Place",51.4872526,-0.1978557,12:00:00,14:00:00,Yes,No
The Egypt Exploration Society (EES),https://programme.openhouse.org.uk/listings/11679,The EES is a charity supporting and promoting Egyptian cultural heritage located in 3-4 Doughty Mews. We propose an Open Day on Saturday 9th September with collections tours and an exhibition of the history and archaeology of the building.,"The Egypt Exploration Society, 3-4 Doughty Mews",51.523079,-0.116958,10:00:00,16:00:00,No,
The Foundry,https://programme.openhouse.org.uk/listings/11069,"Tucked behind a busy road in W12, this former foundry is a multi-level development featuring an architects’ studio with courtyards and spaces for exhibitions and musical performances. The  building's 15m brick chimney is a local landmark.","The Foundry, 1 Adelaide Grove, W12 0JU",51.5067505,-0.2373949,11:00:00,17:00:00,No,
"The Great Barn, Harmondsworth",https://programme.openhouse.org.uk/listings/2050,"The timbers of this great medieval barn (1426-7), over 190 feet long and nearly 40 feet high, are 95% original. Displays include the conservation/repairs carried out in 2014 and its place in the agricultural history of the village.","Manor Court, High Street, Harmondsworth",51.4886271,-0.4796831,10:00:00,17:00:00,No,
The House of St Barnabas,https://programme.openhouse.org.uk/listings/688,Soho's grandest Grade I listed Georgian townhouse. Fine Roccoco plasterwork commissioned 1754. Victorian Oxford Movement Chapel built 1862 by Joseph Clarke. Owned by charity supporting people affected by homelessness back into lasting work.,"1 Greek Street, Soho Square, W1D 4NQ",51.5149079,-0.1311781,10:00:00,17:00:00,Yes,No
The Listening Space Garden,https://programme.openhouse.org.uk/listings/11769,We are a community-led garden in the heart of an urban general practice. The garden has been our seedbed and hothouse allowing us to widen the traditional prescription beyond pills and procedures,"Caversham Group Practice, NW5 2UP",51.55078049999999,-0.1382223,11:00:00,16:00:00,No,
The Making of Pimlico,https://programme.openhouse.org.uk/listings/10307,"A walking tour exploring  the work of early 19th century master-builder, Mr Cubitt. Explores how the area has changed and been shaped by some of the important and influential planning, housing and design ideas of its time.",Pimlico Tube station - Rampayne Street entrance,51.4892548,-0.133332,11:00:00,13:00:00,Yes,True
The Marshall Building - London School of Economics and Political Science,https://programme.openhouse.org.uk/listings/10875,"A large multi-purpose building occupying a pivotal position at the southern corner of Lincoln’s Inn Fields.  The building provides state of the art, flexible teaching spaces on the lower levels and faculty accommodation on the upper levels.","The Marshall Building, 44 Lincoln's Inn Fields",51.5149908,-0.1167547,10:00:00,16:00:00,No,
The Mysterious Black Tudors - Westminster Family Trail,https://programme.openhouse.org.uk/listings/10427,Celebrate the Open House Festival with this fun and interactive family event about Britain's forgotten history of the Black Tudors.,"Westminster Abbey, Broad Sanctuary, SW1P 3JS",51.4993695,-0.1272993,10:30:00,12:00:00,Yes,True
The National Archives,https://programme.openhouse.org.uk/listings/1413,South West London's hidden Brutalist masterpiece.,"Ruskin Avenue, Kew, Richmond, Surrey, TW9 4DU",51.4810089,-0.2799779,09:30:00,17:00:00,Yes,No
The Questors Theatre,https://programme.openhouse.org.uk/listings/7064,"Originally planned in 1954, the first new theatre after the war, the Questors Playhouse opened in 1964, by which time its design had been followed by the Chichester Festival Theatre and the Crucible, Sheffield.","The Questors Theatre, 12 Mattock Lane, W5 5BQ",51.51156169999999,-0.3095093,10:00:00,17:00:00,No,
The Round House,https://programme.openhouse.org.uk/listings/2130,Grade II* listed late Georgian elliptical 3-storey stuccoed villa.,"Broxhill Road, Havering-atte-Bower, Romford",51.6161082,0.1961176,10:30:00,18:00:00,No,
The Swedenborg Society,https://programme.openhouse.org.uk/listings/889,"Grade II-listed Georgian domestic building c.1760, formerly part of Bedford Estate. Interior refurbished 1924-5 to form lecture hall (restored 2014), library, bookshop and offices. Oak woodwork and green Doulton tiles line the staircase.","Swedenborg House, 20-21 Bloomsbury Way",51.5180333,-0.1228486,11:00:00,17:00:00,Yes,No
Thornhill Square,https://programme.openhouse.org.uk/listings/10893,"A tour of one of the largest and best preserved early Victorian squares and gardens in London, also with a magnificent and original public library of 1906, which shows Byzantine and Art Nouveau influences, and a remarkable Gothic church.",Meet outside the main door of St Andrew’s Churc,51.541114,-0.1152717,10:00:00,16:40:00,Yes,No
Tin House,https://programme.openhouse.org.uk/listings/6428,"Making efficient use of an irregular urban site, this house is made up of interconnecting top-lit pavilions arranged to define a tranquil private courtyard.","Smugglers Yard, Devonport Road, W12 8PB",51.50423,-0.23093,10:00:00,13:00:00,No,
Tour of Convoys Wharf,https://programme.openhouse.org.uk/listings/11780,"We will open our site for a walking tour around our historic former naval dockyard, which will soon be transformed into a modern redevelopment. Learn about our historic Olympia Building and the former Deptford Dockyard.","Prince Street, Deptford, SE8 3LJ",51.4834764,-0.0278824,09:00:00,13:00:00,Yes,True
Tour the Square Root Factory,https://programme.openhouse.org.uk/listings/11297,,"Unit D11, Leyton Industrial Village",51.57054410000001,-0.0437279,10:30:00,14:30:00,Yes,True
Tower Hamlets Town Hall,https://programme.openhouse.org.uk/listings/11725,"Tower Hamlets Town Hall, the new headquarters for the London Borough of Tower Hamlets Council, encompasses the restoration of the Grade II listed former Royal London Hospital building, and the addition of a new build extension.","160 Whitechapel Road, E1 1BJ",51.51878139999999,-0.06012530000000001,10:00:00,16:00:00,No,
Trevithick House,https://programme.openhouse.org.uk/listings/8655,"Pre war social housing flats, red brick, Georgian sash windows, playground, allotments and washing lines outside.","14 Trevithick House, York Rise, NW5 1DR",51.558951,-0.1439279,14:00:00,17:00:00,No,
Turf Projects (Whitgift Centre),https://programme.openhouse.org.uk/listings/12004,"Founded in 2013 by Croydon locals, Turf Projects is Croydon’s homegrown artist space and the first entirely artist-run contemporary art space in the borough.","46-47 Trinity Court, Whitgift Centre, Croydon",51.37616,-0.09924,11:00:00,17:00:00,No,
Twickenham Museum,https://programme.openhouse.org.uk/listings/1741,"Grade II listed former waterman's cottage c1720. Restored and converted into a museum celebrating the rich history of Twickenham, Whitton, Teddington and the Hamptons.","25 The Embankment, Twickenham, TW1 3DU",51.4465155,-0.3261184,11:00:00,14:00:00,No,
"Tyrants, Colonialism and Slavery walking tour",https://programme.openhouse.org.uk/listings/11672,"A diverse walking tour, with a qualified guide, in the heart of Westminster where we visit some statues and places that have a significance to tyranny, colonialism and slavery.  The walk is accessible to all and ends in Trafalgar Square.","Parliament Square, SW1A 0AA",51.5010268,-0.1266768,11:00:00,15:00:00,Yes,True
UCL PEARL,https://programme.openhouse.org.uk/listings/9542,"UCL PEARL is a brand new building designed to be a laboratory that can ""house the world"" so that we can create different environments from around the world for experiments about people and the environment around them.","UCL PEARL, Yew Tree Avenue, RM10 7FN",51.5475663,0.16966,10:30:00,16:30:00,Yes,No
Union Chapel,https://programme.openhouse.org.uk/listings/2230,"A Grade I and II*  treasure that’s home to an inclusive church, an award winning venue, a unique organ and The Margins Project for those in crisis in London. 
Family Organ Building Workshops are generously supported by the Institute of Physics","Compton Terrace, N1 2UN",51.5446871,-0.1028803,10:00:00,14:30:00,Yes,No
Vanbrugh Park Estate,https://programme.openhouse.org.uk/listings/10329,"Vanbrugh Park Estate was designed by Chamberlin, Powell and Bon. The estate shares many stylistic similarities with their wider work such as the semi-circular curved motifs, purposeful use of light, and approach to community living.","18 Combe Avenue, Vanbrugh Park Estate, SE3 7PY",51.478469,0.012157,11:00:00,16:00:00,No,
Walking Tour of Wood Green Placemaking Projects,https://programme.openhouse.org.uk/listings/12089,"Haringey Council will guide the public around recently completed placemaking projects around Wood Green town centre, featuring the new Youth Hub, a new Community Cafe in a park and co-designed art murals and pocket parks","Outside Wood Green Underground Station, N22 8HH",51.59743,-0.10977,10:00:00,12:00:00,Yes,True
Walking tour: Central Foundation Boys' School,https://programme.openhouse.org.uk/listings/11815,"Over the last 13 years, the 150-year-old school has reused and built upon its existing campus to provide new, state-of-the-art facilities. See how new architecture can sit with heritage buildings to create something completely new.","Central Foundation Boys School, Cowper St",51.5252832,-0.0864693,14:00:00,16:00:00,Yes,True
Walthamstow Wetlands,https://programme.openhouse.org.uk/listings/3711,Join us for a tour of the refurbished Marine Engine House with our architects Witherford Watson Mann.,"Marine Engine House, 2 Forest Road, N17 9NH",51.586438,-0.0524322,11:00:00,15:30:00,Yes,True
Wandsworth House,https://programme.openhouse.org.uk/listings/9888,"A refurbishment of the loft. Two extra rooms are added accessible from a shared room. A lounge netting hangs in front of the loft spaces. 
A refurbishment of the lower ground floor into a home office with its own entrance.","20 Schubert Road, Putney, SW15 2QS",51.4576393,-0.2045922,10:00:00,17:00:00,No,
Westbury Estate,https://programme.openhouse.org.uk/listings/8371,Westbury Estate was designed by Philip Bottomley and Colin Lucas in 1961 - 1966 under Ted Hollamby. The resident-led walk will include a discussion about regeneration as well as audio recordings from Philip Bottomley tbc,"Westbury Street, Wandsworth, SW8",51.4755221,-0.1319576,11:00:00,14:00:00,Yes,No
Wiener Holocaust Library,https://programme.openhouse.org.uk/listings/5343,"Sensitive yet bold refurbishment of historic Grade II listed townhouse for The Wiener Library including dramatic first floor reading room, mezzanine and ground floor exhibition spaces.","29 Russell Square, WC1B 5DP",51.52163239999999,-0.1279933,12:00:00,16:00:00,No,
William Morris Society - Kelmscott House,https://programme.openhouse.org.uk/listings/2387,"Residence of Sir Francis Ronalds, George MacDonald and (from 1878-96) William Morris. Organised by William Morris Society. Access to The William Morris Society's premises in the Coach House and basement only, includes current exhibition.","26 Upper Mall, W6 9TA",51.4905675,-0.2355918,12:00:00,17:00:00,No,
Wimbledon Windmill,https://programme.openhouse.org.uk/listings/2396,"Rare example of a hollow post mill (1817). Grade II* listed, it now contains a museum depicting the history and development of windmills in Britain. Many working models, windmill machinery, equipment and tools.","Windmill Road, Wimbledon Common, SW19 5NR",51.4349765,-0.2318027,14:00:00,17:00:00,No,
Zoroastrian Centre For Europe (formerly Grosvenor Cinema),https://programme.openhouse.org.uk/listings/3433,"Grade II* listed Art Deco building with well-preserved interior. Auditorium with deep coved ribs; proscenium arch flanked by fluted columns. Restoration fully funded by  donations from Zoroastrian faith community, without government grants.","440-442 Alexandra Avenue, Harrow, Middlesex",51.57401170000001,-0.3706816,11:00:00,15:00:00,No,
