name,url,description,address,latitude,longitude,start_time,end_time,ticketed_events,fully_booked
"""Chinese"" Garage",https://programme.openhouse.org.uk/listings/11337,A Grade II listed motor garage and petrol station built in the style of a Japanese pagoda in 1928. Now a Tesco Express.,"Chinese Garage, Stone Park Avenue, BR3 3FE",51.3988696,-0.0188405,07:00:00,23:00:00,No,
Altab Ali Park,https://programme.openhouse.org.uk/listings/11340,"Altab Ali Park was renamed in 1998 after a murdered 25-year-old Bangladeshi Sylheti clothing worker. Formerly known as St. Mary's Park, it is the site of the old 14 C white church, St. Mary Matfelon which gave Whitechapel its name.","Alder Street,, E1 1FD",51.51538,-0.0672139,07:00:00,23:00:00,No,
Fore Street Art Trail,https://programme.openhouse.org.uk/listings/11138,Enjoy a self guided walking tour of Fore Street to see a wide range of public art including murals and sculptures.,"Fore Street, Angel Edmonton, Enfield, N18 2UE",51.6157822,-0.0642022,07:00:00,23:45:00,No,
Public Meeting: Time for Change: A New Vision for Convoys Wharf,https://programme.openhouse.org.uk/listings/11264,A community-run evening of talks and discussions on the future development of Convoys Wharf. The historically important 40 acre site is slated for a controversial large-scale re-development. A must for all concerned about London's future.,"Armada Centre, Armada Court, 21 McMillan St",51.4814509,-0.0248209,19:00:00,21:00:00,No,
Pushkin House,https://programme.openhouse.org.uk/listings/4108,The independent cultural centre Pushkin House will contribute to this year's Open House Festival through a programme of events and community initiatives at its Grade-II listed building in Bloomsbury Square.,"5a Bloomsbury Square, WC1A 2TA",51.5182912,-0.1230772,09:00:00,21:00:00,No,
Small Beer Brewery,https://programme.openhouse.org.uk/listings/7628,"The Small Beer Brewery was founded in 2017 by James Grundy and  Felix James. It is the first of its kind, specialising in brewing world class beer at a sociable strength.","70-72 Verney Road, SE16 3DH",51.485745,-0.0591795,16:00:00,22:00:00,No,
Westminster station tours,https://programme.openhouse.org.uk/listings/11352,"This short tour will take you through Westminster station, a brutalist dream and one of the most beloved stations on the Underground network. We will discuss the station's architecture and how it has been modified since reopening in 1999.","Westminster Station, Bridge Street, SW1A 2JR",51.501343,-0.1248413,20:00:00,20:30:00,Yes,No
